id,daftShortcode,title,price,size_meters_squared,propertySize,bedrooms,bathrooms,propertyType,publishDate,ber_rating,ber_code,ber_epi,latitude,longitude,category,location,url_link
4004352,112967141,"250 Island Key, East Road, East Wall, Dublin 3",395000.0,85,85 m²,3,2,Apartment,2022-08-10,C3,,,53.353274,-6.229441,Buy,ALL_HALLOWS_COLLEGE_DUBLIN,http://www.daft.ie/for-sale/apartment-250-island-key-east-road-east-wall-dublin-3/4004352
4003998,112963431,"Apartment 245, The Willows, Carrington, Santry, Dublin 9",275000.0,75,75 m²,2,2,Apartment,2022-08-10,B3,115379240,130.09 kWh/m2/yr,53.403718,-6.252195,Buy,ALL_HALLOWS_COLLEGE_DUBLIN,http://www.daft.ie/for-sale/apartment-apartment-245-the-willows-carrington-santry-dublin-9/4003998
4002677,112953660,"149 NORTH STRAND, Fairview, Dublin 3",225000.0,51,51 m²,1,1,Apartment,2022-08-01,C1,,,53.3571354,-6.242997,Buy,ALL_HALLOWS_COLLEGE_DUBLIN,http://www.daft.ie/for-sale/apartment-149-north-strand-fairview-dublin-3/4002677
3983561,19657911,"Apartment 1, Glenavon Court, Glasnevin, Dublin 9",275000.0,60,60 m²,2,1,Apartment,2022-08-10,D2,102321353,278.95 kWh/m2/yr,53.378675,-6.266719,Buy,ALL_HALLOWS_COLLEGE_DUBLIN,http://www.daft.ie/for-sale/apartment-apartment-1-glenavon-court-glasnevin-dublin-9/3983561
3982090,19639204,"Apartment 72, The Clayton, The Gasworks, Dublin 4",495000.0,72,72 m²,2,2,Apartment,2022-08-10,C1,,,53.339249,-6.234891,Buy,ALL_HALLOWS_COLLEGE_DUBLIN,http://www.daft.ie/for-sale/apartment-apartment-72-the-clayton-the-gasworks-dublin-4/3982090
234693,12007133,"Hanover Court, The Reflector, Grand Canal Dock, Dublin 2",685000.0,N/A,,2,2,Apartment,2022-07-11,A3,,,53.34398446052439,-6.232362430072044,New Homes,ALL_HALLOWS_COLLEGE_DUBLIN,http://www.daft.ie/new-home-for-sale/apartment-2-bed-apartments-hanover-court-hanover-court-the-reflector-grand-canal-dock-dublin-2/234693
4018339,113055448,"Apartment 10, Beaucourt, Achill Road, Drumcondra, Dublin 3",235000.0,44,44 m²,1,1,Apartment,2022-08-10,E2,,,53.375153,-6.253586,Buy,ALL_HALLOWS_COLLEGE_DUBLIN,http://www.daft.ie/for-sale/apartment-apartment-10-beaucourt-achill-road-drumcondra-dublin-3/4018339
4018152,113052599,"2 Berkeley House, 23 - 25 Pembroke Road, Ballsbridge, Dublin 4",325000.0,37,37 m²,1,1,Apartment,2022-08-10,E2,105819569,370.25 kWh/m2/yr,53.332285,-6.241666,Buy,ALL_HALLOWS_COLLEGE_DUBLIN,http://www.daft.ie/for-sale/apartment-2-berkeley-house-23-25-pembroke-road-ballsbridge-dublin-4/4018152
4018069,113052532,"Apartment 68, The Clayton, The Gasworks, Dublin 4",490000.0,76,76 m²,2,2,Apartment,2022-08-10,C2,,,53.339249,-6.234891,Buy,ALL_HALLOWS_COLLEGE_DUBLIN,http://www.daft.ie/for-sale/apartment-apartment-68-the-clayton-the-gasworks-dublin-4/4018069
4018001,113052248,"Apartment 105, The Cedars, Carrington, Santry, Dublin 9",295000.0,73,73 m²,2,2,Apartment,2022-08-10,B3,,,53.403205,-6.253789,Buy,ALL_HALLOWS_COLLEGE_DUBLIN,http://www.daft.ie/for-sale/apartment-apartment-105-the-cedars-carrington-santry-dublin-9/4018001
4017751,113049627,"39 Aran House, Custom House Square, Dublin 1",370000.0,68,68 m²,2,2,Apartment,2022-08-09,D1,,,53.349794,-6.242574,Buy,ALL_HALLOWS_COLLEGE_DUBLIN,http://www.daft.ie/for-sale/apartment-39-aran-house-custom-house-square-dublin-1/4017751
4012033,113035759,"Apt 16, William Beckett House, Pembroke Row, D2, Dublin 2",475000.0,74,74 m²,2,2,Apartment,2022-08-08,B2,104258868,124.48 kWh/m2/yr,53.3344529,-6.2472797,Buy,ALL_HALLOWS_COLLEGE_DUBLIN,http://www.daft.ie/for-sale/apartment-apt-16-william-beckett-house-pembroke-row-d2-dublin-2/4012033
4011979,113034056,"39 Catherines Close, Carmans Hall, Dublin 8",325000.0,73,73 m²,2,1,Apartment,2022-08-10,C1,115393985,152.81 kWh/m2/yr,53.340699,-6.276938,Buy,ALL_HALLOWS_COLLEGE_DUBLIN,http://www.daft.ie/for-sale/apartment-39-catherines-close-carmans-hall-dublin-8/4011979
4011845,113031668,"Apartment 45, Griffith Hall, Glandore Road, Drumcondra, Dublin 3",285000.0,N/A,,2,1,Apartment,2022-08-08,D1,,,53.373601,-6.236758,Buy,ALL_HALLOWS_COLLEGE_DUBLIN,http://www.daft.ie/for-sale/apartment-apartment-45-griffith-hall-glandore-road-drumcondra-dublin-3/4011845
4011519,113029374,"3 The Courtyard, Pleasants Street, Dublin 8",299000.0,44,44 m²,1,1,Apartment,2022-08-08,C3,114716244,211.73 kWh/m2/yr,53.335179,-6.266332,Buy,ALL_HALLOWS_COLLEGE_DUBLIN,http://www.daft.ie/for-sale/apartment-3-the-courtyard-pleasants-street-dublin-8/4011519
4011217,113026542,"Apartment 3, The Court, Dalcassian Downs, Glasnevin, Dublin 11",240000.0,N/A,,1,1,Apartment,2022-08-10,E1,,,53.365692,-6.272642,Buy,ALL_HALLOWS_COLLEGE_DUBLIN,http://www.daft.ie/for-sale/apartment-apartment-3-the-court-dalcassian-downs-glasnevin-dublin-11/4011217
4011360,113028029,"Apartment 16, The Waterfront, Grand Canal Dock, Dublin 2",560000.0,85,85 m²,2,2,Apartment,2022-08-09,B2,100746254,,53.344069,-6.234257,Buy,ALL_HALLOWS_COLLEGE_DUBLIN,http://www.daft.ie/for-sale/apartment-apartment-16-the-waterfront-grand-canal-dock-dublin-2/4011360
4011086,113025443,"Apt. 13 The Clayton The Gasworks South Lotts Road Dublin 4, Ringsend, Dublin 4",495000.0,72,72 m²,2,2,Apartment,2022-08-10,C3,,,53.339064,-6.235107,Buy,ALL_HALLOWS_COLLEGE_DUBLIN,http://www.daft.ie/for-sale/apartment-apt-13-the-clayton-the-gasworks-south-lotts-road-dublin-4-ringsend-dublin-4/4011086
4009346,113013122,"Apartment 105B Hampton Lodge, Grace Park Road, Drumcondra, Dublin 9",375000.0,85,85 m²,2,2,Apartment,2022-08-10,C1,,,53.376203,-6.244465,Buy,ALL_HALLOWS_COLLEGE_DUBLIN,http://www.daft.ie/for-sale/apartment-apartment-105b-hampton-lodge-grace-park-road-drumcondra-dublin-9/4009346
4009272,113012022,"Apartment 124 Temple Court, Northwood, Santry, Dublin 9",295000.0,77,77 m²,2,2,Apartment,2022-08-10,C1,,,53.406514,-6.250182,Buy,ALL_HALLOWS_COLLEGE_DUBLIN,http://www.daft.ie/for-sale/apartment-apartment-124-temple-court-northwood-santry-dublin-9/4009272
4008641,113004489,"Apartment 188, Skellig Michael, Custom House Harbour Apartments, Dublin 1",360000.0,54,54 m²,2,1,Apartment,2022-08-09,D1,,,53.350348,-6.24608,Buy,ALL_HALLOWS_COLLEGE_DUBLIN,http://www.daft.ie/for-sale/apartment-apartment-188-skellig-michael-custom-house-harbour-apartments-dublin-1/4008641
4008384,113002722,"13 The Corn Exchange, Poolbeg street, South City Center, Dublin 2",315000.0,N/A,,1,1,Apartment,2022-08-10,D2,,,53.347277,-6.256548,Buy,ALL_HALLOWS_COLLEGE_DUBLIN,http://www.daft.ie/for-sale/apartment-13-the-corn-exchange-poolbeg-street-south-city-center-dublin-2/4008384
4008005,113001178,"Apartment 512, Longboat Quay South Apartments, Grand Canal Dock, Dublin 2",560000.0,91,91 m²,3,2,Apartment,2022-08-10,C2,115387201,,53.344286,-6.236399,Buy,ALL_HALLOWS_COLLEGE_DUBLIN,http://www.daft.ie/for-sale/apartment-apartment-512-longboat-quay-south-apartments-grand-canal-dock-dublin-2/4008005
4007822,112999691,"Apt 16 Auburn, Howth Road, Clontarf, Dublin 3",435000.0,97,97 m²,2,2,Apartment,2022-08-05,C2,108365016,178.58 kWh/m2/yr,53.369071,-6.215068,Buy,ALL_HALLOWS_COLLEGE_DUBLIN,http://www.daft.ie/for-sale/apartment-apt-16-auburn-howth-road-clontarf-dublin-3/4007822
4007354,112994202,"Apartment 115, Bachelors Walk Apartments, Dublin 1",230000.0,35,35 m²,1,1,Apartment,2022-08-10,E1,,,53.346972,-6.262167,Buy,ALL_HALLOWS_COLLEGE_DUBLIN,http://www.daft.ie/for-sale/apartment-apartment-115-bachelors-walk-apartments-dublin-1/4007354
4006287,112985157,"Apartment 7, The Waterfront, Grand Canal Dock, Dublin 2",435000.0,79,79 m²,2,2,Apartment,2022-08-10,B3,100746239,,53.344069,-6.234257,Buy,ALL_HALLOWS_COLLEGE_DUBLIN,http://www.daft.ie/for-sale/apartment-apartment-7-the-waterfront-grand-canal-dock-dublin-2/4006287
4006154,112982984,"Apartment 56, Ha'penny Bridge House, Dublin 1",450000.0,51,51 m²,3,1,Apartment,2022-08-05,D2,104346531,,53.346352,-6.265511,Buy,ALL_HALLOWS_COLLEGE_DUBLIN,http://www.daft.ie/for-sale/apartment-apartment-56-hapenny-bridge-house-dublin-1/4006154
4006052,112981292,"Apartment 12, The Goulding, Santry Cross, Santry, Dublin 9",245000.0,60,60 m²,2,2,Apartment,2022-08-10,D2,106925316,262.15 kWh/m2/yr,53.400385,-6.263637,Buy,ALL_HALLOWS_COLLEGE_DUBLIN,http://www.daft.ie/for-sale/apartment-apartment-12-the-goulding-santry-cross-santry-dublin-9/4006052
4005927,112980948,"34 The Wellington, Riverpark Apartments, Islandbridge, Dublin 8",360000.0,62,62 m²,2,1,Apartment,2022-08-10,C2,106075369,195.63 kWh/m2/yr,53.358564,-6.276094,Buy,ALL_HALLOWS_COLLEGE_DUBLIN,http://www.daft.ie/for-sale/apartment-34-the-wellington-riverpark-apartments-islandbridge-dublin-8/4005927
4005759,112980372,"Apartment 21 The Northumberlands, Love Lane East, Mount Street Lower, Dublin 2",395000.0,66,66 m²,2,1,Apartment,2022-08-10,D2,115371577,296.76 kWh/m2/yr,53.338592,-6.24148,Buy,ALL_HALLOWS_COLLEGE_DUBLIN,http://www.daft.ie/for-sale/apartment-apartment-21-the-northumberlands-love-lane-east-mount-street-lower-dublin-2/4005759
4005202,112976166,"Apartment 4, The Richmond, Dublin 7",260000.0,38,38 m²,1,1,Apartment,2022-08-05,D2,,,53.350708,-6.277826,Buy,ALL_HALLOWS_COLLEGE_DUBLIN,http://www.daft.ie/for-sale/apartment-apartment-4-the-richmond-dublin-7/4005202
4004624,112968618,"Apt 21, Rosemount, Glandore Road, Drumcondra, Dublin 9",380000.0,70,70 m²,2,2,Apartment,2022-08-10,C3,106793482,214.95 kWh/m2/yr,53.3727082,-6.2373207,Buy,ALL_HALLOWS_COLLEGE_DUBLIN,http://www.daft.ie/for-sale/apartment-apt-21-rosemount-glandore-road-drumcondra-dublin-9/4004624
4003726,112958988,"Apartment 426, Longboat Quay North Apartments, Dublin 2",380000.0,53,53 m²,1,1,Apartment,2022-08-07,D1,111336863,,53.345373,-6.236215,Buy,ALL_HALLOWS_COLLEGE_DUBLIN,http://www.daft.ie/for-sale/apartment-apartment-426-longboat-quay-north-apartments-dublin-2/4003726
4001142,112941041,"37 Saunders House, Spencer Dock, IFSC, Dublin 1",475000.0,81,81 m²,2,2,Apartment,2022-08-10,B2,101710440,115.41 kWh/m2/yr,53.349344,-6.237809,Buy,ALL_HALLOWS_COLLEGE_DUBLIN,http://www.daft.ie/for-sale/apartment-37-saunders-house-spencer-dock-ifsc-dublin-1/4001142
4000733,112937298,"68 Griffith Hall, Drumcondra, Dublin 9",250000.0,47,47 m²,1,1,Apartment,2022-08-10,D2,115339111,299.15 kWh/m2/yr,53.374297,-6.237035,Buy,ALL_HALLOWS_COLLEGE_DUBLIN,http://www.daft.ie/for-sale/apartment-68-griffith-hall-drumcondra-dublin-9/4000733
4000647,112937175,"Apartment 432, Longboat Quay North Apartments, Grand Canal Dock, Dublin 2",475000.0,58,58 m²,2,2,Apartment,2022-08-08,C3,103979373,224.01 kWh/m2/yr,53.345373,-6.236215,Buy,ALL_HALLOWS_COLLEGE_DUBLIN,http://www.daft.ie/for-sale/apartment-apartment-432-longboat-quay-north-apartments-grand-canal-dock-dublin-2/4000647
4000243,112931956,"Apartment 102, Longboat Quay South Apartments, Grand Canal Dock, Dublin 2",575000.0,117,117 m²,3,3,Apartment,2022-08-10,D2,114823800,247.57 kWh/m2/yr,53.34438,-6.237061,Buy,ALL_HALLOWS_COLLEGE_DUBLIN,http://www.daft.ie/for-sale/apartment-apartment-102-longboat-quay-south-apartments-grand-canal-dock-dublin-2/4000243
3999586,112925554,"Apartment 340, Castleforbes Square, Dublin 1",390000.0,N/A,,2,2,Apartment,2022-08-10,C3,115377525,204.77 kWh/m2/yr,53.349155,-6.23166,Buy,ALL_HALLOWS_COLLEGE_DUBLIN,http://www.daft.ie/for-sale/apartment-apartment-340-castleforbes-square-dublin-1/3999586
3999980,112930414,"Apartment 30, Beaumont Court, Beaumont, Dublin 9",260000.0,55,55 m²,2,1,Apartment,2022-07-29,D2,115376618,275.32 kWh/m2/yr,53.391941,-6.227202,Buy,ALL_HALLOWS_COLLEGE_DUBLIN,http://www.daft.ie/for-sale/apartment-apartment-30-beaumont-court-beaumont-dublin-9/3999980
3999956,112930022,"Apt 38, Stapleton House, 33 Mountjoy Square, Dublin 1",235000.0,N/A,,1,1,Apartment,2022-08-10,E1,115375925,317.14 kWh/m2/yr,53.35637,-6.255585,Buy,ALL_HALLOWS_COLLEGE_DUBLIN,http://www.daft.ie/for-sale/apartment-apt-38-stapleton-house-33-mountjoy-square-dublin-1/3999956
3998060,112915731,"Apartment 73, Beaumont Court, Beaumont, Dublin 9",219950.0,N/A,,1,1,Apartment,2022-08-10,D2,115358970,264.83 kWh/m2/yr,53.391924,-6.226502,Buy,ALL_HALLOWS_COLLEGE_DUBLIN,http://www.daft.ie/for-sale/apartment-apartment-73-beaumont-court-beaumont-dublin-9/3998060
3997986,112915378,"Apartment 4, Victoria House, Ballsbridge, Dublin 4",435000.0,59,59 m²,2,1,Apartment,2022-08-10,F,115209934,401.61 kWh/m2/yr,53.334665,-6.243764,Buy,ALL_HALLOWS_COLLEGE_DUBLIN,http://www.daft.ie/for-sale/apartment-apartment-4-victoria-house-ballsbridge-dublin-4/3997986
3997291,112907805,"Apt 8 Parklands, Northwood, Santry, Dublin 9",285000.0,62,62 m²,2,2,Apartment,2022-07-28,B3,115363673,145.6 kWh/m2/yr,53.40569,-6.250476,Buy,ALL_HALLOWS_COLLEGE_DUBLIN,http://www.daft.ie/for-sale/apartment-apt-8-parklands-northwood-santry-dublin-9/3997291
3989139,19713825,"Apartment 33, The Old Distillery, Dublin 7",324500.0,68,68 m²,2,1,Apartment,2022-08-10,C2,107199937,,53.34941,-6.273318,Buy,ALL_HALLOWS_COLLEGE_DUBLIN,http://www.daft.ie/for-sale/apartment-apartment-33-the-old-distillery-dublin-7/3989139
3995916,112893041,"32 The Millennium Tower, Charlotte Quay Dock, Grand Canal Dock, Dublin 4",1150000.0,102,102 m²,3,2,Apartment,2022-08-10,,,,53.34284,-6.236924,Buy,ALL_HALLOWS_COLLEGE_DUBLIN,http://www.daft.ie/for-sale/apartment-32-the-millennium-tower-charlotte-quay-dock-grand-canal-dock-dublin-4/3995916
3995901,112891672,"6 Hill Of Down House, Spencer Dock, IFSC, Co. Dublin",295000.0,62,62 m²,1,2,Apartment,2022-08-10,C1,106625809,172.42 kWh/m2/yr,53.350118,-6.23921,Buy,ALL_HALLOWS_COLLEGE_DUBLIN,http://www.daft.ie/for-sale/apartment-6-hill-of-down-house-spencer-dock-ifsc-co-dublin/3995901
3995426,112886052,"Block G, 281 Sycamores, Carrington, Northwood, Santry, Dublin 9",235000.0,N/A,,1,1,Apartment,2022-08-10,B3,115360448,135.66 kWh/m2/yr,53.404063,-6.253064,Buy,ALL_HALLOWS_COLLEGE_DUBLIN,http://www.daft.ie/for-sale/apartment-block-g-281-sycamores-carrington-northwood-santry-dublin-9/3995426
3995425,112886051,"8 Kingston Lodge, Drumcondra, Dublin 3",240000.0,N/A,,1,1,Apartment,2022-08-10,D1,108901570,257.27 kWh/m2/yr,53.363645,-6.255243,Buy,ALL_HALLOWS_COLLEGE_DUBLIN,http://www.daft.ie/for-sale/apartment-8-kingston-lodge-drumcondra-dublin-3/3995425
3995388,112886022,"Apartment 5, Clonliffe Square, Distillery Road, Drumcondra, Dublin 3",245000.0,40,40 m²,1,1,Apartment,2022-08-08,E2,105355192,355.69 kWh/m2/yr,53.364311,-6.248083,Buy,ALL_HALLOWS_COLLEGE_DUBLIN,http://www.daft.ie/for-sale/apartment-apartment-5-clonliffe-square-distillery-road-drumcondra-dublin-3/3995388
3995194,112883833,"1B Percy Lane, Ballsbridge, Dublin 4",1150000.0,158,158 m²,3,,Apartment,2022-08-09,A3,107129827,55.83 kWh/m2/yr,53.336547,-6.240102,Buy,ALL_HALLOWS_COLLEGE_DUBLIN,http://www.daft.ie/for-sale/apartment-1b-percy-lane-ballsbridge-dublin-4/3995194
3993956,112870139,"Apartment 43, Amiens Square, IFSC, Dublin 1",325000.0,57,57 m²,2,1,Apartment,2022-08-10,C2,115213589,,53.350744,-6.250748,Buy,ALL_HALLOWS_COLLEGE_DUBLIN,http://www.daft.ie/for-sale/apartment-apartment-43-amiens-square-ifsc-dublin-1/3993956
3994725,112878358,"Apartment 7, Swift House, Ardilaun Court, Christchurch, Dublin 8",240000.0,39,39 m²,1,1,Apartment,2022-08-10,D2,,,53.341425,-6.272605,Buy,ALL_HALLOWS_COLLEGE_DUBLIN,http://www.daft.ie/for-sale/apartment-apartment-7-swift-house-ardilaun-court-christchurch-dublin-8/3994725
3994264,112872995,"Apartment 273, Block 5, Parklands, Northwood, Santry, Dublin 9",275000.0,65,65 m²,2,1,Apartment,2022-08-10,B3,115373060,133.65 kWh/m2/yr,53.405983,-6.251682,Buy,ALL_HALLOWS_COLLEGE_DUBLIN,http://www.daft.ie/for-sale/apartment-apartment-273-block-5-parklands-northwood-santry-dublin-9/3994264
3994154,112871659,"69 Mellowes Quay, Usher's Quay, Dublin 8",270000.0,50,50 m²,1,1,Apartment,2022-08-10,C1,108472713,173.7 kWh/m2/yr,53.34544,-6.279811,Buy,ALL_HALLOWS_COLLEGE_DUBLIN,http://www.daft.ie/for-sale/apartment-69-mellowes-quay-ushers-quay-dublin-8/3994154
3991572,19741705,"Apartment 16, Grattan Hall, Dublin 2",495000.0,74,74 m²,2,1,Apartment,2022-08-10,C1,,,53.338815,-6.24251,Buy,ALL_HALLOWS_COLLEGE_DUBLIN,http://www.daft.ie/for-sale/apartment-apartment-16-grattan-hall-dublin-2/3991572
3993535,112863980,"Apartment 414, Longboat Quay North Apartments, Dublin 2",375000.0,50,50 m²,1,1,Apartment,2022-07-28,C2,111408340,187.67 kWh/m2/yr,53.345373,-6.236215,Buy,ALL_HALLOWS_COLLEGE_DUBLIN,http://www.daft.ie/for-sale/apartment-apartment-414-longboat-quay-north-apartments-dublin-2/3993535
3992235,19750928,"10 Botanic Square, Glasnevin, Dublin 9",250000.0,40,40 m²,1,1,Apartment,2022-08-10,F,106911886,442.14 kWh/m2/yr,53.369313,-6.263685,Buy,ALL_HALLOWS_COLLEGE_DUBLIN,http://www.daft.ie/for-sale/apartment-10-botanic-square-glasnevin-dublin-9/3992235
3415542,15297662,"Apartment 5, 7 Anglesea Street, Dublin 2",285000.0,46,46 m²,1,1,Apartment,2022-08-03,E2,,,53.344967,-6.261939,Buy,ALL_HALLOWS_COLLEGE_DUBLIN,http://www.daft.ie/for-sale/apartment-apartment-5-7-anglesea-street-dublin-2/3415542
3992123,19750866,"Apartment 34, Griffith Hall, Glandore Road, Drumcondra, Dublin 9",299000.0,65,65 m²,2,1,Apartment,2022-07-23,D1,,,53.373671,-6.236701,Buy,ALL_HALLOWS_COLLEGE_DUBLIN,http://www.daft.ie/for-sale/apartment-apartment-34-griffith-hall-glandore-road-drumcondra-dublin-9/3992123
3991985,19748862,"Apartment 24, Beaumont Court, Beaumont, Dublin 9",245000.0,63,63 m²,2,1,Apartment,2022-08-09,C3,,,53.392076,-6.227852,Buy,ALL_HALLOWS_COLLEGE_DUBLIN,http://www.daft.ie/for-sale/apartment-apartment-24-beaumont-court-beaumont-dublin-9/3991985
3991538,19741689,"Apartment 86, Shelbourne Village, Dublin 4",350000.0,N/A,,2,1,Apartment,2022-07-30,E2,,,53.341526,-6.235614,Buy,ALL_HALLOWS_COLLEGE_DUBLIN,http://www.daft.ie/for-sale/apartment-apartment-86-shelbourne-village-dublin-4/3991538
3991458,19739668,"272 The Asgard, Custom House Harbour, IFSC, Co. Dublin",495000.0,86,86 m²,2,2,Apartment,2022-08-10,D2,112806203,,53.350487,-6.247546,Buy,ALL_HALLOWS_COLLEGE_DUBLIN,http://www.daft.ie/for-sale/apartment-272-the-asgard-custom-house-harbour-ifsc-co-dublin/3991458
3991352,19738922,"Apartment 1, 35-38 Mountjoy Square South, Dublin 1",225000.0,37,37 m²,1,1,Apartment,2022-08-08,F,100311257,429.17 kWh/m2/yr,53.355952,-6.255889,Buy,ALL_HALLOWS_COLLEGE_DUBLIN,http://www.daft.ie/for-sale/apartment-apartment-1-35-38-mountjoy-square-south-dublin-1/3991352
3990495,19729397,"Apartment 3, Temple Gardens, Northwood, Santry, Dublin 9",325000.0,95,95 m²,3,2,Apartment,2022-08-10,C1,,,53.405344,-6.247649,Buy,ALL_HALLOWS_COLLEGE_DUBLIN,http://www.daft.ie/for-sale/apartment-apartment-3-temple-gardens-northwood-santry-dublin-9/3990495
3990319,19729286,"APARTMENT 3, 43 Essex Street East, Temple Bar, Dublin 2",280000.0,53,53 m²,1,1,Apartment,2022-07-21,E2,112378799,360.35 kWh/m2/yr,53.344975,-6.266518,Buy,ALL_HALLOWS_COLLEGE_DUBLIN,http://www.daft.ie/for-sale/apartment-apartment-3-43-essex-street-east-temple-bar-dublin-2/3990319
3988794,19710124,"Apartment 120, Greeg Court, Dublin 1",425000.0,100,100 m²,3,3,Apartment,2022-08-09,D1,,,53.351117,-6.263792,Buy,ALL_HALLOWS_COLLEGE_DUBLIN,http://www.daft.ie/for-sale/apartment-apartment-120-greeg-court-dublin-1/3988794
3988652,19708598,"Apartment 16, Block 1, Parklands, Northwood, Santry, Dublin 9",300000.0,87,87 m²,2,2,Apartment,2022-08-10,C2,,,53.40569,-6.250476,Buy,ALL_HALLOWS_COLLEGE_DUBLIN,http://www.daft.ie/for-sale/apartment-apartment-16-block-1-parklands-northwood-santry-dublin-9/3988652
3988266,19702275,"8 Clarendon Hall, Aungier Street, Dublin 2",240000.0,40,40 m²,1,1,Apartment,2022-08-10,E2,115204448,356.2 kWh/m2/yr,53.340519,-6.265637,Buy,ALL_HALLOWS_COLLEGE_DUBLIN,http://www.daft.ie/for-sale/apartment-8-clarendon-hall-aungier-street-dublin-2/3988266
3987050,19692854,"602 Cathedral Court, New Street South, Dublin 8",425000.0,74,74 m²,2,1,Apartment,2022-08-10,C1,115353302,171.16 kWh/m2/yr,53.337683,-6.273056,Buy,ALL_HALLOWS_COLLEGE_DUBLIN,http://www.daft.ie/for-sale/apartment-602-cathedral-court-new-street-south-dublin-8/3987050
3189915,14517309,"Apartment 1, Jasonia Centre, Dublin 2",385000.0,80,80 m²,2,1,Apartment,2022-07-19,D1,,,53.344301,-6.26647,Buy,ALL_HALLOWS_COLLEGE_DUBLIN,http://www.daft.ie/for-sale/apartment-apartment-1-jasonia-centre-dublin-2/3189915
3986889,19690263,"47 Pier 19, Dublin 8",250000.0,51,51 m²,2,1,Apartment,2022-08-10,D2,114743479,,53.345656,-6.281354,Buy,ALL_HALLOWS_COLLEGE_DUBLIN,http://www.daft.ie/for-sale/apartment-47-pier-19-dublin-8/3986889
3986724,19688716,"14 Symphony House, Adelaide Road, Dublin 2",375000.0,48,48 m²,1,1,Apartment,2022-08-10,E1,114861164,303.37 kWh/m2/yr,53.331968,-6.254943,Buy,ALL_HALLOWS_COLLEGE_DUBLIN,http://www.daft.ie/for-sale/apartment-14-symphony-house-adelaide-road-dublin-2/3986724
3986704,19688663,"27 Riverbank Hall, Glasnevin, Dublin 11",245000.0,46,46 m²,1,1,Apartment,2022-08-10,C1,115353005,157.26 kWh/m2/yr,53.376828,-6.276674,Buy,ALL_HALLOWS_COLLEGE_DUBLIN,http://www.daft.ie/for-sale/apartment-27-riverbank-hall-glasnevin-dublin-11/3986704
3986460,19687854,"Apartment 14, Symphony House, Dublin 2",375000.0,48,48 m²,1,1,Apartment,2022-07-19,E1,114861164,,53.331968,-6.254943,Buy,ALL_HALLOWS_COLLEGE_DUBLIN,http://www.daft.ie/for-sale/apartment-apartment-14-symphony-house-dublin-2/3986460
3985679,19681972,"Apartment 18, Saint James's, Clontarf, Dublin 3",300000.0,48,48 m²,1,1,Apartment,2022-08-09,C2,113907620,185.91 kWh/m2/yr,53.366936,-6.216912,Buy,ALL_HALLOWS_COLLEGE_DUBLIN,http://www.daft.ie/for-sale/apartment-apartment-18-saint-jamess-clontarf-dublin-3/3985679
3983646,19657969,"171 Wintergarden, Pearse Street, Dublin 2",375000.0,65,65 m²,2,1,Apartment,2022-08-10,D1,115348005,254.51 kWh/m2/yr,53.344257,-6.243276,Buy,ALL_HALLOWS_COLLEGE_DUBLIN,http://www.daft.ie/for-sale/apartment-171-wintergarden-pearse-street-dublin-2/3983646
3983040,19650954,"17 Music Hall, Temple Bar, Dublin 2",245000.0,40,40 m²,1,1,Apartment,2022-08-10,D1,114872468,,53.344058,-6.269186,Buy,ALL_HALLOWS_COLLEGE_DUBLIN,http://www.daft.ie/for-sale/apartment-17-music-hall-temple-bar-dublin-2/3983040
3982950,19650903,"Apartment 27, Montgomery Court, Dublin 1",249950.0,49,49 m²,1,1,Apartment,2022-08-10,C2,,,53.35245,-6.249849,Buy,ALL_HALLOWS_COLLEGE_DUBLIN,http://www.daft.ie/for-sale/apartment-apartment-27-montgomery-court-dublin-1/3982950
3982564,19645882,"Apartment 45, Beaumont Court, Beaumont, Dublin 9",195000.0,40,40 m²,1,1,Apartment,2022-07-15,D2,,,53.391941,-6.227202,Buy,ALL_HALLOWS_COLLEGE_DUBLIN,http://www.daft.ie/for-sale/apartment-apartment-45-beaumont-court-beaumont-dublin-9/3982564
3981798,19635235,"Apartment 2, Symphony House, Dublin 2",475000.0,55,55 m²,1,1,Apartment,2022-08-09,D1,109781989,234.0 kWh/m2/yr,53.331968,-6.254943,Buy,ALL_HALLOWS_COLLEGE_DUBLIN,http://www.daft.ie/for-sale/apartment-apartment-2-symphony-house-dublin-2/3981798
3981649,19634363,"Apartment 1 The Landey, Santry, Dublin 9",235000.0,65,65 m²,2,2,Apartment,2022-08-10,D2,102197142,236.32 kWh/m2/yr,53.4006953,-6.2618423,Buy,ALL_HALLOWS_COLLEGE_DUBLIN,http://www.daft.ie/for-sale/apartment-apartment-1-the-landey-santry-dublin-9/3981649
3981603,19632134,"161 The Berkeley, Pembroke Square, Grand Canal Street, Ballsbridge, Dublin 4",495000.0,N/A,,3,2,Apartment,2022-08-10,B3,112654033,133.58 kWh/m2/yr,53.338529,-6.237585,Buy,ALL_HALLOWS_COLLEGE_DUBLIN,http://www.daft.ie/for-sale/apartment-161-the-berkeley-pembroke-square-grand-canal-street-ballsbridge-dublin-4/3981603
3980954,19626435,"14 City Square, Gloucester Street, Dublin 2",450000.0,82,82 m²,2,2,Apartment,2022-07-14,C2,,,53.3461212,-6.2495101,Buy,ALL_HALLOWS_COLLEGE_DUBLIN,http://www.daft.ie/for-sale/apartment-14-city-square-gloucester-street-dublin-2/3980954
3979745,19622817,"Apartment 144, Block E, Blackhall Square, Dublin 7",250000.0,43,43 m²,1,1,Apartment,2022-08-04,E1,,,53.350387,-6.28072,Buy,ALL_HALLOWS_COLLEGE_DUBLIN,http://www.daft.ie/for-sale/apartment-apartment-144-block-e-blackhall-square-dublin-7/3979745
3979714,19622685,"8 Carrig Road, Ballymun, Dublin 11",189950.0,N/A,,2,1,Apartment,2022-08-09,D1,,,53.399888,-6.276583,Buy,ALL_HALLOWS_COLLEGE_DUBLIN,http://www.daft.ie/for-sale/apartment-8-carrig-road-ballymun-dublin-11/3979714
3977144,19603652,"Apartment 72, 109 Parnell Street, Dublin 1",220000.0,38,38 m²,1,1,Apartment,2022-08-10,SI_666,,,53.353965,-6.256968,Buy,ALL_HALLOWS_COLLEGE_DUBLIN,http://www.daft.ie/for-sale/apartment-apartment-72-109-parnell-street-dublin-1/3977144
3977373,19606985,"Apartment 23, Chancery Hall, Smithfield, Dublin 1",395000.0,61,61 m²,2,2,Apartment,2022-08-09,D2,106989429,57.37 kWh/m2/yr,53.349973,-6.2738,Buy,ALL_HALLOWS_COLLEGE_DUBLIN,http://www.daft.ie/for-sale/apartment-apartment-23-chancery-hall-smithfield-dublin-1/3977373
3975814,19599628,"Apartment 236, Block 5, Parklands, Northwood, Santry, Dublin 9",250000.0,54,54 m²,1,1,Apartment,2022-08-10,B2,,,53.406258,-6.251882,Buy,ALL_HALLOWS_COLLEGE_DUBLIN,http://www.daft.ie/for-sale/apartment-apartment-236-block-5-parklands-northwood-santry-dublin-9/3975814
3975311,19595530,"Apt. 16 8 Grand Canal Buildings Percy Place Dublin 4, Ballsbridge, Dublin 4",595000.0,83,83 m²,2,2,Apartment,2022-08-10,B2,101364636,113.04 kWh/m2/yr,53.335726,-6.242606,Buy,ALL_HALLOWS_COLLEGE_DUBLIN,http://www.daft.ie/for-sale/apartment-apt-16-8-grand-canal-buildings-percy-place-dublin-4-ballsbridge-dublin-4/3975311
3975205,19594833,"Apartment 301, Block E, Castleforbes Square, Dublin 1",390000.0,79,79 m²,2,2,Apartment,2022-08-10,C1,101012466,172.2 kWh/m2/yr,53.349108,-6.231422,Buy,ALL_HALLOWS_COLLEGE_DUBLIN,http://www.daft.ie/for-sale/apartment-apartment-301-block-e-castleforbes-square-dublin-1/3975205
3973729,19587997,"Apartment 222, Block G, The Waterside, Dublin 4",450000.0,66,66 m²,2,2,Apartment,2022-08-10,C3,,,53.342664,-6.234367,Buy,ALL_HALLOWS_COLLEGE_DUBLIN,http://www.daft.ie/for-sale/apartment-apartment-222-block-g-the-waterside-dublin-4/3973729
3973674,19585984,"Apartment 74, The Stockyard, The Steelworks, Dublin 1",495000.0,105,105 m²,3,2,Apartment,2022-08-10,B3,103104154,26.3 kWh/m2/yr,53.35275,-6.25081,Buy,ALL_HALLOWS_COLLEGE_DUBLIN,http://www.daft.ie/for-sale/apartment-apartment-74-the-stockyard-the-steelworks-dublin-1/3973674
3971458,19569080,"Aran House, Custom House Square, Dublin 1, IFSC, Dublin 1",280000.0,45,45 m²,1,1,Apartment,2022-07-23,A1,,,53.349617,-6.243003,Buy,ALL_HALLOWS_COLLEGE_DUBLIN,http://www.daft.ie/for-sale/apartment-aran-house-custom-house-square-dublin-1-ifsc-dublin-1/3971458
3971435,19569068,"Apartment 3, Beaumont Hall, Beaumont, Dublin 9",295000.0,62,62 m²,2,1,Apartment,2022-08-10,D2,106161128,266.82 kWh/m2/yr,53.386106,-6.229355,Buy,ALL_HALLOWS_COLLEGE_DUBLIN,http://www.daft.ie/for-sale/apartment-apartment-3-beaumont-hall-beaumont-dublin-9/3971435
3971405,19569039,"Apartment 20, Beaumont Hall, Beaumont, Dublin 9",325000.0,81,81 m²,2,1,Apartment,2022-08-10,D2,,,53.386106,-6.229355,Buy,ALL_HALLOWS_COLLEGE_DUBLIN,http://www.daft.ie/for-sale/apartment-apartment-20-beaumont-hall-beaumont-dublin-9/3971405
3970937,19565695,"Apartment 35, Clarendon Hall, Dublin 2",245000.0,N/A,,1,1,Apartment,2022-08-10,E1,,,53.34055,-6.265843,Buy,ALL_HALLOWS_COLLEGE_DUBLIN,http://www.daft.ie/for-sale/apartment-apartment-35-clarendon-hall-dublin-2/3970937
3969206,19551479,"14 The Olde Dock, Little Ship Street, Dublin 8",325000.0,42,42 m²,2,1,Apartment,2022-08-10,E2,101516680,348.64 kWh/m2/yr,53.342034,-6.269566,Buy,ALL_HALLOWS_COLLEGE_DUBLIN,http://www.daft.ie/for-sale/apartment-14-the-olde-dock-little-ship-street-dublin-8/3969206
3967719,19537791,"Apartment 1, Stewart House, Dublin 1",335000.0,56,56 m²,2,1,Apartment,2022-07-06,SI_666,,,53.350963,-6.265324,Buy,ALL_HALLOWS_COLLEGE_DUBLIN,http://www.daft.ie/for-sale/apartment-apartment-1-stewart-house-dublin-1/3967719
3965921,19522064,"Apartment 50, Ha'penny Bridge House, Dublin 1",350000.0,57,57 m²,2,1,Apartment,2022-08-03,D2,,,53.346352,-6.265511,Buy,ALL_HALLOWS_COLLEGE_DUBLIN,http://www.daft.ie/for-sale/apartment-apartment-50-hapenny-bridge-house-dublin-1/3965921
3966317,19524904,"Apartment 36, Norseman Court, Stoneybatter, Dublin 7",250000.0,55,55 m²,1,1,Apartment,2022-08-10,D1,,,53.351052,-6.28295,Buy,ALL_HALLOWS_COLLEGE_DUBLIN,http://www.daft.ie/for-sale/apartment-apartment-36-norseman-court-stoneybatter-dublin-7/3966317
3965860,19520205,"Apartment 79, Riverbank Hall, Addison Avenue, Glasnevin, Dublin 11",370000.0,69,69 m²,2,2,Apartment,2022-07-25,C2,109779215,194.79 kWh/m2/yr,53.376827,-6.276679,Buy,ALL_HALLOWS_COLLEGE_DUBLIN,http://www.daft.ie/for-sale/apartment-apartment-79-riverbank-hall-addison-avenue-glasnevin-dublin-11/3965860
3965396,19518632,"Apartment 157, Raitlin O'Birne, Custom House Harbour Apartments, IFSC, Dublin 1",385000.0,61,61 m²,2,2,Apartment,2022-08-08,C2,,,53.350602,-6.246019,Buy,ALL_HALLOWS_COLLEGE_DUBLIN,http://www.daft.ie/for-sale/apartment-apartment-157-raitlin-obirne-custom-house-harbour-apartments-ifsc-dublin-1/3965396
3965325,19517245,"Apartment 227, The Camden, Ballsbridge, Dublin 4",335000.0,46,46 m²,1,1,Apartment,2022-08-10,D1,,,53.342819,-6.236223,Buy,ALL_HALLOWS_COLLEGE_DUBLIN,http://www.daft.ie/for-sale/apartment-apartment-227-the-camden-ballsbridge-dublin-4/3965325
3965071,19515090,"Apartment 83, Corn Mill, Drumcondra, Dublin 3",375000.0,71,71 m²,2,2,Apartment,2022-07-06,D2,115215956,268.87 kWh/m2/yr,53.363268,-6.249442,Buy,ALL_HALLOWS_COLLEGE_DUBLIN,http://www.daft.ie/for-sale/apartment-apartment-83-corn-mill-drumcondra-dublin-3/3965071
3963771,19505677,"56 Ivy Court, Beaumont Woods, Beaumont, Dublin 9",295000.0,75,75 m²,2,2,Apartment,2022-08-10,D1,,,53.39285,-6.228703,Buy,ALL_HALLOWS_COLLEGE_DUBLIN,http://www.daft.ie/for-sale/apartment-56-ivy-court-beaumont-woods-beaumont-dublin-9/3963771
3962199,19494409,"20 Hanover Riverside, Grand Canal Dock, Co. Dublin",1100000.0,125,125 m²,3,2,Apartment,2022-08-10,B2,110870573,108.48 kWh/m2/yr,53.344186,-6.231576,Buy,ALL_HALLOWS_COLLEGE_DUBLIN,http://www.daft.ie/for-sale/apartment-20-hanover-riverside-grand-canal-dock-co-dublin/3962199
3616397,16940552,"21 Burton House, Custom House Square, IFSC, Dublin 1",450000.0,N/A,,2,2,Apartment,2022-07-12,C3,,,53.349669,-6.243556,Buy,ALL_HALLOWS_COLLEGE_DUBLIN,http://www.daft.ie/for-sale/apartment-21-burton-house-custom-house-square-ifsc-dublin-1/3616397
3959501,19466735,"Apartment 46 The Moorings, Fitzwilliam Quay Ringsend Dublin 4, Dublin 4",395000.0,61,61 m²,2,1,Apartment,2022-06-30,D1,,,53.340836,-6.2276215,Buy,ALL_HALLOWS_COLLEGE_DUBLIN,http://www.daft.ie/for-sale/apartment-apartment-46-the-moorings-fitzwilliam-quay-ringsend-dublin-4-dublin-4/3959501
3959932,19471682,"57 Christchurch View, Christchurch Place, Christchurch, Dublin 8",350000.0,55,55 m²,2,1,Apartment,2022-08-10,,,,53.342332,-6.271138,Buy,ALL_HALLOWS_COLLEGE_DUBLIN,http://www.daft.ie/for-sale/apartment-57-christchurch-view-christchurch-place-christchurch-dublin-8/3959932
3959411,19464798,"Loft 4, Loft 4, The Granary, Distillery Lofts, Drumcondra, Dublin 3",595000.0,135,135 m²,2,2,Apartment,2022-08-10,,,,53.364693,-6.247081,Buy,ALL_HALLOWS_COLLEGE_DUBLIN,http://www.daft.ie/for-sale/apartment-loft-4-loft-4-the-granary-distillery-lofts-drumcondra-dublin-3/3959411
3958817,19459595,"Apartment 6, Stewart House, Dublin 1",250000.0,36,36 m²,1,1,Apartment,2022-07-06,SI_666,,,53.350963,-6.265324,Buy,ALL_HALLOWS_COLLEGE_DUBLIN,http://www.daft.ie/for-sale/apartment-apartment-6-stewart-house-dublin-1/3958817
3958719,19458883,"Block C, 88 Castleforbes Square, IFSC, Dublin 1",315000.0,43,43 m²,1,1,Apartment,2022-08-09,F,,,53.349636,-6.231599,Buy,ALL_HALLOWS_COLLEGE_DUBLIN,http://www.daft.ie/for-sale/apartment-block-c-88-castleforbes-square-ifsc-dublin-1/3958719
3958610,19456557,"Apartment 75, Block 3, Parklands, Northwood, Santry, Dublin 9",250000.0,60,60 m²,2,2,Apartment,2022-08-10,B3,,,53.406457,-6.250671,Buy,ALL_HALLOWS_COLLEGE_DUBLIN,http://www.daft.ie/for-sale/apartment-apartment-75-block-3-parklands-northwood-santry-dublin-9/3958610
3958533,19456492,"Apartment 5, Claude Hall, 18 Claude Road, Drumcondra, Dublin 9",245000.0,49,49 m²,1,1,Apartment,2022-08-09,D2,112490958,289.56 kWh/m2/yr,53.364517,-6.264912,Buy,ALL_HALLOWS_COLLEGE_DUBLIN,http://www.daft.ie/for-sale/apartment-apartment-5-claude-hall-18-claude-road-drumcondra-dublin-9/3958533
1452158,12329384,"Apartment 59, Block C3, Geraldstown Woods, Santry, Dublin 9",239999.0,N/A,,3,2,Apartment,2022-06-29,B3,,,53.400903,-6.260247,Buy,ALL_HALLOWS_COLLEGE_DUBLIN,http://www.daft.ie/for-sale/apartment-apartment-59-block-c3-geraldstown-woods-santry-dublin-9/1452158
3956159,19434484,"Apartment 1, Corn Mill, Drumcondra, Dublin 3",400000.0,86,86 m²,2,2,Apartment,2022-08-09,C2,105838643,182.27 kWh/m2/yr,53.362888,-6.248639,Buy,ALL_HALLOWS_COLLEGE_DUBLIN,http://www.daft.ie/for-sale/apartment-apartment-1-corn-mill-drumcondra-dublin-3/3956159
3956142,19434475,"Apartment 11, Cassell House, Ardilaun Court, Dublin 8",235000.0,39,39 m²,1,1,Apartment,2022-08-10,E1,,,53.341193,-6.272635,Buy,ALL_HALLOWS_COLLEGE_DUBLIN,http://www.daft.ie/for-sale/apartment-apartment-11-cassell-house-ardilaun-court-dublin-8/3956142
3956030,19432813,"Apartment 13 Poppintree Parade , Balbutcher Lane, Ballymun, Dublin 11",175000.0,48,48 m²,1,1,Apartment,2022-08-10,D2,,,53.4,-6.276636,Buy,ALL_HALLOWS_COLLEGE_DUBLIN,http://www.daft.ie/for-sale/apartment-apartment-13-poppintree-parade-balbutcher-lane-ballymun-dublin-11/3956030
3947726,19400737,"Apartment 75, Hyde Court, Dublin 2",450000.0,67,67 m²,2,1,Apartment,2022-08-10,C1,,,53.34549,-6.251915,Buy,ALL_HALLOWS_COLLEGE_DUBLIN,http://www.daft.ie/for-sale/apartment-apartment-75-hyde-court-dublin-2/3947726
3946916,19393189,"55 Malton House, Custom House Square, IFSC, Dublin 1",275000.0,39,39 m²,1,1,Apartment,2022-08-10,C2,113780837,175.82 kWh/m2/yr,53.349519,-6.245432,Buy,ALL_HALLOWS_COLLEGE_DUBLIN,http://www.daft.ie/for-sale/apartment-55-malton-house-custom-house-square-ifsc-dublin-1/3946916
3946672,19389648,"27 Cannon Court Bride Street Dublin 8, Christchurch, Dublin 8",330000.0,66,66 m²,2,2,Apartment,2022-06-24,C3,115174807,223.47 kWh/m2/yr,53.339528,-6.26987,Buy,ALL_HALLOWS_COLLEGE_DUBLIN,http://www.daft.ie/for-sale/apartment-27-cannon-court-bride-street-dublin-8-christchurch-dublin-8/3946672
3945471,19377113,"Apartment 73, Russell House, Dublin 1",295000.0,66,66 m²,2,2,Apartment,2022-08-10,E1,105712780,,53.356271,-6.255379,Buy,ALL_HALLOWS_COLLEGE_DUBLIN,http://www.daft.ie/for-sale/apartment-apartment-73-russell-house-dublin-1/3945471
3945457,19377104,"Apartment 41, Block A, Lymewood Mews, Northwood, Santry, Dublin 9",275000.0,78,78 m²,2,2,Apartment,2022-08-10,B3,,,53.40278,-6.257834,Buy,ALL_HALLOWS_COLLEGE_DUBLIN,http://www.daft.ie/for-sale/apartment-apartment-41-block-a-lymewood-mews-northwood-santry-dublin-9/3945457
3936702,19294040,"146 Shannon House, Custom House Square, IFSC, Dublin 1",350000.0,N/A,,2,2,Apartment,2022-08-10,C3,112225966,,53.349287,-6.241594,Buy,ALL_HALLOWS_COLLEGE_DUBLIN,http://www.daft.ie/for-sale/apartment-146-shannon-house-custom-house-square-ifsc-dublin-1/3936702
3943586,19359170,"Apartment 2, Shandon View, Connaught Street, Phibsborough, Dublin 7",170000.0,36,36 m²,1,1,Apartment,2022-08-09,F,,,53.363816,-6.281232,Buy,ALL_HALLOWS_COLLEGE_DUBLIN,http://www.daft.ie/for-sale/apartment-apartment-2-shandon-view-connaught-street-phibsborough-dublin-7/3943586
3943064,19353372,"Apartment 37, Saint Peters Square, Phibsborough, Dublin 7",234950.0,N/A,,1,1,Apartment,2022-06-23,D2,,,53.361584,-6.271922,Buy,ALL_HALLOWS_COLLEGE_DUBLIN,http://www.daft.ie/for-sale/apartment-apartment-37-saint-peters-square-phibsborough-dublin-7/3943064
3943052,19353367,"Apartment 98, Temple Court, Northwood, Santry, Dublin 9",315000.0,88,88 m²,2,2,Apartment,2022-08-10,B3,,,53.406046,-6.249724,Buy,ALL_HALLOWS_COLLEGE_DUBLIN,http://www.daft.ie/for-sale/apartment-apartment-98-temple-court-northwood-santry-dublin-9/3943052
3506837,16046803,"Apartment 21, 35-38 Mountjoy Square South, Dublin 1",270000.0,47,47 m²,2,1,Apartment,2022-08-10,D1,,,53.355952,-6.255889,Buy,ALL_HALLOWS_COLLEGE_DUBLIN,http://www.daft.ie/for-sale/apartment-apartment-21-35-38-mountjoy-square-south-dublin-1/3506837
3940877,19332842,"92 Hanover Riverside, Asgard Road, Grand Canal Dock, Co. Dublin",550000.0,85,85 m²,2,2,Apartment,2022-08-10,B3,105440747,148.15 kWh/m2/yr,53.345612,-6.237097,Buy,ALL_HALLOWS_COLLEGE_DUBLIN,http://www.daft.ie/for-sale/apartment-92-hanover-riverside-asgard-road-grand-canal-dock-co-dublin/3940877
3938762,19312154,"Apartment 4 Tramyard Exchange, Carmans Hall, Dublin 8",495000.0,88,88 m²,2,2,Apartment,2022-08-09,A2,111256384,43.14 kWh/m2/yr,53.343086652212094,-6.279018295193083,Buy,ALL_HALLOWS_COLLEGE_DUBLIN,http://www.daft.ie/for-sale/apartment-apartment-4-tramyard-exchange-carmans-hall-dublin-8/3938762
3938806,19312173,"Apt. 5 Chapelgate, St. Alphonsus' Road Upper, Drumcondra, Dublin 9",395000.0,70,70 m²,2,2,Apartment,2022-08-10,C1,105492417,,53.365276,-6.260431,Buy,ALL_HALLOWS_COLLEGE_DUBLIN,http://www.daft.ie/for-sale/apartment-apt-5-chapelgate-st-alphonsus-road-upper-drumcondra-dublin-9/3938806
3937151,19297817,"103 Fitzwilliam Point, Fitzwilliam Quay, Ringsend, Dublin 4",400000.0,75,75 m²,2,2,Apartment,2022-08-10,B3,100869544,146.52 kWh/m2/yr,53.341276,-6.226739,Buy,ALL_HALLOWS_COLLEGE_DUBLIN,http://www.daft.ie/for-sale/apartment-103-fitzwilliam-point-fitzwilliam-quay-ringsend-dublin-4/3937151
3935425,19278149,"7 Grattan Hall, Lower Mount Street, Dublin 2",495000.0,74,74 m²,2,1,Apartment,2022-08-10,C1,115034688,165.43 kWh/m2/yr,53.338815,-6.24251,Buy,ALL_HALLOWS_COLLEGE_DUBLIN,http://www.daft.ie/for-sale/apartment-7-grattan-hall-lower-mount-street-dublin-2/3935425
3934954,19275462,"Apartment 42, Block 3, Parklands, Northwood, Santry, Dublin 9",275000.0,73,73 m²,2,2,Apartment,2022-08-10,C2,,,53.406303,-6.250711,Buy,ALL_HALLOWS_COLLEGE_DUBLIN,http://www.daft.ie/for-sale/apartment-apartment-42-block-3-parklands-northwood-santry-dublin-9/3934954
3934845,19274921,"Shelbourne Village, Ringsend Road, Ringsend, Dublin 4",350000.0,54,54 m²,2,1,Apartment,2022-08-10,E1,105404784,339.43 kWh/m2/yr,53.34187,-6.235581,Buy,ALL_HALLOWS_COLLEGE_DUBLIN,http://www.daft.ie/for-sale/apartment-shelbourne-village-ringsend-road-ringsend-dublin-4/3934845
3934016,19264262,"4 Newcomen Court, North Strand, Dublin 3",240000.0,56,56 m²,2,1,Apartment,2022-08-10,C3,102840931,,53.357462,-6.243629,Buy,ALL_HALLOWS_COLLEGE_DUBLIN,http://www.daft.ie/for-sale/apartment-4-newcomen-court-north-strand-dublin-3/3934016
3934020,19264320,"16 The Hibernian, The Gasworks, South Lotts Road, Ringsend, Dublin 4",350000.0,51,51 m²,1,1,Apartment,2022-08-10,B3,106773179,144.46 kWh/m2/yr,53.338922,-6.235775,Buy,ALL_HALLOWS_COLLEGE_DUBLIN,http://www.daft.ie/for-sale/apartment-16-the-hibernian-the-gasworks-south-lotts-road-ringsend-dublin-4/3934020
3932668,19251013,"The Mews Adelaide Square Whitefriar Street, Dublin 2",1100000.0,124,124 m²,3,3,Apartment,2022-07-05,SI_666,,,53.339789580609164,-6.267503073851117,Buy,ALL_HALLOWS_COLLEGE_DUBLIN,http://www.daft.ie/for-sale/apartment-the-mews-adelaide-square-whitefriar-street-dublin-2/3932668
3919393,19131537,"Apartment 77, The Dickens, The Gasworks, Ballsbridge, Dublin 4",825000.0,104,104 m²,3,2,Apartment,2022-08-10,C3,103021903,196.31 kWh/m2/yr,53.33836,-6.234821,Buy,ALL_HALLOWS_COLLEGE_DUBLIN,http://www.daft.ie/for-sale/apartment-apartment-77-the-dickens-the-gasworks-ballsbridge-dublin-4/3919393
3927179,19200316,"Apartment 69, Stewart Hall, Ryder's Row, Dublin 1",275000.0,67,67 m²,2,1,Apartment,2022-08-10,SI_666,,,53.350239,-6.268754,Buy,ALL_HALLOWS_COLLEGE_DUBLIN,http://www.daft.ie/for-sale/apartment-apartment-69-stewart-hall-ryders-row-dublin-1/3927179
3932385,19249007,"Apartment 2, The Aston Building, Dublin 2",380000.0,56,56 m²,1,1,Apartment,2022-08-04,C3,,,53.346417,-6.260528,Buy,ALL_HALLOWS_COLLEGE_DUBLIN,http://www.daft.ie/for-sale/apartment-apartment-2-the-aston-building-dublin-2/3932385
3931253,19237637,"Apartment 98, Tolka Vale, Glasnevin, Dublin 11",315000.0,73,73 m²,2,2,Apartment,2022-08-10,D2,108582040,,53.377514,-6.288448,Buy,ALL_HALLOWS_COLLEGE_DUBLIN,http://www.daft.ie/for-sale/apartment-apartment-98-tolka-vale-glasnevin-dublin-11/3931253
3929761,19226621,"12A Isoldes Tower, Lower Exchange Street, Temple Bar, Co. Dublin",395000.0,63,63 m²,2,2,Apartment,2022-08-10,E1,101756823,329.44 kWh/m2/yr,53.345116,-6.268416,Buy,ALL_HALLOWS_COLLEGE_DUBLIN,http://www.daft.ie/for-sale/apartment-12a-isoldes-tower-lower-exchange-street-temple-bar-co-dublin/3929761
3928789,19217558,"Apartment 3, Hillcrest Court, Glasnevin, Dublin 9",365000.0,66,66 m²,2,1,Apartment,2022-08-10,D1,,,53.378519,-6.266049,Buy,ALL_HALLOWS_COLLEGE_DUBLIN,http://www.daft.ie/for-sale/apartment-apartment-3-hillcrest-court-glasnevin-dublin-9/3928789
3817115,18791564,"10 Talbot Street, Dublin 1",1650000.0,N/A,,4,2,Apartment,2022-08-09,D1,,,53.350545,-6.256445,Buy,ALL_HALLOWS_COLLEGE_DUBLIN,http://www.daft.ie/for-sale/apartment-10-talbot-street-dublin-1/3817115
3928225,19209573,"16 Botanic Square, Glasnevin, Dublin 9",325000.0,73,73 m²,2,2,Apartment,2022-08-10,D1,115040172,227.84 kWh/m2/yr,53.369313,-6.263685,Buy,ALL_HALLOWS_COLLEGE_DUBLIN,http://www.daft.ie/for-sale/apartment-16-botanic-square-glasnevin-dublin-9/3928225
3927814,19205709,"Apartment 111, Greeg Court, Dublin 1",390000.0,65,65 m²,2,2,Apartment,2022-08-04,C2,,,53.351117,-6.263792,Buy,ALL_HALLOWS_COLLEGE_DUBLIN,http://www.daft.ie/for-sale/apartment-apartment-111-greeg-court-dublin-1/3927814
3927021,19198891,"Apartment 2 Block J, Hanover Riverside, Forbes Street, Grand Canal Dock, Dublin 2",675000.0,97,97 m²,3,3,Apartment,2022-08-10,B2,,,53.345382,-6.237835,Buy,ALL_HALLOWS_COLLEGE_DUBLIN,http://www.daft.ie/for-sale/apartment-apartment-2-block-j-hanover-riverside-forbes-street-grand-canal-dock-dublin-2/3927021
3925859,19186240,"9 Shelbourne Park Mews, Ringsend, Dublin 4",395000.0,60,60 m²,2,1,Apartment,2022-08-10,C3,,208.35 kWh/m2/yr,53.341449,-6.234468,Buy,ALL_HALLOWS_COLLEGE_DUBLIN,http://www.daft.ie/for-sale/apartment-9-shelbourne-park-mews-ringsend-dublin-4/3925859
3924136,19168944,"Apartment 78, Block F, The Gateway Student Village, Ballymun, Dublin 9",190000.0,75,75 m²,3,1,Apartment,2022-08-09,C1,,,53.394709,-6.262511,Buy,ALL_HALLOWS_COLLEGE_DUBLIN,http://www.daft.ie/for-sale/apartment-apartment-78-block-f-the-gateway-student-village-ballymun-dublin-9/3924136
3922409,19157469,"Custom House Harbour, IFSC, Dublin 1",315000.0,N/A,,1,1,Apartment,2022-06-11,D2,,,53.350992352452835,-6.248439012932039,Buy,ALL_HALLOWS_COLLEGE_DUBLIN,http://www.daft.ie/for-sale/apartment-custom-house-harbour-ifsc-dublin-1/3922409
3922204,19156936,"Apartment 14 Belvedere Court, 30 North Great George's Street, Dublin 1",395000.0,57,57 m²,2,1,Apartment,2022-08-10,D2,105046387,289.61 kWh/m2/yr,53.353863,-6.259638,Buy,ALL_HALLOWS_COLLEGE_DUBLIN,http://www.daft.ie/for-sale/apartment-apartment-14-belvedere-court-30-north-great-georges-street-dublin-1/3922204
3921179,19147495,"59 Fairview Close, Richmond Avenue, Dublin 3",229950.0,N/A,,1,1,Apartment,2022-06-21,C2,,,53.363398,-6.242789,Buy,ALL_HALLOWS_COLLEGE_DUBLIN,http://www.daft.ie/for-sale/apartment-59-fairview-close-richmond-avenue-dublin-3/3921179
3919835,19135583,"Apartment 47, Cloncurry House, Dublin 1",475000.0,90,90 m²,3,2,Apartment,2022-08-10,C2,115017857,198.51 kWh/m2/yr,53.349361,-6.239391,Buy,ALL_HALLOWS_COLLEGE_DUBLIN,http://www.daft.ie/for-sale/apartment-apartment-47-cloncurry-house-dublin-1/3919835
3917609,19113075,"Apartment 43, Block B, Smithfield, Dublin 7",400000.0,77,77 m²,2,2,Apartment,2022-06-27,C3,111962825,218.68 kWh/m2/yr,53.347819,-6.279393,Buy,ALL_HALLOWS_COLLEGE_DUBLIN,http://www.daft.ie/for-sale/apartment-apartment-43-block-b-smithfield-dublin-7/3917609
3917081,19107132,"Apartment 14, The Goulding, Santry Cross, Ballymun, Dublin 9",225000.0,61,61 m²,2,2,Apartment,2022-07-01,D1,107736902,253.29 kWh/m2/yr,53.400385,-6.263637,Buy,ALL_HALLOWS_COLLEGE_DUBLIN,http://www.daft.ie/for-sale/apartment-apartment-14-the-goulding-santry-cross-ballymun-dublin-9/3917081
3916661,19104171,"68 Grand Canal Wharf, Ringsend, Dublin 4",595000.0,99,99 m²,3,2,Apartment,2022-08-10,C3,107304362,215.6 kWh/m2/yr,53.342365,-6.231574,Buy,ALL_HALLOWS_COLLEGE_DUBLIN,http://www.daft.ie/for-sale/apartment-68-grand-canal-wharf-ringsend-dublin-4/3916661
3915937,19098360,"Apartment 25, 35-38 Mountjoy Square South, Dublin 1",260000.0,42,42 m²,2,1,Apartment,2022-08-10,F,106284094,408.1 kWh/m2/yr,53.355952,-6.255889,Buy,ALL_HALLOWS_COLLEGE_DUBLIN,http://www.daft.ie/for-sale/apartment-apartment-25-35-38-mountjoy-square-south-dublin-1/3915937
3915741,19096691,"Apartment 95, The Clayton, The Gasworks, Ballsbridge, Dublin 4",695000.0,105,105 m²,3,2,Apartment,2022-08-09,B3,114597438,132.57 kWh/m2/yr,53.339195,-6.234673,Buy,ALL_HALLOWS_COLLEGE_DUBLIN,http://www.daft.ie/for-sale/apartment-apartment-95-the-clayton-the-gasworks-ballsbridge-dublin-4/3915741
3915518,19094535,"Apartment 201, The Distillery Building, Distillery Road, Drumcondra, Dublin 3",325000.0,79,79 m²,2,2,Apartment,2022-06-21,D1,,,53.363769,-6.24874,Buy,ALL_HALLOWS_COLLEGE_DUBLIN,http://www.daft.ie/for-sale/apartment-apartment-201-the-distillery-building-distillery-road-drumcondra-dublin-3/3915518
3915298,19092539,"Apartment 3, Hyde Court, Dublin 2",315000.0,50,50 m²,1,1,Apartment,2022-08-10,B3,,,53.34549,-6.251915,Buy,ALL_HALLOWS_COLLEGE_DUBLIN,http://www.daft.ie/for-sale/apartment-apartment-3-hyde-court-dublin-2/3915298
3910748,19056548,"Apartment 3, Greeg Court, Dublin 1",350000.0,57,57 m²,2,1,Apartment,2022-08-10,B3,,,53.350972,-6.264206,Buy,ALL_HALLOWS_COLLEGE_DUBLIN,http://www.daft.ie/for-sale/apartment-apartment-3-greeg-court-dublin-1/3910748
3909972,19047934,"36 The View, Larch Hill, Santry, Dublin 9",249950.0,N/A,,2,1,Apartment,2022-06-21,C3,,,53.398307,-6.229257,Buy,ALL_HALLOWS_COLLEGE_DUBLIN,http://www.daft.ie/for-sale/apartment-36-the-view-larch-hill-santry-dublin-9/3909972
3909870,19045824,"Apartment 33, Block F, Mellowes Quay, Dublin 8",340000.0,63,63 m²,2,2,Apartment,2022-08-09,C2,,,53.345166,-6.27932,Buy,ALL_HALLOWS_COLLEGE_DUBLIN,http://www.daft.ie/for-sale/apartment-apartment-33-block-f-mellowes-quay-dublin-8/3909870
3909950,19047921,"Apartment 34, Block F, Mellowes Quay, Dublin 8",265000.0,46,46 m²,1,1,Apartment,2022-08-09,C2,,,53.345166,-6.27932,Buy,ALL_HALLOWS_COLLEGE_DUBLIN,http://www.daft.ie/for-sale/apartment-apartment-34-block-f-mellowes-quay-dublin-8/3909950
3906265,19015957,"3 Broadstone Avenue, Phibsborough, Dublin 7",265000.0,40,40 m²,3,1,Apartment,2022-08-09,C3,,,53.355969,-6.273048,Buy,ALL_HALLOWS_COLLEGE_DUBLIN,http://www.daft.ie/for-sale/apartment-3-broadstone-avenue-phibsborough-dublin-7/3906265
3903838,18989835,"Apartment 70, The Northumberlands, Love Lane East, Dublin 2",410000.0,65,65 m²,3,1,Apartment,2022-08-10,C1,105814230,,53.338592,-6.24148,Buy,ALL_HALLOWS_COLLEGE_DUBLIN,http://www.daft.ie/for-sale/apartment-apartment-70-the-northumberlands-love-lane-east-dublin-2/3903838
3901807,18973211,"Apartment 21, Kirkpatrick House, Dublin 1",365000.0,60,60 m²,2,1,Apartment,2022-08-09,B3,102628898,131.44 kWh/m2/yr,53.350121,-6.238616,Buy,ALL_HALLOWS_COLLEGE_DUBLIN,http://www.daft.ie/for-sale/apartment-apartment-21-kirkpatrick-house-dublin-1/3901807
3900814,18963215,"Apartment 177, The Berkeley Block, Pembroke Square, Grand Canal Dock, Dublin 2",475000.0,60,60 m²,2,2,Apartment,2022-08-09,D2,101718328,,53.338529,-6.237585,Buy,ALL_HALLOWS_COLLEGE_DUBLIN,http://www.daft.ie/for-sale/apartment-apartment-177-the-berkeley-block-pembroke-square-grand-canal-dock-dublin-2/3900814
3899017,18941450,"Apartment 35, Block C, Smithfield, Dublin 1",450000.0,73,73 m²,2,2,Apartment,2022-08-09,C2,114879547,193.32 kWh/m2/yr,53.347758,-6.278864,Buy,ALL_HALLOWS_COLLEGE_DUBLIN,http://www.daft.ie/for-sale/apartment-apartment-35-block-c-smithfield-dublin-1/3899017
3897760,18925605,"6 Valentia House IFSC Dublin 1, IFSC, Dublin 1",595000.0,98,98 m²,3,2,Apartment,2022-08-10,C3,100983402,212.91 kWh/m2/yr,53.349484,-6.24284,Buy,ALL_HALLOWS_COLLEGE_DUBLIN,http://www.daft.ie/for-sale/apartment-6-valentia-house-ifsc-dublin-1-ifsc-dublin-1/3897760
3897741,18925588,"135 The Jessop Charlotte Quay Dock Ringsend Road Dublin 4, Grand Canal Dock, Dublin 4",695000.0,110,110 m²,3,2,Apartment,2022-08-10,C3,114871536,215.92 kWh/m2/yr,53.342348,-6.236527,Buy,ALL_HALLOWS_COLLEGE_DUBLIN,http://www.daft.ie/for-sale/apartment-135-the-jessop-charlotte-quay-dock-ringsend-road-dublin-4-grand-canal-dock-dublin-4/3897741
3897313,18922650,"16 Millers Hall, Thomas Street, The Liberties, Dublin 8",225000.0,39,39 m²,1,1,Apartment,2022-08-10,C2,,,53.343559,-6.280203,Buy,ALL_HALLOWS_COLLEGE_DUBLIN,http://www.daft.ie/for-sale/apartment-16-millers-hall-thomas-street-the-liberties-dublin-8/3897313
3892050,18880441,"Apartment 57, Ivy Exchange, Dublin 1",275000.0,45,45 m²,1,1,Apartment,2022-08-10,D2,,,53.351819,-6.264151,Buy,ALL_HALLOWS_COLLEGE_DUBLIN,http://www.daft.ie/for-sale/apartment-apartment-57-ivy-exchange-dublin-1/3892050
3893903,18892654,"Apartment 100, College View, Ballymun, Dublin 9",225000.0,N/A,,2,2,Apartment,2022-06-21,SI_666,,,53.39489,-6.26557,Buy,ALL_HALLOWS_COLLEGE_DUBLIN,http://www.daft.ie/for-sale/apartment-apartment-100-college-view-ballymun-dublin-9/3893903
3891603,18876501,"55 Stewart Hall, Ryder's Row, Dublin 1",395000.0,62,62 m²,2,2,Apartment,2022-08-10,D1,100699453,243.4 kWh/m2/yr,53.350239,-6.268754,Buy,ALL_HALLOWS_COLLEGE_DUBLIN,http://www.daft.ie/for-sale/apartment-55-stewart-hall-ryders-row-dublin-1/3891603
3772710,18404143,"Apartment 20, Blackwater House, Dublin 1",550000.0,93,93 m²,3,2,Apartment,2022-08-10,C1,,,53.349612,-6.238937,Buy,ALL_HALLOWS_COLLEGE_DUBLIN,http://www.daft.ie/for-sale/apartment-apartment-20-blackwater-house-dublin-1/3772710
3821150,18826485,"Apartment 10, Weir House, Richmond Road, Dublin 3",320000.0,79,79 m²,2,2,Apartment,2022-08-08,C1,114857113,171.55 kWh/m2/yr,53.363981,-6.246145,Buy,ALL_HALLOWS_COLLEGE_DUBLIN,http://www.daft.ie/for-sale/apartment-apartment-10-weir-house-richmond-road-dublin-3/3821150
3483428,15838122,"Apartment 51, The Plaza, Ballymun, Dublin 9",220000.0,55,55 m²,2,2,Apartment,2022-08-02,C1,114153786,,53.397081,-6.263404,Buy,ALL_HALLOWS_COLLEGE_DUBLIN,http://www.daft.ie/for-sale/apartment-apartment-51-the-plaza-ballymun-dublin-9/3483428
3814626,18767112,"Apartment 123, Forbes Quay Apartments, Grand Canal Dock, Dublin 2",850000.0,87,87 m²,3,2,Apartment,2022-08-07,B3,,,53.345489,-6.239353,Buy,ALL_HALLOWS_COLLEGE_DUBLIN,http://www.daft.ie/for-sale/apartment-apartment-123-forbes-quay-apartments-grand-canal-dock-dublin-2/3814626
3807514,18717550,"111 Fairview Close, Richmond Avenue, Fairview, Dublin 3",325000.0,72,72 m²,2,2,Apartment,2022-06-21,C2,,,53.363284,-6.241867,Buy,ALL_HALLOWS_COLLEGE_DUBLIN,http://www.daft.ie/for-sale/apartment-111-fairview-close-richmond-avenue-fairview-dublin-3/3807514
3804458,18684451,"18 Ely Mews, Rogers Lane, Off Baggot Street, Dublin 2",695000.0,79,79 m²,2,2,Apartment,2022-08-10,C3,106397490,205.3 kWh/m2/yr,53.337504,-6.252964,Buy,ALL_HALLOWS_COLLEGE_DUBLIN,http://www.daft.ie/for-sale/apartment-18-ely-mews-rogers-lane-off-baggot-street-dublin-2/3804458
3800631,18649385,"Apartment 5, Temple Gardens, Northwood, Santry, Dublin 9",350000.0,76,76 m²,3,2,Apartment,2022-08-10,C1,,,53.405344,-6.247649,Buy,ALL_HALLOWS_COLLEGE_DUBLIN,http://www.daft.ie/for-sale/apartment-apartment-5-temple-gardens-northwood-santry-dublin-9/3800631
3794737,18600411,"Apartment 4, The Square Beggars Bush, Dublin 4",525000.0,64,64 m²,2,1,Apartment,2022-08-09,E2,108496852,,53.336368,-6.235944,Buy,ALL_HALLOWS_COLLEGE_DUBLIN,http://www.daft.ie/for-sale/apartment-apartment-4-the-square-beggars-bush-dublin-4/3794737
3789955,18568149,"Apartment 12, Bolton Square, Dublin 1",189950.0,N/A,,1,1,Apartment,2022-06-21,D1,,,53.352375,-6.267767,Buy,ALL_HALLOWS_COLLEGE_DUBLIN,http://www.daft.ie/for-sale/apartment-apartment-12-bolton-square-dublin-1/3789955
3788656,18554782,"Apartment 4, Block E, Geraldstown Woods, Santry, Dublin 9",219000.0,62,62 m²,2,2,Apartment,2022-08-09,C1,,,53.401158,-6.26203,Buy,ALL_HALLOWS_COLLEGE_DUBLIN,http://www.daft.ie/for-sale/apartment-apartment-4-block-e-geraldstown-woods-santry-dublin-9/3788656
3787873,18546851,"Apartment 13, Block A, Heywood Court, Santry, Dublin 9",265000.0,N/A,,2,2,Apartment,2022-06-21,C3,,,53.401532,-6.256384,Buy,ALL_HALLOWS_COLLEGE_DUBLIN,http://www.daft.ie/for-sale/apartment-apartment-13-block-a-heywood-court-santry-dublin-9/3787873
3787317,18542195,"Apartment 77, Block 3, Parklands, Northwood, Santry, Dublin 9",275000.0,65,65 m²,2,2,Apartment,2022-08-10,B3,,,53.406457,-6.250671,Buy,ALL_HALLOWS_COLLEGE_DUBLIN,http://www.daft.ie/for-sale/apartment-apartment-77-block-3-parklands-northwood-santry-dublin-9/3787317
3785544,18527329,"42 Dakota Court, Royal Canal Bank, Phibsborough, Dublin 7",395000.0,85,85 m²,2,2,Apartment,2022-08-10,D1,101914638,50.46 kWh/m2/yr,53.363618,-6.269576,Buy,ALL_HALLOWS_COLLEGE_DUBLIN,http://www.daft.ie/for-sale/apartment-42-dakota-court-royal-canal-bank-phibsborough-dublin-7/3785544
3777093,18446784,"Apartment 330, The Distillery Building, Distillery Road, Drumcondra, Dublin 3",310000.0,62,62 m²,2,1,Apartment,2022-08-09,E1,107690455,,53.363769,-6.24874,Buy,ALL_HALLOWS_COLLEGE_DUBLIN,http://www.daft.ie/for-sale/apartment-apartment-330-the-distillery-building-distillery-road-drumcondra-dublin-3/3777093
3774911,18427250,"Apartment 15, 64 Mountjoy Square West, Dublin 1",265000.0,60,60 m²,2,1,Apartment,2022-06-13,E1,,,53.356316,-6.258954,Buy,ALL_HALLOWS_COLLEGE_DUBLIN,http://www.daft.ie/for-sale/apartment-apartment-15-64-mountjoy-square-west-dublin-1/3774911
3773066,18407967,"Apartment 20, Dunloe Hall, Dublin 2",425000.0,40,40 m²,1,1,Apartment,2022-08-09,E1,114756588,312.59 kWh/m2/yr,53.338987,-6.252408,Buy,ALL_HALLOWS_COLLEGE_DUBLIN,http://www.daft.ie/for-sale/apartment-apartment-20-dunloe-hall-dublin-2/3773066
3770637,18384074,"41 The Crescent, Larch Hill, Santry, Dublin 9",269950.0,N/A,,3,2,Apartment,2022-06-21,D2,105764351,268.0 kWh/m2/yr,53.400603,-6.228514,Buy,ALL_HALLOWS_COLLEGE_DUBLIN,http://www.daft.ie/for-sale/apartment-41-the-crescent-larch-hill-santry-dublin-9/3770637
3769611,18372297,"12 Ardilaun Court, Cuffe Street, Grafton Street, Dublin 2",Price on Application,N/A,,2,2,Apartment,2022-08-10,D1,,,53.338264,-6.263437,Buy,ALL_HALLOWS_COLLEGE_DUBLIN,http://www.daft.ie/for-sale/apartment-12-ardilaun-court-cuffe-street-grafton-street-dublin-2/3769611
3764980,18352351,"68 Mellows Quay, Usher Street, Dublin 8",364000.0,65,65 m²,2,1,Apartment,2022-05-15,C2,100521244,40.09 kWh/m2/yr,53.3454402,-6.2798109,Buy,ALL_HALLOWS_COLLEGE_DUBLIN,http://www.daft.ie/for-sale/apartment-68-mellows-quay-usher-street-dublin-8/3764980
3749545,18231117,"Apartment 64, Temple Court, Santry, Dublin 9",265000.0,N/A,,2,2,Apartment,2022-06-21,SI_666,,,53.406631,-6.248524,Buy,ALL_HALLOWS_COLLEGE_DUBLIN,http://www.daft.ie/for-sale/apartment-apartment-64-temple-court-santry-dublin-9/3749545
3747437,18214403,"Apartment 155, Block B, Smithfield Village, Smithfield, Dublin 7",249950.0,N/A,,1,1,Apartment,2022-06-21,SI_666,,,53.34874,-6.277071,Buy,ALL_HALLOWS_COLLEGE_DUBLIN,http://www.daft.ie/for-sale/apartment-apartment-155-block-b-smithfield-village-smithfield-dublin-7/3747437
3747289,18211273,"1B Calderwood Avenue, Drumcondra, Drumcondra, Dublin 3",350000.0,110,110 m²,3,1,Apartment,2022-08-04,G,,,53.375709,-6.239352,Buy,ALL_HALLOWS_COLLEGE_DUBLIN,http://www.daft.ie/for-sale/apartment-1b-calderwood-avenue-drumcondra-drumcondra-dublin-3/3747289
3741782,18152833,"Apartment 27, Montgomery Court, Dublin 1",249950.0,46,46 m²,1,1,Apartment,2022-08-10,C2,,,53.35245,-6.249849,Buy,ALL_HALLOWS_COLLEGE_DUBLIN,http://www.daft.ie/for-sale/apartment-apartment-27-montgomery-court-dublin-1/3741782
3741075,18146941,"Apartment 75, River Gardens, Glasnevin, Dublin 11",274950.0,N/A,,2,1,Apartment,2022-06-21,E1,,,53.374258,-6.267577,Buy,ALL_HALLOWS_COLLEGE_DUBLIN,http://www.daft.ie/for-sale/apartment-apartment-75-river-gardens-glasnevin-dublin-11/3741075
3151881,14141127,"55 Lad Lane, Dublin 2",Price on Application,N/A,,1,1,Apartment,2022-07-19,A3,,,53.335442076562515,-6.2489461152707975,New Homes,ALL_HALLOWS_COLLEGE_DUBLIN,http://www.daft.ie/new-home-for-sale/apartment-1-bedroom-apartment-55-lad-lane-55-lad-lane-dublin-2/3151881
3151880,14141128,"55 Lad Lane, Dublin 2",Price on Application,N/A,,2,2,Apartment,2022-07-19,A3,,,53.335442076562515,-6.2489461152707975,New Homes,ALL_HALLOWS_COLLEGE_DUBLIN,http://www.daft.ie/new-home-for-sale/apartment-2-bedroom-apartment-55-lad-lane-55-lad-lane-dublin-2/3151880
3151883,14141129,"55 Lad Lane, Dublin 2",Price on Application,N/A,,3,3,Apartment,2022-07-19,A3,,,53.335442076562515,-6.2489461152707975,New Homes,ALL_HALLOWS_COLLEGE_DUBLIN,http://www.daft.ie/new-home-for-sale/apartment-3-bedroom-apartment-55-lad-lane-55-lad-lane-dublin-2/3151883
3733030,18066159,"Apartment 87, The Plaza, Ballymun, Dublin 9",185000.0,N/A,,2,2,Apartment,2022-06-21,SI_666,,,53.39707,-6.262916,Buy,ALL_HALLOWS_COLLEGE_DUBLIN,http://www.daft.ie/for-sale/apartment-apartment-87-the-plaza-ballymun-dublin-9/3733030
3729893,18035593,"13 Carman's Court, Carman's Hall, The Liberties, Dublin 8",275000.0,N/A,,2,1,Apartment,2022-08-10,E2,,,53.340819,-6.274988,Buy,ALL_HALLOWS_COLLEGE_DUBLIN,http://www.daft.ie/for-sale/apartment-13-carmans-court-carmans-hall-the-liberties-dublin-8/3729893
3717482,17936304,"Apartment 55, Weavers, West Gate, Dublin 8",199950.0,30,30 m²,1,1,Apartment,2022-08-10,C1,,,53.343972,-6.276561,Buy,ALL_HALLOWS_COLLEGE_DUBLIN,http://www.daft.ie/for-sale/apartment-apartment-55-weavers-west-gate-dublin-8/3717482
3709987,17857836,"Apartment 1, Beaucourt, Achill Road, Drumcondra, Dublin 3",239950.0,N/A,,1,1,Apartment,2022-06-21,F,,,53.375153,-6.253586,Buy,ALL_HALLOWS_COLLEGE_DUBLIN,http://www.daft.ie/for-sale/apartment-apartment-1-beaucourt-achill-road-drumcondra-dublin-3/3709987
3706041,17825394,"Apartment 71, Griffith Hall, Glandore Road, Drumcondra, Dublin 3",299950.0,N/A,,2,1,Apartment,2022-06-21,D1,,,53.374297,-6.237035,Buy,ALL_HALLOWS_COLLEGE_DUBLIN,http://www.daft.ie/for-sale/apartment-apartment-71-griffith-hall-glandore-road-drumcondra-dublin-3/3706041
3699847,17789338,"4 Olympic House, Pleasants Street, Dublin 8",425000.0,70,70 m²,2,2,Apartment,2022-08-10,D1,106566466,228.55 kWh/m2/yr,53.335603,-6.266628,Buy,ALL_HALLOWS_COLLEGE_DUBLIN,http://www.daft.ie/for-sale/apartment-4-olympic-house-pleasants-street-dublin-8/3699847
3691715,17724234,"Apartment 5, Aldborough Court, Dublin 1",335000.0,66,66 m²,2,1,Apartment,2022-08-10,C3,,,53.355174,-6.246722,Buy,ALL_HALLOWS_COLLEGE_DUBLIN,http://www.daft.ie/for-sale/apartment-apartment-5-aldborough-court-dublin-1/3691715
3668740,17515444,"Apartment 27, The Locks, Dublin 4",645000.0,82,82 m²,3,2,Apartment,2022-08-09,D1,,,53.342482,-6.237034,Buy,ALL_HALLOWS_COLLEGE_DUBLIN,http://www.daft.ie/for-sale/apartment-apartment-27-the-locks-dublin-4/3668740
3659697,17410267,"195 Tuskar Rock, Custom House Harbour, IFSC, Dublin 1",275000.0,40,40 m²,1,1,Apartment,2022-08-10,D2,114557556,276.9 kWh/m2/yr,53.351237,-6.248281,Buy,ALL_HALLOWS_COLLEGE_DUBLIN,http://www.daft.ie/for-sale/apartment-195-tuskar-rock-custom-house-harbour-ifsc-dublin-1/3659697
3638238,17113245,"Parklands, Northwood, Santry, Dublin 9",275000.0,58,58 m²,2,2,Apartment,2022-06-23,C1,100642461,171.47 kWh/m2/yr,53.3978924,-6.256171,Buy,ALL_HALLOWS_COLLEGE_DUBLIN,http://www.daft.ie/for-sale/apartment-parklands-northwood-santry-dublin-9/3638238
3635808,17082964,"Geraldstown Woods, Santry, Dublin 9",275000.0,N/A,,3,2,Apartment,2022-07-18,C1,111119012,173.35 kWh/m2/yr,53.400964,-6.26051,Buy,ALL_HALLOWS_COLLEGE_DUBLIN,http://www.daft.ie/for-sale/apartment-geraldstown-woods-santry-dublin-9/3635808
3604952,16837667,"Apartment 47, Block B, The Courtyard, Dublin 1",349950.0,N/A,,2,2,Apartment,2022-06-21,D1,,,53.354322,-6.259168,Buy,ALL_HALLOWS_COLLEGE_DUBLIN,http://www.daft.ie/for-sale/apartment-apartment-47-block-b-the-courtyard-dublin-1/3604952
3593413,16702949,"Apartment 27, Temple Court, Dublin 7",190000.0,32,32 m²,1,1,Apartment,2022-05-14,E1,,,53.353986,-6.271212,Buy,ALL_HALLOWS_COLLEGE_DUBLIN,http://www.daft.ie/for-sale/apartment-apartment-27-temple-court-dublin-7/3593413
3593348,16700797,"Hanover Court Grand Canal Dock Dublin 2, Grand Canal Dock, Dublin 2",685000.0,80,80 m²,2,,Apartment,2022-08-10,A2,,,53.34371,-6.231794,Buy,ALL_HALLOWS_COLLEGE_DUBLIN,http://www.daft.ie/for-sale/apartment-hanover-court-grand-canal-dock-dublin-2-grand-canal-dock-dublin-2/3593348
3584635,16605504,"Apartment 42, Block E, Blackhall Square, Smithfield, Dublin 1",285000.0,N/A,,2,1,Apartment,2022-06-21,SI_666,,,53.350387,-6.28072,Buy,ALL_HALLOWS_COLLEGE_DUBLIN,http://www.daft.ie/for-sale/apartment-apartment-42-block-e-blackhall-square-smithfield-dublin-1/3584635
3559930,16331404,"Apartment 9, Weir House, Richmond Road, Dublin 1",240000.0,70,70 m²,1,1,Apartment,2022-07-12,B3,,,53.363981,-6.246145,Buy,ALL_HALLOWS_COLLEGE_DUBLIN,http://www.daft.ie/for-sale/apartment-apartment-9-weir-house-richmond-road-dublin-1/3559930
3547303,16225352,"Apartment 11, 99 Capel Street, Dublin 1",325000.0,51,51 m²,2,1,Apartment,2022-08-10,SI_666,,,53.35007,-6.269708,Buy,ALL_HALLOWS_COLLEGE_DUBLIN,http://www.daft.ie/for-sale/apartment-apartment-11-99-capel-street-dublin-1/3547303
3509097,16053309,"Apartment 39, The Hampton, Ballymun, Dublin 9",225000.0,N/A,,2,2,Apartment,2022-06-21,D2,,,53.400782,-6.26507,Buy,ALL_HALLOWS_COLLEGE_DUBLIN,http://www.daft.ie/for-sale/apartment-apartment-39-the-hampton-ballymun-dublin-9/3509097
3469279,15701735,"5 Mountjoy Square North, Dublin 1",390000.0,86,86 m²,2,1,Apartment,2022-08-10,D1,,,53.357264,-6.258529,Buy,ALL_HALLOWS_COLLEGE_DUBLIN,http://www.daft.ie/for-sale/apartment-5-mountjoy-square-north-dublin-1/3469279
3262760,15077784,"16 Arranmore, 13_17 Pembroke Road, Ballsbridge, Dublin 4",250000.0,39,39 m²,1,1,Apartment,2022-08-09,D2,113820708,280.58 kWh/m2/yr,53.332414,-6.242581,Buy,ALL_HALLOWS_COLLEGE_DUBLIN,http://www.daft.ie/for-sale/apartment-16-arranmore-13-17-pembroke-road-ballsbridge-dublin-4/3262760
3287290,15238939,"Apartment 29, The Atrium, The Steelworks, Dublin 1",325000.0,70,70 m²,2,2,Apartment,2022-08-10,C2,,,53.352301,-6.251498,Buy,ALL_HALLOWS_COLLEGE_DUBLIN,http://www.daft.ie/for-sale/apartment-apartment-29-the-atrium-the-steelworks-dublin-1/3287290
3157440,14194790,"3 Fairfield Avenue, East Wall, East Wall, Dublin 3",260000.0,47,47 m²,1,1,Apartment,2022-08-02,G,110282753,625.82 kWh/m2/yr,53.354957,-6.235797,Buy,ALL_HALLOWS_COLLEGE_DUBLIN,http://www.daft.ie/for-sale/apartment-3-fairfield-avenue-east-wall-east-wall-dublin-3/3157440
1529074,12426855,"Apartment 3, Brook House, Richmond Road, Fairview, Dublin 3",295000.0,N/A,,2,2,Apartment,2022-08-10,C3,112953013,204.08 kWh/m2/yr,53.364362,-6.245742,Buy,ALL_HALLOWS_COLLEGE_DUBLIN,http://www.daft.ie/for-sale/apartment-apartment-3-brook-house-richmond-road-fairview-dublin-3/1529074
7950,11590259,"8 Carrig Road, Ballymun, Dublin 11",189950.0,N/A,,2,1,Apartment,2022-08-09,D1,,,53.399592293387315,-6.276004314422607,Buy,ALL_HALLOWS_COLLEGE_DUBLIN,http://www.daft.ie/for-sale/apartment-8-carrig-road-ballymun-dublin-11/7950
3739502,18138022,"15 Fisherman's Wharf, Thorncastle Street, Ringsend, Dublin 4",450000.0,85,85 m²,3,1,End of Terrace,2022-08-10,E1,107748584,325.34 kWh/m2/yr,53.344467,-6.227874,Buy,ALL_HALLOWS_COLLEGE_DUBLIN,http://www.daft.ie/for-sale/end-of-terrace-house-15-fishermans-wharf-thorncastle-street-ringsend-dublin-4/3739502
3907301,19023045,"62 Ellenfield Road, Whitehall, Whitehall, Dublin 9",345000.0,6,6 m²,2,1,End of Terrace,2022-08-05,D1,,,53.386829,-6.239009,Buy,ALL_HALLOWS_COLLEGE_DUBLIN,http://www.daft.ie/for-sale/end-of-terrace-house-62-ellenfield-road-whitehall-whitehall-dublin-9/3907301
3906072,19013700,"50 Saint Johns Court, Kilmore Road, Artane, Dublin 5",440000.0,100,100 m²,3,3,End of Terrace,2022-07-04,D1,114870124,239.27 kWh/m2/yr,53.390059,-6.218053,Buy,ALL_HALLOWS_COLLEGE_DUBLIN,http://www.daft.ie/for-sale/end-of-terrace-house-50-saint-johns-court-kilmore-road-artane-dublin-5/3906072
3904368,18997660,"104 Tolka Road, Drumcondra, Dublin 3",298000.0,66,66 m²,2,1,End of Terrace,2022-08-10,F,,,53.363223,-6.245507,Buy,ALL_HALLOWS_COLLEGE_DUBLIN,http://www.daft.ie/for-sale/end-of-terrace-house-104-tolka-road-drumcondra-dublin-3/3904368
3895528,18907352,"11 Shamrock Terrace, Dublin 1",249950.0,N/A,,4,1,End of Terrace,2022-06-21,F,,,53.354973,-6.24412,Buy,ALL_HALLOWS_COLLEGE_DUBLIN,http://www.daft.ie/for-sale/end-of-terrace-house-11-shamrock-terrace-dublin-1/3895528
3823333,18847062,"41 Oakpark Avenue, Santry, Santry, Dublin 9",294950.0,N/A,,2,1,End of Terrace,2022-06-21,D2,,,53.395035,-6.241229,Buy,ALL_HALLOWS_COLLEGE_DUBLIN,http://www.daft.ie/for-sale/end-of-terrace-house-41-oakpark-avenue-santry-santry-dublin-9/3823333
3822935,18844668,"12 The Court, High Park, Drumcondra, Dublin 3",375000.0,70,70 m²,2,1,End of Terrace,2022-08-10,D1,,,53.380598,-6.240076,Buy,ALL_HALLOWS_COLLEGE_DUBLIN,http://www.daft.ie/for-sale/end-of-terrace-house-12-the-court-high-park-drumcondra-dublin-3/3822935
3817553,18795966,"1 Church Street East, East Wall, Dublin 3",495000.0,N/A,,3,2,End of Terrace,2022-08-10,D1,114873334,252.48 kWh/m2/yr,53.35122,-6.235904,Buy,ALL_HALLOWS_COLLEGE_DUBLIN,http://www.daft.ie/for-sale/end-of-terrace-house-1-church-street-east-east-wall-dublin-3/3817553
3811365,18739324,"22 Finglas Road, Glasnevin, Dublin 11",625000.0,107,107 m²,2,2,End of Terrace,2022-08-10,D2,114749955,298.4 kWh/m2/yr,53.367298,-6.272166,Buy,ALL_HALLOWS_COLLEGE_DUBLIN,http://www.daft.ie/for-sale/end-of-terrace-house-22-finglas-road-glasnevin-dublin-11/3811365
3807118,18713678,"383 North Circular Road, Dublin 7",400000.0,N/A,,4,1,End of Terrace,2022-06-21,G,,,53.360826,-6.270665,Buy,ALL_HALLOWS_COLLEGE_DUBLIN,http://www.daft.ie/for-sale/end-of-terrace-house-383-north-circular-road-dublin-7/3807118
3806756,18709215,"43 Ferndale Avenue, Glasnevin, Glasnevin, Dublin 11",420000.0,103,103 m²,3,1,End of Terrace,2022-08-08,F,114838717,392.55 kWh/m2/yr,53.386888,-6.281185,Buy,ALL_HALLOWS_COLLEGE_DUBLIN,http://www.daft.ie/for-sale/end-of-terrace-house-43-ferndale-avenue-glasnevin-glasnevin-dublin-11/3806756
3793658,18594230,"291 Richmond Road, Drumcondra, Drumcondra, Dublin 3",195000.0,51,51 m²,1,1,End of Terrace,2022-06-21,SI_666,,,53.362546,-6.242037,Buy,ALL_HALLOWS_COLLEGE_DUBLIN,http://www.daft.ie/for-sale/end-of-terrace-house-291-richmond-road-drumcondra-drumcondra-dublin-3/3793658
3785610,18528077,"North Circular Road (Portfolio of 3 Properties D.7 & D.9), Dublin 7",1500000.0,N/A,,12,12,End of Terrace,2022-06-21,F,,,53.3602656,-6.2767753,Buy,ALL_HALLOWS_COLLEGE_DUBLIN,http://www.daft.ie/for-sale/end-of-terrace-house-north-circular-road-portfolio-of-3-properties-d-7-d-9-dublin-7/3785610
3785468,18526185,"48 Innisfallen Parade (4 Self Contained Units), Phibsborough, Dublin 7",395000.0,115,115 m²,4,4,End of Terrace,2022-06-21,F,,,53.361354,-6.265391,Buy,ALL_HALLOWS_COLLEGE_DUBLIN,http://www.daft.ie/for-sale/end-of-terrace-house-48-innisfallen-parade-4-self-contained-units-phibsborough-dublin-7/3785468
3771706,18393953,"1 Waterloo Road, Ballsbridge, Dublin 4",6000000.0,547,547 m²,6,3,End of Terrace,2022-08-10,SI_666,,,53.332101,-6.244247,Buy,ALL_HALLOWS_COLLEGE_DUBLIN,http://www.daft.ie/for-sale/end-of-terrace-house-1-waterloo-road-ballsbridge-dublin-4/3771706
3743804,18174069,"50 Seven Oaks, Drumcondra, Dublin 9",595000.0,103,103 m²,3,2,End of Terrace,2022-08-10,C1,105402408,159.08 kWh/m2/yr,53.377461,-6.2479,Buy,ALL_HALLOWS_COLLEGE_DUBLIN,http://www.daft.ie/for-sale/end-of-terrace-house-50-seven-oaks-drumcondra-dublin-9/3743804
3738329,18127213,"87 Quarry Road, Cabra East, Cabra, Dublin 7",395000.0,75,75 m²,2,1,End of Terrace,2022-08-09,B3,108358110,146.48 kWh/m2/yr,53.364548,-6.287979,Buy,ALL_HALLOWS_COLLEGE_DUBLIN,http://www.daft.ie/for-sale/end-of-terrace-house-87-quarry-road-cabra-east-cabra-dublin-7/3738329
3729941,18037286,"17 Bridge Street, Ringsend, Ringsend, Dublin 4",495000.0,73,73 m²,2,2,End of Terrace,2022-08-02,F,114650740,399.9 kWh/m2/yr,53.342042,-6.226518,Buy,ALL_HALLOWS_COLLEGE_DUBLIN,http://www.daft.ie/for-sale/end-of-terrace-house-17-bridge-street-ringsend-ringsend-dublin-4/3729941
3724601,17995896,"43 Seaview Avenue East, East Wall, East Wall, Dublin 3",495000.0,138,138 m²,3,3,End of Terrace,2022-07-13,D2,113232110,289.7 kWh/m2/yr,53.356821,-6.236514,Buy,ALL_HALLOWS_COLLEGE_DUBLIN,http://www.daft.ie/for-sale/end-of-terrace-house-43-seaview-avenue-east-east-wall-east-wall-dublin-3/3724601
3713761,17893743,"83 Glentow Road, Whitehall, Whitehall, Dublin 9",395000.0,120,120 m²,3,1,End of Terrace,2022-08-10,D2,,,53.386326,-6.248177,Buy,ALL_HALLOWS_COLLEGE_DUBLIN,http://www.daft.ie/for-sale/end-of-terrace-house-83-glentow-road-whitehall-whitehall-dublin-9/3713761
3702439,17818654,"9 Fitzwilliam Quay, Dublin 4",1000000.0,154,154 m²,4,4,End of Terrace,2022-08-04,A3,111275228,52.56 kWh/m2/yr,53.341214,-6.228073,Buy,ALL_HALLOWS_COLLEGE_DUBLIN,http://www.daft.ie/for-sale/end-of-terrace-house-9-fitzwilliam-quay-dublin-4/3702439
3660779,17427751,"29 Charleville Avenue, North Strand, Ballybough, Dublin 3",399950.0,104,104 m²,2,1,End of Terrace,2022-06-21,SI_666,,,53.358913,-6.245539,Buy,ALL_HALLOWS_COLLEGE_DUBLIN,http://www.daft.ie/for-sale/end-of-terrace-house-29-charleville-avenue-north-strand-ballybough-dublin-3/3660779
3611184,16901318,"118 Dorset Street Upper, Dublin 1",550000.0,148,148 m²,4,2,End of Terrace,2022-08-05,F,,,53.354536,-6.266822,Buy,ALL_HALLOWS_COLLEGE_DUBLIN,http://www.daft.ie/for-sale/end-of-terrace-house-118-dorset-street-upper-dublin-1/3611184
3592405,16690605,"The Gables, 19 South Dock Place, Ringsend, Dublin 4",375000.0,76,76 m²,2,1,End of Terrace,2022-08-10,D1,113154520,232.62 kWh/m2/yr,53.341154,-6.23305,Buy,ALL_HALLOWS_COLLEGE_DUBLIN,http://www.daft.ie/for-sale/end-of-terrace-house-the-gables-19-south-dock-place-ringsend-dublin-4/3592405
3565419,16395520,"52 Saint Patrick's Villas, Ringsend, Dublin 4",380000.0,58,58 m²,2,1,End of Terrace,2022-08-09,G,104817937,518.84 kWh/m2/yr,53.341643,-6.225806,Buy,ALL_HALLOWS_COLLEGE_DUBLIN,http://www.daft.ie/for-sale/end-of-terrace-house-52-saint-patricks-villas-ringsend-dublin-4/3565419
3469271,15701730,"33 Clonmore Road, Ballybough, Ballybough, Dublin 3",360000.0,101,101 m²,3,1,End of Terrace,2022-06-23,F,,,53.35836,-6.246268,Buy,ALL_HALLOWS_COLLEGE_DUBLIN,http://www.daft.ie/for-sale/end-of-terrace-house-33-clonmore-road-ballybough-ballybough-dublin-3/3469271
3183292,14453152,"45 Blythe Avenue, East Wall, East Wall, Dublin 3",495000.0,N/A,,7,6,End of Terrace,2022-06-21,D2,,,53.352336,-6.237686,Buy,ALL_HALLOWS_COLLEGE_DUBLIN,http://www.daft.ie/for-sale/end-of-terrace-house-45-blythe-avenue-east-wall-east-wall-dublin-3/3183292
3504167,16038118,"201 Shanowen Road, Santry, Santry, Dublin 9",450000.0,101,101 m²,3,2,Semi-D,2022-08-10,F,,,53.389168,-6.257027,Buy,ALL_HALLOWS_COLLEGE_DUBLIN,http://www.daft.ie/for-sale/semi-detached-house-201-shanowen-road-santry-santry-dublin-9/3504167
4001765,112946774,"28 Oak Road, Donnycarney, Dublin 9",375000.0,80,80 m²,2,2,Terrace,2022-08-08,C2,114823180,179.54 kWh/m2/yr,53.374122,-6.221508,Buy,ALL_HALLOWS_COLLEGE_DUBLIN,http://www.daft.ie/for-sale/terraced-house-28-oak-road-donnycarney-dublin-9/4001765
4001763,112946652,"26 St Patricks Villas, Ringsend, Dublin 4",525000.0,74,74 m²,2,1,Terrace,2022-08-10,C2,115373755,192.96 kWh/m2/yr,53.341434,-6.225872,Buy,ALL_HALLOWS_COLLEGE_DUBLIN,http://www.daft.ie/for-sale/terraced-house-26-st-patricks-villas-ringsend-dublin-4/4001763
4001381,112943975,"40 Great Western Villas, Phibsborough, Dublin 7",365000.0,67,67 m²,2,2,End of Terrace,2022-08-10,F,111911863,443.09 kWh/m2/yr,53.358662,-6.275734,Buy,ALL_HALLOWS_COLLEGE_DUBLIN,http://www.daft.ie/for-sale/end-of-terrace-house-40-great-western-villas-phibsborough-dublin-7/4001381
4001518,112944166,"7 Hanover Square, Christchurch, Dublin 8",330000.0,45,45 m²,1,1,End of Terrace,2022-08-10,E1,115381550,328.62 kWh/m2/yr,53.340491,-6.272982,Buy,ALL_HALLOWS_COLLEGE_DUBLIN,http://www.daft.ie/for-sale/end-of-terrace-house-7-hanover-square-christchurch-dublin-8/4001518
4001212,112942616,"8 Cedarview, Santry, Dublin 9",575000.0,143,143 m²,4,3,Semi-D,2022-08-03,A2,,,53.40503,-6.256948,Buy,ALL_HALLOWS_COLLEGE_DUBLIN,http://www.daft.ie/for-sale/semi-detached-house-8-cedarview-santry-dublin-9/4001212
4001103,112941022,"30 Shanliss Avenue, Santry, Dublin 9",425000.0,93,93 m²,3,1,Semi-D,2022-08-10,C2,,,53.392386,-6.25277,Buy,ALL_HALLOWS_COLLEGE_DUBLIN,http://www.daft.ie/for-sale/semi-detached-house-30-shanliss-avenue-santry-dublin-9/4001103
4000856,112937762,"45 Iveragh Road, Gaeltacht Park, Whitehall, Dublin 9",625000.0,100,100 m²,3,2,End of Terrace,2022-08-10,E1,115372161,325.4 kWh/m2/yr,53.381291,-6.249024,Buy,ALL_HALLOWS_COLLEGE_DUBLIN,http://www.daft.ie/for-sale/end-of-terrace-house-45-iveragh-road-gaeltacht-park-whitehall-dublin-9/4000856
4000296,112934314,"42 Oldtown Road, Santry, Dublin 9",425000.0,89,89 m²,3,2,Semi-D,2022-08-10,C3,108630310,214.39 kWh/m2/yr,53.393334,-6.257101,Buy,ALL_HALLOWS_COLLEGE_DUBLIN,http://www.daft.ie/for-sale/semi-detached-house-42-oldtown-road-santry-dublin-9/4000296
4000251,112931966,"10 Dowling's Court, City Quay, Dublin 2",395000.0,N/A,,3,1,Terrace,2022-07-29,C1,108048703,169.53 kWh/m2/yr,53.346053,-6.249045,Buy,ALL_HALLOWS_COLLEGE_DUBLIN,http://www.daft.ie/for-sale/terraced-house-10-dowlings-court-city-quay-dublin-2/4000251
4000137,112931867,"1 Eden Terrace, Botanic Avenue, Drumcondra, Dublin 9",425000.0,73,73 m²,2,2,End of Terrace,2022-08-10,C2,,,53.368309,-6.260784,Buy,ALL_HALLOWS_COLLEGE_DUBLIN,http://www.daft.ie/for-sale/end-of-terrace-house-1-eden-terrace-botanic-avenue-drumcondra-dublin-9/4000137
4000096,112931189,"57 Bath Avenue, Sandymount, Dublin 4","AMV: €1,200,000",N/A,,9,9,Terrace,2022-08-10,E2,0,203.04 kWh/m2/yr,53.337245,-6.229963,Buy,ALL_HALLOWS_COLLEGE_DUBLIN,http://www.daft.ie/for-sale/terraced-house-57-bath-avenue-sandymount-dublin-4/4000096
4000098,112931188,"16 Strangford Road, East Wall, Dublin 3","AMV: €275,000",N/A,,3,2,Terrace,2022-08-10,G,104868005,555.3 kWh/m2/yr,53.356096,-6.236874,Buy,ALL_HALLOWS_COLLEGE_DUBLIN,http://www.daft.ie/for-sale/terraced-house-16-strangford-road-east-wall-dublin-3/4000098
3999954,112929895,"15 Marguerite Road, Glasnevin, Dublin 9",649000.0,140,140 m²,3,2,Terrace,2022-08-10,E2,115374522,68.49 kWh/m2/yr,53.368572,-6.268234,Buy,ALL_HALLOWS_COLLEGE_DUBLIN,http://www.daft.ie/for-sale/terraced-house-15-marguerite-road-glasnevin-dublin-9/3999954
3999944,112929536,"33 Croydon Park Avenue, Marino, Dublin 3",525000.0,98,98 m²,3,2,Terrace,2022-08-10,D2,101519031,276.4 kWh/m2/yr,53.368068,-6.235452,Buy,ALL_HALLOWS_COLLEGE_DUBLIN,http://www.daft.ie/for-sale/terraced-house-33-croydon-park-avenue-marino-dublin-3/3999944
3998134,112915772,"180 Shantalla Road, Beaumont, Santry, Dublin 9",495000.0,114,114 m²,3,2,Semi-D,2022-08-10,C3,114290240,223.56 kWh/m2/yr,53.389832,-6.241356,Buy,ALL_HALLOWS_COLLEGE_DUBLIN,http://www.daft.ie/for-sale/semi-detached-house-180-shantalla-road-beaumont-santry-dublin-9/3998134
3997980,112914386,"10 Tourmakeady Road, Whitehall, Dublin 9",495000.0,80,80 m²,3,1,Semi-D,2022-08-10,E2,115376840,357.76 kWh/m2/yr,53.382138,-6.250271,Buy,ALL_HALLOWS_COLLEGE_DUBLIN,http://www.daft.ie/for-sale/semi-detached-house-10-tourmakeady-road-whitehall-dublin-9/3997980
3997804,112912130,"1A Glasnamana Place, Glasnevin, Dublin 11",450000.0,115,115 m²,3,2,Detached,2022-08-10,C1,109065938,163.48 kWh/m2/yr,53.382436,-6.280284,Buy,ALL_HALLOWS_COLLEGE_DUBLIN,http://www.daft.ie/for-sale/detached-house-1a-glasnamana-place-glasnevin-dublin-11/3997804
3997803,112912128,"29 Glenshesk Road, Whitehall, Dublin 9",375000.0,81,81 m²,2,2,End of Terrace,2022-08-10,D1,108624925,51.45 kWh/m2/yr,53.383272,-6.240394,Buy,ALL_HALLOWS_COLLEGE_DUBLIN,http://www.daft.ie/for-sale/end-of-terrace-house-29-glenshesk-road-whitehall-dublin-9/3997803
3997383,112907892,"8 Shantalla Park, Beaumont, Beaumont, Dublin 9",395000.0,103,103 m²,3,1,Terrace,2022-08-10,D2,,,53.387008,-6.235723,Buy,ALL_HALLOWS_COLLEGE_DUBLIN,http://www.daft.ie/for-sale/terraced-house-8-shantalla-park-beaumont-beaumont-dublin-9/3997383
3996877,112901587,"44 Merchants Road, East Wall, Dublin 3",195000.0,40,40 m²,2,1,Terrace,2022-08-10,G,115357360,487.41 kWh/m2/yr,53.352733,-6.228304,Buy,ALL_HALLOWS_COLLEGE_DUBLIN,http://www.daft.ie/for-sale/terraced-house-44-merchants-road-east-wall-dublin-3/3996877
3996871,112900969,"7 Fitzroy Avenue, Drumcondra, Dublin 3",450000.0,81,81 m²,2,1,Terrace,2022-08-10,D2,114895857,295.15 kWh/m2/yr,53.361677,-6.2539,Buy,ALL_HALLOWS_COLLEGE_DUBLIN,http://www.daft.ie/for-sale/terraced-house-7-fitzroy-avenue-drumcondra-dublin-3/3996871
3996843,112900927,"86 Heytesbury Street, Dublin 8",775000.0,117,117 m²,3,2,Terrace,2022-08-10,SI_666,,,53.335637,-6.268634,Buy,ALL_HALLOWS_COLLEGE_DUBLIN,http://www.daft.ie/for-sale/terraced-house-86-heytesbury-street-dublin-8/3996843
3996586,112899450,"31 Grove Park Drive, Glasnevin, Glasnevin, Dublin 11",449000.0,122,122 m²,4,3,Semi-D,2022-08-09,F,,,53.39238,-6.283334,Buy,ALL_HALLOWS_COLLEGE_DUBLIN,http://www.daft.ie/for-sale/semi-detached-house-31-grove-park-drive-glasnevin-glasnevin-dublin-11/3996586
3996395,112895954,"28 Saint Brigid's Avenue, North Strand, North Wall, Dublin 1",475000.0,N/A,,2,1,Terrace,2022-07-27,D2,,,53.358643,-6.239888,Buy,ALL_HALLOWS_COLLEGE_DUBLIN,http://www.daft.ie/for-sale/terraced-house-28-saint-brigids-avenue-north-strand-north-wall-dublin-1/3996395
3996349,112895930,"2 East Road, East Wall, Dublin 3",460000.0,100,100 m²,4,2,End of Terrace,2022-08-10,E2,,,53.354862,-6.229634,Buy,ALL_HALLOWS_COLLEGE_DUBLIN,http://www.daft.ie/for-sale/end-of-terrace-house-2-east-road-east-wall-dublin-3/3996349
3996230,112893653,"26 Kilbarron Drive, Kilmore West, D05KC66, Kilmore, Dublin 5",295000.0,72,72 m²,3,2,End of Terrace,2022-08-10,E1,108188796,302.19 kWh/m2/yr,53.39506,-6.223677,Buy,ALL_HALLOWS_COLLEGE_DUBLIN,http://www.daft.ie/for-sale/end-of-terrace-house-26-kilbarron-drive-kilmore-west-d05kc66-kilmore-dublin-5/3996230
3996238,112894837,"4 Orchard Terrace, Grangegorman, Dublin 7",475000.0,97,97 m²,1,1,Terrace,2022-08-08,E1,114648108,325.54 kWh/m2/yr,53.358111,-6.281502,Buy,ALL_HALLOWS_COLLEGE_DUBLIN,http://www.daft.ie/for-sale/terraced-house-4-orchard-terrace-grangegorman-dublin-7/3996238
3996065,112893471,"9 Ellenfield Road, Whitehall, Dublin 9",360000.0,134,134 m²,2,2,Semi-D,2022-08-10,C1,,,53.38492,-6.237291,Buy,ALL_HALLOWS_COLLEGE_DUBLIN,http://www.daft.ie/for-sale/semi-detached-house-9-ellenfield-road-whitehall-dublin-9/3996065
3995210,112885080,"57 Bargy Road, East Wall, Dublin 3",290000.0,67,67 m²,2,1,Terrace,2022-08-10,F,115357253,431.9 kWh/m2/yr,53.355741,-6.231522,Buy,ALL_HALLOWS_COLLEGE_DUBLIN,http://www.daft.ie/for-sale/terraced-house-57-bargy-road-east-wall-dublin-3/3995210
3994703,112877687,"72 Shanliss Avenue, Santry, Santry, Dublin 9",450000.0,N/A,,3,2,Semi-D,2022-08-10,F,,,53.394865,-6.252012,Buy,ALL_HALLOWS_COLLEGE_DUBLIN,http://www.daft.ie/for-sale/semi-detached-house-72-shanliss-avenue-santry-santry-dublin-9/3994703
3994590,112876465,"109 Ballyshannon Road, Kilmore, Dublin 5",325000.0,119,119 m²,3,1,Terrace,2022-08-10,E2,115369050,371.9 kWh/m2/yr,53.3933432,-6.2281639,Buy,ALL_HALLOWS_COLLEGE_DUBLIN,http://www.daft.ie/for-sale/terraced-house-109-ballyshannon-road-kilmore-dublin-5/3994590
3994587,112876464,"28 Lindsay Road, Glasnevin, Dublin 9",870000.0,148,148 m²,3,2,Semi-D,2022-08-10,G,115222762,1143.99 kWh/m2/yr,53.3653473,-6.2694088,Buy,ALL_HALLOWS_COLLEGE_DUBLIN,http://www.daft.ie/for-sale/semi-detached-house-28-lindsay-road-glasnevin-dublin-9/3994587
3994196,112872956,"Dun Roaming, 37 Santry Close, Santry, Dublin 9",550000.0,150,150 m²,4,2,Semi-D,2022-08-09,D2,,,53.399939,-6.241739,Buy,ALL_HALLOWS_COLLEGE_DUBLIN,http://www.daft.ie/for-sale/semi-detached-house-dun-roaming-37-santry-close-santry-dublin-9/3994196
3994040,112871600,"30 Glasnevin Avenue, Glasnevin, Dublin 11",535000.0,125,125 m²,3,2,Semi-D,2022-08-08,G,115231946,468.16 kWh/m2/yr,53.389826,-6.267173,Buy,ALL_HALLOWS_COLLEGE_DUBLIN,http://www.daft.ie/for-sale/semi-detached-house-30-glasnevin-avenue-glasnevin-dublin-11/3994040
3429659,15422831,"193 Elm Mount Avenue, Beaumont, Beaumont, Dublin 9",445000.0,92,92 m²,3,2,Semi-D,2022-08-09,E1,,,53.378607,-6.222188,Buy,ALL_HALLOWS_COLLEGE_DUBLIN,http://www.daft.ie/for-sale/semi-detached-house-193-elm-mount-avenue-beaumont-beaumont-dublin-9/3429659
3993477,112862542,"135 St Attracta Road, Cabra, Dublin 7",349000.0,66,66 m²,2,1,Terrace,2022-08-10,C3,114600034,202.2 kWh/m2/yr,53.366765,-6.284489,Buy,ALL_HALLOWS_COLLEGE_DUBLIN,http://www.daft.ie/for-sale/terraced-house-135-st-attracta-road-cabra-dublin-7/3993477
3978348,19611149,"51 Leix Road, Cabra, Cabra, Dublin 7",375000.0,78,78 m²,2,1,End of Terrace,2022-08-10,F,,,53.362094,-6.287243,Buy,ALL_HALLOWS_COLLEGE_DUBLIN,http://www.daft.ie/for-sale/end-of-terrace-house-51-leix-road-cabra-cabra-dublin-7/3978348
3991897,19746458,"3 The Thatch Road, Whitehall, Whitehall, Dublin 9",340000.0,80,80 m²,2,2,Terrace,2022-08-10,D2,,,53.382486,-6.24308,Buy,ALL_HALLOWS_COLLEGE_DUBLIN,http://www.daft.ie/for-sale/terraced-house-3-the-thatch-road-whitehall-whitehall-dublin-9/3991897
3991881,19746342,"154 East Wall Road, East Wall, Dublin 3",395000.0,90,90 m²,3,2,End of Terrace,2022-08-10,E2,,,53.35594,-6.231189,Buy,ALL_HALLOWS_COLLEGE_DUBLIN,http://www.daft.ie/for-sale/end-of-terrace-house-154-east-wall-road-east-wall-dublin-3/3991881
3991473,19741534,"13 Enniskerry Road, Phibsborough, Dublin 7",549000.0,110,110 m²,4,2,Terrace,2022-08-10,E2,115356172,342.98 kWh/m2/yr,53.363562,-6.271582,Buy,ALL_HALLOWS_COLLEGE_DUBLIN,http://www.daft.ie/for-sale/terraced-house-13-enniskerry-road-phibsborough-dublin-7/3991473
3991237,19736136,"125 Home Farm Road, Drumcondra, Dublin 9",795000.0,147,147 m²,4,2,Terrace,2022-08-10,E1,115356370,300.77 kWh/m2/yr,53.376043,-6.263348,Buy,ALL_HALLOWS_COLLEGE_DUBLIN,http://www.daft.ie/for-sale/terraced-house-125-home-farm-road-drumcondra-dublin-9/3991237
3991219,19735986,"45 Shanliss Avenue, Santry, Dublin 9",400000.0,80,80 m²,3,1,Semi-D,2022-08-10,E2,115359622,355.83 kWh/m2/yr,53.393254,-6.25139,Buy,ALL_HALLOWS_COLLEGE_DUBLIN,http://www.daft.ie/for-sale/semi-detached-house-45-shanliss-avenue-santry-dublin-9/3991219
3991215,19735955,"29 St Ignatius Road Phibsboro Dublin 7, North Circular Road, Dublin 7",395000.0,75,75 m²,2,1,Terrace,2022-08-10,E2,115225245,368.97 kWh/m2/yr,53.3618614,-6.2629211,Buy,ALL_HALLOWS_COLLEGE_DUBLIN,http://www.daft.ie/for-sale/terraced-house-29-st-ignatius-road-phibsboro-dublin-7-north-circular-road-dublin-7/3991215
3991099,19735553,"17 Dean Swift Green, Glasnevin, Glasnevin, Dublin 11",449950.0,N/A,,3,1,End of Terrace,2022-07-21,C2,,,53.385519,-6.26838,Buy,ALL_HALLOWS_COLLEGE_DUBLIN,http://www.daft.ie/for-sale/end-of-terrace-house-17-dean-swift-green-glasnevin-glasnevin-dublin-11/3991099
3991030,19735498,"21 Ossory Road, North Strand, East Wall, Dublin 3",299950.0,62,62 m²,3,1,Terrace,2022-07-21,E2,,,53.355686,-6.242363,Buy,ALL_HALLOWS_COLLEGE_DUBLIN,http://www.daft.ie/for-sale/terraced-house-21-ossory-road-north-strand-east-wall-dublin-3/3991030
3990473,19729389,"257 Swords Road, Santry, Dublin 9",495000.0,127,127 m²,4,4,Semi-D,2022-08-10,D1,,251.86 kWh/m2/yr,53.389014,-6.24627,Buy,ALL_HALLOWS_COLLEGE_DUBLIN,http://www.daft.ie/for-sale/semi-detached-house-257-swords-road-santry-dublin-9/3990473
3990265,19727554,"10 Montrose Crescent, Artane, Artane, Dublin 5",375000.0,97,97 m²,3,1,Semi-D,2022-08-09,E2,,,53.389026,-6.21927,Buy,ALL_HALLOWS_COLLEGE_DUBLIN,http://www.daft.ie/for-sale/semi-detached-house-10-montrose-crescent-artane-artane-dublin-5/3990265
3990199,19727519,"56 Santry Close, Santry, Santry, Dublin 9",460000.0,97,97 m²,3,2,Semi-D,2022-08-10,D2,105350795,282.33 kWh/m2/yr,53.401274,-6.239949,Buy,ALL_HALLOWS_COLLEGE_DUBLIN,http://www.daft.ie/for-sale/semi-detached-house-56-santry-close-santry-santry-dublin-9/3990199
3990174,19727508,"36 Blessington Street, Dublin 7",850000.0,N/A,,4,3,Terrace,2022-08-04,SI_666,,,53.357221,-6.2692,Buy,ALL_HALLOWS_COLLEGE_DUBLIN,http://www.daft.ie/for-sale/terraced-house-36-blessington-street-dublin-7/3990174
3504167,16038118,"201 Shanowen Road, Santry, Santry, Dublin 9",450000.0,101,101 m²,3,2,Semi-D,2022-08-10,F,,,53.389168,-6.257027,Buy,ALL_HALLOWS_COLLEGE_DUBLIN,http://www.daft.ie/for-sale/semi-detached-house-201-shanowen-road-santry-santry-dublin-9/3504167
4001765,112946774,"28 Oak Road, Donnycarney, Dublin 9",375000.0,80,80 m²,2,2,Terrace,2022-08-08,C2,114823180,179.54 kWh/m2/yr,53.374122,-6.221508,Buy,ALL_HALLOWS_COLLEGE_DUBLIN,http://www.daft.ie/for-sale/terraced-house-28-oak-road-donnycarney-dublin-9/4001765
4001763,112946652,"26 St Patricks Villas, Ringsend, Dublin 4",525000.0,74,74 m²,2,1,Terrace,2022-08-10,C2,115373755,192.96 kWh/m2/yr,53.341434,-6.225872,Buy,ALL_HALLOWS_COLLEGE_DUBLIN,http://www.daft.ie/for-sale/terraced-house-26-st-patricks-villas-ringsend-dublin-4/4001763
4001381,112943975,"40 Great Western Villas, Phibsborough, Dublin 7",365000.0,67,67 m²,2,2,End of Terrace,2022-08-10,F,111911863,443.09 kWh/m2/yr,53.358662,-6.275734,Buy,ALL_HALLOWS_COLLEGE_DUBLIN,http://www.daft.ie/for-sale/end-of-terrace-house-40-great-western-villas-phibsborough-dublin-7/4001381
4001518,112944166,"7 Hanover Square, Christchurch, Dublin 8",330000.0,45,45 m²,1,1,End of Terrace,2022-08-10,E1,115381550,328.62 kWh/m2/yr,53.340491,-6.272982,Buy,ALL_HALLOWS_COLLEGE_DUBLIN,http://www.daft.ie/for-sale/end-of-terrace-house-7-hanover-square-christchurch-dublin-8/4001518
4001212,112942616,"8 Cedarview, Santry, Dublin 9",575000.0,143,143 m²,4,3,Semi-D,2022-08-03,A2,,,53.40503,-6.256948,Buy,ALL_HALLOWS_COLLEGE_DUBLIN,http://www.daft.ie/for-sale/semi-detached-house-8-cedarview-santry-dublin-9/4001212
4001103,112941022,"30 Shanliss Avenue, Santry, Dublin 9",425000.0,93,93 m²,3,1,Semi-D,2022-08-10,C2,,,53.392386,-6.25277,Buy,ALL_HALLOWS_COLLEGE_DUBLIN,http://www.daft.ie/for-sale/semi-detached-house-30-shanliss-avenue-santry-dublin-9/4001103
4000856,112937762,"45 Iveragh Road, Gaeltacht Park, Whitehall, Dublin 9",625000.0,100,100 m²,3,2,End of Terrace,2022-08-10,E1,115372161,325.4 kWh/m2/yr,53.381291,-6.249024,Buy,ALL_HALLOWS_COLLEGE_DUBLIN,http://www.daft.ie/for-sale/end-of-terrace-house-45-iveragh-road-gaeltacht-park-whitehall-dublin-9/4000856
4000296,112934314,"42 Oldtown Road, Santry, Dublin 9",425000.0,89,89 m²,3,2,Semi-D,2022-08-10,C3,108630310,214.39 kWh/m2/yr,53.393334,-6.257101,Buy,ALL_HALLOWS_COLLEGE_DUBLIN,http://www.daft.ie/for-sale/semi-detached-house-42-oldtown-road-santry-dublin-9/4000296
4000251,112931966,"10 Dowling's Court, City Quay, Dublin 2",395000.0,N/A,,3,1,Terrace,2022-07-29,C1,108048703,169.53 kWh/m2/yr,53.346053,-6.249045,Buy,ALL_HALLOWS_COLLEGE_DUBLIN,http://www.daft.ie/for-sale/terraced-house-10-dowlings-court-city-quay-dublin-2/4000251
4000137,112931867,"1 Eden Terrace, Botanic Avenue, Drumcondra, Dublin 9",425000.0,73,73 m²,2,2,End of Terrace,2022-08-10,C2,,,53.368309,-6.260784,Buy,ALL_HALLOWS_COLLEGE_DUBLIN,http://www.daft.ie/for-sale/end-of-terrace-house-1-eden-terrace-botanic-avenue-drumcondra-dublin-9/4000137
4000096,112931189,"57 Bath Avenue, Sandymount, Dublin 4","AMV: €1,200,000",N/A,,9,9,Terrace,2022-08-10,E2,0,203.04 kWh/m2/yr,53.337245,-6.229963,Buy,ALL_HALLOWS_COLLEGE_DUBLIN,http://www.daft.ie/for-sale/terraced-house-57-bath-avenue-sandymount-dublin-4/4000096
4000098,112931188,"16 Strangford Road, East Wall, Dublin 3","AMV: €275,000",N/A,,3,2,Terrace,2022-08-10,G,104868005,555.3 kWh/m2/yr,53.356096,-6.236874,Buy,ALL_HALLOWS_COLLEGE_DUBLIN,http://www.daft.ie/for-sale/terraced-house-16-strangford-road-east-wall-dublin-3/4000098
3999954,112929895,"15 Marguerite Road, Glasnevin, Dublin 9",649000.0,140,140 m²,3,2,Terrace,2022-08-10,E2,115374522,68.49 kWh/m2/yr,53.368572,-6.268234,Buy,ALL_HALLOWS_COLLEGE_DUBLIN,http://www.daft.ie/for-sale/terraced-house-15-marguerite-road-glasnevin-dublin-9/3999954
3999944,112929536,"33 Croydon Park Avenue, Marino, Dublin 3",525000.0,98,98 m²,3,2,Terrace,2022-08-10,D2,101519031,276.4 kWh/m2/yr,53.368068,-6.235452,Buy,ALL_HALLOWS_COLLEGE_DUBLIN,http://www.daft.ie/for-sale/terraced-house-33-croydon-park-avenue-marino-dublin-3/3999944
3998134,112915772,"180 Shantalla Road, Beaumont, Santry, Dublin 9",495000.0,114,114 m²,3,2,Semi-D,2022-08-10,C3,114290240,223.56 kWh/m2/yr,53.389832,-6.241356,Buy,ALL_HALLOWS_COLLEGE_DUBLIN,http://www.daft.ie/for-sale/semi-detached-house-180-shantalla-road-beaumont-santry-dublin-9/3998134
3997980,112914386,"10 Tourmakeady Road, Whitehall, Dublin 9",495000.0,80,80 m²,3,1,Semi-D,2022-08-10,E2,115376840,357.76 kWh/m2/yr,53.382138,-6.250271,Buy,ALL_HALLOWS_COLLEGE_DUBLIN,http://www.daft.ie/for-sale/semi-detached-house-10-tourmakeady-road-whitehall-dublin-9/3997980
3997804,112912130,"1A Glasnamana Place, Glasnevin, Dublin 11",450000.0,115,115 m²,3,2,Detached,2022-08-10,C1,109065938,163.48 kWh/m2/yr,53.382436,-6.280284,Buy,ALL_HALLOWS_COLLEGE_DUBLIN,http://www.daft.ie/for-sale/detached-house-1a-glasnamana-place-glasnevin-dublin-11/3997804
3997803,112912128,"29 Glenshesk Road, Whitehall, Dublin 9",375000.0,81,81 m²,2,2,End of Terrace,2022-08-10,D1,108624925,51.45 kWh/m2/yr,53.383272,-6.240394,Buy,ALL_HALLOWS_COLLEGE_DUBLIN,http://www.daft.ie/for-sale/end-of-terrace-house-29-glenshesk-road-whitehall-dublin-9/3997803
3997383,112907892,"8 Shantalla Park, Beaumont, Beaumont, Dublin 9",395000.0,103,103 m²,3,1,Terrace,2022-08-10,D2,,,53.387008,-6.235723,Buy,ALL_HALLOWS_COLLEGE_DUBLIN,http://www.daft.ie/for-sale/terraced-house-8-shantalla-park-beaumont-beaumont-dublin-9/3997383
3996877,112901587,"44 Merchants Road, East Wall, Dublin 3",195000.0,40,40 m²,2,1,Terrace,2022-08-10,G,115357360,487.41 kWh/m2/yr,53.352733,-6.228304,Buy,ALL_HALLOWS_COLLEGE_DUBLIN,http://www.daft.ie/for-sale/terraced-house-44-merchants-road-east-wall-dublin-3/3996877
3996871,112900969,"7 Fitzroy Avenue, Drumcondra, Dublin 3",450000.0,81,81 m²,2,1,Terrace,2022-08-10,D2,114895857,295.15 kWh/m2/yr,53.361677,-6.2539,Buy,ALL_HALLOWS_COLLEGE_DUBLIN,http://www.daft.ie/for-sale/terraced-house-7-fitzroy-avenue-drumcondra-dublin-3/3996871
3996843,112900927,"86 Heytesbury Street, Dublin 8",775000.0,117,117 m²,3,2,Terrace,2022-08-10,SI_666,,,53.335637,-6.268634,Buy,ALL_HALLOWS_COLLEGE_DUBLIN,http://www.daft.ie/for-sale/terraced-house-86-heytesbury-street-dublin-8/3996843
3996586,112899450,"31 Grove Park Drive, Glasnevin, Glasnevin, Dublin 11",449000.0,122,122 m²,4,3,Semi-D,2022-08-09,F,,,53.39238,-6.283334,Buy,ALL_HALLOWS_COLLEGE_DUBLIN,http://www.daft.ie/for-sale/semi-detached-house-31-grove-park-drive-glasnevin-glasnevin-dublin-11/3996586
3996395,112895954,"28 Saint Brigid's Avenue, North Strand, North Wall, Dublin 1",475000.0,N/A,,2,1,Terrace,2022-07-27,D2,,,53.358643,-6.239888,Buy,ALL_HALLOWS_COLLEGE_DUBLIN,http://www.daft.ie/for-sale/terraced-house-28-saint-brigids-avenue-north-strand-north-wall-dublin-1/3996395
3996349,112895930,"2 East Road, East Wall, Dublin 3",460000.0,100,100 m²,4,2,End of Terrace,2022-08-10,E2,,,53.354862,-6.229634,Buy,ALL_HALLOWS_COLLEGE_DUBLIN,http://www.daft.ie/for-sale/end-of-terrace-house-2-east-road-east-wall-dublin-3/3996349
3996230,112893653,"26 Kilbarron Drive, Kilmore West, D05KC66, Kilmore, Dublin 5",295000.0,72,72 m²,3,2,End of Terrace,2022-08-10,E1,108188796,302.19 kWh/m2/yr,53.39506,-6.223677,Buy,ALL_HALLOWS_COLLEGE_DUBLIN,http://www.daft.ie/for-sale/end-of-terrace-house-26-kilbarron-drive-kilmore-west-d05kc66-kilmore-dublin-5/3996230
3996238,112894837,"4 Orchard Terrace, Grangegorman, Dublin 7",475000.0,97,97 m²,1,1,Terrace,2022-08-08,E1,114648108,325.54 kWh/m2/yr,53.358111,-6.281502,Buy,ALL_HALLOWS_COLLEGE_DUBLIN,http://www.daft.ie/for-sale/terraced-house-4-orchard-terrace-grangegorman-dublin-7/3996238
3996065,112893471,"9 Ellenfield Road, Whitehall, Dublin 9",360000.0,134,134 m²,2,2,Semi-D,2022-08-10,C1,,,53.38492,-6.237291,Buy,ALL_HALLOWS_COLLEGE_DUBLIN,http://www.daft.ie/for-sale/semi-detached-house-9-ellenfield-road-whitehall-dublin-9/3996065
3995210,112885080,"57 Bargy Road, East Wall, Dublin 3",290000.0,67,67 m²,2,1,Terrace,2022-08-10,F,115357253,431.9 kWh/m2/yr,53.355741,-6.231522,Buy,ALL_HALLOWS_COLLEGE_DUBLIN,http://www.daft.ie/for-sale/terraced-house-57-bargy-road-east-wall-dublin-3/3995210
3994703,112877687,"72 Shanliss Avenue, Santry, Santry, Dublin 9",450000.0,N/A,,3,2,Semi-D,2022-08-10,F,,,53.394865,-6.252012,Buy,ALL_HALLOWS_COLLEGE_DUBLIN,http://www.daft.ie/for-sale/semi-detached-house-72-shanliss-avenue-santry-santry-dublin-9/3994703
3994590,112876465,"109 Ballyshannon Road, Kilmore, Dublin 5",325000.0,119,119 m²,3,1,Terrace,2022-08-10,E2,115369050,371.9 kWh/m2/yr,53.3933432,-6.2281639,Buy,ALL_HALLOWS_COLLEGE_DUBLIN,http://www.daft.ie/for-sale/terraced-house-109-ballyshannon-road-kilmore-dublin-5/3994590
3994587,112876464,"28 Lindsay Road, Glasnevin, Dublin 9",870000.0,148,148 m²,3,2,Semi-D,2022-08-10,G,115222762,1143.99 kWh/m2/yr,53.3653473,-6.2694088,Buy,ALL_HALLOWS_COLLEGE_DUBLIN,http://www.daft.ie/for-sale/semi-detached-house-28-lindsay-road-glasnevin-dublin-9/3994587
3994196,112872956,"Dun Roaming, 37 Santry Close, Santry, Dublin 9",550000.0,150,150 m²,4,2,Semi-D,2022-08-09,D2,,,53.399939,-6.241739,Buy,ALL_HALLOWS_COLLEGE_DUBLIN,http://www.daft.ie/for-sale/semi-detached-house-dun-roaming-37-santry-close-santry-dublin-9/3994196
3994040,112871600,"30 Glasnevin Avenue, Glasnevin, Dublin 11",535000.0,125,125 m²,3,2,Semi-D,2022-08-08,G,115231946,468.16 kWh/m2/yr,53.389826,-6.267173,Buy,ALL_HALLOWS_COLLEGE_DUBLIN,http://www.daft.ie/for-sale/semi-detached-house-30-glasnevin-avenue-glasnevin-dublin-11/3994040
3429659,15422831,"193 Elm Mount Avenue, Beaumont, Beaumont, Dublin 9",445000.0,92,92 m²,3,2,Semi-D,2022-08-09,E1,,,53.378607,-6.222188,Buy,ALL_HALLOWS_COLLEGE_DUBLIN,http://www.daft.ie/for-sale/semi-detached-house-193-elm-mount-avenue-beaumont-beaumont-dublin-9/3429659
3993477,112862542,"135 St Attracta Road, Cabra, Dublin 7",349000.0,66,66 m²,2,1,Terrace,2022-08-10,C3,114600034,202.2 kWh/m2/yr,53.366765,-6.284489,Buy,ALL_HALLOWS_COLLEGE_DUBLIN,http://www.daft.ie/for-sale/terraced-house-135-st-attracta-road-cabra-dublin-7/3993477
3978348,19611149,"51 Leix Road, Cabra, Cabra, Dublin 7",375000.0,78,78 m²,2,1,End of Terrace,2022-08-10,F,,,53.362094,-6.287243,Buy,ALL_HALLOWS_COLLEGE_DUBLIN,http://www.daft.ie/for-sale/end-of-terrace-house-51-leix-road-cabra-cabra-dublin-7/3978348
3991897,19746458,"3 The Thatch Road, Whitehall, Whitehall, Dublin 9",340000.0,80,80 m²,2,2,Terrace,2022-08-10,D2,,,53.382486,-6.24308,Buy,ALL_HALLOWS_COLLEGE_DUBLIN,http://www.daft.ie/for-sale/terraced-house-3-the-thatch-road-whitehall-whitehall-dublin-9/3991897
3991881,19746342,"154 East Wall Road, East Wall, Dublin 3",395000.0,90,90 m²,3,2,End of Terrace,2022-08-10,E2,,,53.35594,-6.231189,Buy,ALL_HALLOWS_COLLEGE_DUBLIN,http://www.daft.ie/for-sale/end-of-terrace-house-154-east-wall-road-east-wall-dublin-3/3991881
3991473,19741534,"13 Enniskerry Road, Phibsborough, Dublin 7",549000.0,110,110 m²,4,2,Terrace,2022-08-10,E2,115356172,342.98 kWh/m2/yr,53.363562,-6.271582,Buy,ALL_HALLOWS_COLLEGE_DUBLIN,http://www.daft.ie/for-sale/terraced-house-13-enniskerry-road-phibsborough-dublin-7/3991473
3991237,19736136,"125 Home Farm Road, Drumcondra, Dublin 9",795000.0,147,147 m²,4,2,Terrace,2022-08-10,E1,115356370,300.77 kWh/m2/yr,53.376043,-6.263348,Buy,ALL_HALLOWS_COLLEGE_DUBLIN,http://www.daft.ie/for-sale/terraced-house-125-home-farm-road-drumcondra-dublin-9/3991237
3991219,19735986,"45 Shanliss Avenue, Santry, Dublin 9",400000.0,80,80 m²,3,1,Semi-D,2022-08-10,E2,115359622,355.83 kWh/m2/yr,53.393254,-6.25139,Buy,ALL_HALLOWS_COLLEGE_DUBLIN,http://www.daft.ie/for-sale/semi-detached-house-45-shanliss-avenue-santry-dublin-9/3991219
3991215,19735955,"29 St Ignatius Road Phibsboro Dublin 7, North Circular Road, Dublin 7",395000.0,75,75 m²,2,1,Terrace,2022-08-10,E2,115225245,368.97 kWh/m2/yr,53.3618614,-6.2629211,Buy,ALL_HALLOWS_COLLEGE_DUBLIN,http://www.daft.ie/for-sale/terraced-house-29-st-ignatius-road-phibsboro-dublin-7-north-circular-road-dublin-7/3991215
3991099,19735553,"17 Dean Swift Green, Glasnevin, Glasnevin, Dublin 11",449950.0,N/A,,3,1,End of Terrace,2022-07-21,C2,,,53.385519,-6.26838,Buy,ALL_HALLOWS_COLLEGE_DUBLIN,http://www.daft.ie/for-sale/end-of-terrace-house-17-dean-swift-green-glasnevin-glasnevin-dublin-11/3991099
3991030,19735498,"21 Ossory Road, North Strand, East Wall, Dublin 3",299950.0,62,62 m²,3,1,Terrace,2022-07-21,E2,,,53.355686,-6.242363,Buy,ALL_HALLOWS_COLLEGE_DUBLIN,http://www.daft.ie/for-sale/terraced-house-21-ossory-road-north-strand-east-wall-dublin-3/3991030
3990473,19729389,"257 Swords Road, Santry, Dublin 9",495000.0,127,127 m²,4,4,Semi-D,2022-08-10,D1,,251.86 kWh/m2/yr,53.389014,-6.24627,Buy,ALL_HALLOWS_COLLEGE_DUBLIN,http://www.daft.ie/for-sale/semi-detached-house-257-swords-road-santry-dublin-9/3990473
3990265,19727554,"10 Montrose Crescent, Artane, Artane, Dublin 5",375000.0,97,97 m²,3,1,Semi-D,2022-08-09,E2,,,53.389026,-6.21927,Buy,ALL_HALLOWS_COLLEGE_DUBLIN,http://www.daft.ie/for-sale/semi-detached-house-10-montrose-crescent-artane-artane-dublin-5/3990265
3990199,19727519,"56 Santry Close, Santry, Santry, Dublin 9",460000.0,97,97 m²,3,2,Semi-D,2022-08-10,D2,105350795,282.33 kWh/m2/yr,53.401274,-6.239949,Buy,ALL_HALLOWS_COLLEGE_DUBLIN,http://www.daft.ie/for-sale/semi-detached-house-56-santry-close-santry-santry-dublin-9/3990199
3990174,19727508,"36 Blessington Street, Dublin 7",850000.0,N/A,,4,3,Terrace,2022-08-04,SI_666,,,53.357221,-6.2692,Buy,ALL_HALLOWS_COLLEGE_DUBLIN,http://www.daft.ie/for-sale/terraced-house-36-blessington-street-dublin-7/3990174
3990119,19725814,"145 Richmond Road, Drumcondra, Dublin 3",450000.0,103,103 m²,3,2,Terrace,2022-08-10,C2,,,53.366061,-6.248225,Buy,ALL_HALLOWS_COLLEGE_DUBLIN,http://www.daft.ie/for-sale/terraced-house-145-richmond-road-drumcondra-dublin-3/3990119
3989899,19723617,"19 Ossory Road, North Strand, East Wall, Dublin 3",299950.0,55,55 m²,2,1,Terrace,2022-07-21,E2,,,53.355764,-6.24245,Buy,ALL_HALLOWS_COLLEGE_DUBLIN,http://www.daft.ie/for-sale/terraced-house-19-ossory-road-north-strand-east-wall-dublin-3/3989899
3576612,16520085,"123 Home Farm Road, Drumcondra, Drumcondra, Dublin 3",795000.0,180,180 m²,4,3,End of Terrace,2022-07-20,E1,114462245,328.84 kWh/m2/yr,53.376008,-6.263244,Buy,ALL_HALLOWS_COLLEGE_DUBLIN,http://www.daft.ie/for-sale/end-of-terrace-house-123-home-farm-road-drumcondra-drumcondra-dublin-3/3576612
3989423,19718913,"44 Hastings Street, Ringsend, Ringsend, Dublin 4",450000.0,61,61 m²,2,1,Terrace,2022-08-10,D2,100754878,57.68 kWh/m2/yr,53.341421,-6.233221,Buy,ALL_HALLOWS_COLLEGE_DUBLIN,http://www.daft.ie/for-sale/terraced-house-44-hastings-street-ringsend-ringsend-dublin-4/3989423
3989318,19716543,"14 Shamrock Street, Broadstone, Phibsborough, Dublin 7",375000.0,N/A,,2,1,Terrace,2022-08-08,F,,,53.356247,-6.271506,Buy,ALL_HALLOWS_COLLEGE_DUBLIN,http://www.daft.ie/for-sale/terraced-house-14-shamrock-street-broadstone-phibsborough-dublin-7/3989318
3989221,19714958,"22 Oak Green, Royal Oak, Santry, Dublin 9",350000.0,82,82 m²,3,1,Semi-D,2022-08-10,C3,,,53.402167,-6.237798,Buy,ALL_HALLOWS_COLLEGE_DUBLIN,http://www.daft.ie/for-sale/semi-detached-house-22-oak-green-royal-oak-santry-dublin-9/3989221
3793613,18594156,"44 Leinster Avenue, North Strand, North Strand, Dublin 3",299000.0,49,49 m²,2,1,Terrace,2022-08-09,G,110602844,471.23 kWh/m2/yr,53.358798,-6.237875,Buy,ALL_HALLOWS_COLLEGE_DUBLIN,http://www.daft.ie/for-sale/terraced-house-44-leinster-avenue-north-strand-north-strand-dublin-3/3793613
3988609,19708570,"43 Willow Park Close, Glasnevin, Dublin 11",445000.0,90,90 m²,3,1,Semi-D,2022-08-10,C3,,,53.395712,-6.280189,Buy,ALL_HALLOWS_COLLEGE_DUBLIN,http://www.daft.ie/for-sale/semi-detached-house-43-willow-park-close-glasnevin-dublin-11/3988609
