id,daftShortcode,title,price,size_meters_squared,propertySize,bedrooms,bathrooms,propertyType,publishDate,ber_rating,ber_code,ber_epi,latitude,longitude,category,location,url_link
3959948,19471732,"33 Summerhill North, Co. Cork",345000.0,101,101 m²,4,2,Detached,2022-06-30,D1,,,51.90205,-8.463024,Buy,CORK_CITY_CENTRE_CORK,http://www.daft.ie/for-sale/detached-house-33-summerhill-north-co-cork/3959948
3959607,19468117,"10 O'Connell Street, Blackpool, Co. Cork",165000.0,46,46 m²,2,1,Terrace,2022-08-10,E1,,,51.90777,-8.475249,Buy,CORK_CITY_CENTRE_CORK,http://www.daft.ie/for-sale/terraced-house-10-oconnell-street-blackpool-co-cork/3959607
3949366,19414987,"24 Liam Lynch Park, Glasheen Road, Co. Cork",295000.0,79,79 m²,3,2,Terrace,2022-06-29,E1,115176372,79.42 kWh/m2/yr,51.884766,-8.505948,Buy,CORK_CITY_CENTRE_CORK,http://www.daft.ie/for-sale/terraced-house-24-liam-lynch-park-glasheen-road-co-cork/3949366
3958250,19452612,"Ardgur, 17 Mount Pleasant Avenue, Turners Cross, Co. Cork",340000.0,110,110 m²,3,1,Semi-D,2022-07-18,D2,,276.33 kWh/m2/yr,51.88857,-8.474161,Buy,CORK_CITY_CENTRE_CORK,http://www.daft.ie/for-sale/semi-detached-house-ardgur-17-mount-pleasant-avenue-turners-cross-co-cork/3958250
3947622,19399581,"10 Saint Patricks Terrace, Magazine Road, Glasheen, Co. Cork",375000.0,149,149 m²,7,2,Terrace,2022-08-10,D2,,,51.889581,-8.496084,Buy,CORK_CITY_CENTRE_CORK,http://www.daft.ie/for-sale/terraced-house-10-saint-patricks-terrace-magazine-road-glasheen-co-cork/3947622
3955836,19429137,"20 Drumcora Mews, Blackrock, Co. Cork",365000.0,89,89 m²,3,2,Terrace,2022-06-28,D2,115162513,281.43 kWh/m2/yr,51.896805,-8.423415,Buy,CORK_CITY_CENTRE_CORK,http://www.daft.ie/for-sale/terraced-house-20-drumcora-mews-blackrock-co-cork/3955836
3949517,19416236,"Dunamaise, 12 Beaumont Lawn, Ballintemple, Co. Cork",425000.0,98,98 m²,3,1,Semi-D,2022-08-10,G,,,51.890504,-8.426598,Buy,CORK_CITY_CENTRE_CORK,http://www.daft.ie/for-sale/semi-detached-house-dunamaise-12-beaumont-lawn-ballintemple-co-cork/3949517
3949302,19413347,"17 Gillabbey Park, Donovan Road, Co. Cork",245000.0,77,77 m²,2,1,Terrace,2022-07-07,F,,,51.894849,-8.48597,Buy,CORK_CITY_CENTRE_CORK,http://www.daft.ie/for-sale/terraced-house-17-gillabbey-park-donovan-road-co-cork/3949302
3949252,19413317,"53 Skehard Road, Blackrock, Blackrock, Co. Cork",415000.0,107,107 m²,3,1,Semi-D,2022-06-27,E2,114857410,370.26 kWh/m2/yr,51.887546,-8.42379,Buy,CORK_CITY_CENTRE_CORK,http://www.daft.ie/for-sale/semi-detached-house-53-skehard-road-blackrock-blackrock-co-cork/3949252
3949051,19411312,"Cruac Paoraic, 55 Beechwood Park, Ballinlough, Co. Cork",415000.0,N/A,,3,2,Semi-D,2022-06-27,F,,,51.887006,-8.445665,Buy,CORK_CITY_CENTRE_CORK,http://www.daft.ie/for-sale/semi-detached-house-cruac-paoraic-55-beechwood-park-ballinlough-co-cork/3949051
3948966,19410299,"1 Drews Terrace, Evergreen Street, Co. Cork",245000.0,55,55 m²,3,1,End of Terrace,2022-07-12,G,105582696,518.83 kWh/m2/yr,51.892412,-8.472295,Buy,CORK_CITY_CENTRE_CORK,http://www.daft.ie/for-sale/end-of-terrace-house-1-drews-terrace-evergreen-street-co-cork/3948966
3948922,19410274,"29 Tara Lawn, Glasheen, Co. Cork",325000.0,114,114 m²,3,2,Semi-D,2022-06-27,F,115177149,432.05 kWh/m2/yr,51.885738,-8.496316,Buy,CORK_CITY_CENTRE_CORK,http://www.daft.ie/for-sale/semi-detached-house-29-tara-lawn-glasheen-co-cork/3948922
3925455,19179347,"Lisheen 13 Deerpark Mews, Turners Cross, Cork City, Co. Cork",340000.0,88,88 m²,3,1,Terrace,2022-06-29,C1,109812222,168.99 kWh/m2/yr,51.88982,-8.470347,Buy,CORK_CITY_CENTRE_CORK,http://www.daft.ie/for-sale/terraced-house-lisheen-13-deerpark-mews-turners-cross-cork-city-co-cork/3925455
3945652,19378960,"176 Lower Glanmire Road, Glanmire, Co. Cork","AMV: €130,000",N/A,,3,1,Terrace,2022-08-10,F,111432936,390.48 kWh/m2/yr,51.902964,-8.446703,Buy,CORK_CITY_CENTRE_CORK,http://www.daft.ie/for-sale/terraced-house-176-lower-glanmire-road-glanmire-co-cork/3945652
3945167,19373488,"26 Gould Street, Co. Cork",215000.0,58,58 m²,4,2,End of Terrace,2022-06-23,G,107281081,634.7 kWh/m2/yr,51.890453,-8.483522,Buy,CORK_CITY_CENTRE_CORK,http://www.daft.ie/for-sale/end-of-terrace-house-26-gould-street-co-cork/3945167
3944615,19371320,"Wyldwood, St Francis Avenue, Co. Cork",895000.0,232,232 m²,4,3,Detached,2022-08-03,D2,115155996,277.67 kWh/m2/yr,51.8892179,-8.499836,Buy,CORK_CITY_CENTRE_CORK,http://www.daft.ie/for-sale/detached-house-wyldwood-st-francis-avenue-co-cork/3944615
3943953,19363412,"The Grange, 16 Glencoo Gardens, Ballinlough, Co. Cork",395000.0,100,100 m²,3,2,Semi-D,2022-06-23,E2,114688096,363.25 kWh/m2/yr,51.889774,-8.443114,Buy,CORK_CITY_CENTRE_CORK,http://www.daft.ie/for-sale/semi-detached-house-the-grange-16-glencoo-gardens-ballinlough-co-cork/3943953
3943595,19359174,"Garnavilla, Menloe Gardens, Blackrock, Co. Cork",675000.0,141,141 m²,4,3,Semi-D,2022-08-10,F,,,51.894716,-8.424303,Buy,CORK_CITY_CENTRE_CORK,http://www.daft.ie/for-sale/semi-detached-house-garnavilla-menloe-gardens-blackrock-co-cork/3943595
3940966,19333270,"Celtic, 13 Ardfallen Estate, Douglas, Co. Cork",550000.0,153,153 m²,3,3,Semi-D,2022-08-08,D1,115025942,241.49 kWh/m2/yr,51.885193,-8.445752,Buy,CORK_CITY_CENTRE_CORK,http://www.daft.ie/for-sale/semi-detached-house-celtic-13-ardfallen-estate-douglas-co-cork/3940966
3940591,19330408,"84 Evergreen Street, Co. Cork",285000.0,N/A,,3,1,End of Terrace,2022-07-07,E1,113510986,,51.892225,-8.47211,Buy,CORK_CITY_CENTRE_CORK,http://www.daft.ie/for-sale/end-of-terrace-house-84-evergreen-street-co-cork/3940591
3940376,19325859,"22 Gerald Griffin Street, Blackpool, Co. Cork",400000.0,N/A,,4,3,End of Terrace,2022-08-02,C3,,,51.906529,-8.476386,Buy,CORK_CITY_CENTRE_CORK,http://www.daft.ie/for-sale/end-of-terrace-house-22-gerald-griffin-street-blackpool-co-cork/3940376
3940091,19323223,"30 Prosperity Square, Barrack Street, Co. Cork",125000.0,55,55 m²,2,1,Terrace,2022-07-28,SI_666,,,51.8940279,-8.4772884,Buy,CORK_CITY_CENTRE_CORK,http://www.daft.ie/for-sale/terraced-house-30-prosperity-square-barrack-street-co-cork/3940091
3938948,19313855,"29 Greenhills Estate, South Douglas Road, Douglas, Co. Cork",325000.0,100,100 m²,3,2,Semi-D,2022-06-22,E2,115051815,,51.88157,-8.455925,Buy,CORK_CITY_CENTRE_CORK,http://www.daft.ie/for-sale/semi-detached-house-29-greenhills-estate-south-douglas-road-douglas-co-cork/3938948
3938497,19309917,"Villa Francisca, 50 Ballyhooly Road, St. Lukes, Co. Cork",275000.0,105,105 m²,4,3,Terrace,2022-08-10,F,104917273,397.47 kWh/m2/yr,51.908002,-8.455769,Buy,CORK_CITY_CENTRE_CORK,http://www.daft.ie/for-sale/terraced-house-villa-francisca-50-ballyhooly-road-st-lukes-co-cork/3938497
3938471,19309903,"Modeligo, Blackrock Road, Blackrock, Co. Cork",1800000.0,334,334 m²,5,6,Detached,2022-08-02,A2,,,51.895927,-8.425305,Buy,CORK_CITY_CENTRE_CORK,http://www.daft.ie/for-sale/detached-house-modeligo-blackrock-road-blackrock-co-cork/3938471
3938047,19305577,"Sleepy Hollow, Barrington's Avenue, Blackrock, Co. Cork",925000.0,259,259 m²,3,2,Detached,2022-08-02,D1,112856463,,51.897172,-8.426473,Buy,CORK_CITY_CENTRE_CORK,http://www.daft.ie/for-sale/detached-house-sleepy-hollow-barringtons-avenue-blackrock-co-cork/3938047
3937646,19302473,"4 Saint Joseph's Terrace, Ballyhooly Road, St. Lukes, Co. Cork",255000.0,65,65 m²,3,1,Townhouse,2022-07-12,D1,102686037,,51.907073,-8.456958,Buy,CORK_CITY_CENTRE_CORK,http://www.daft.ie/for-sale/townhouse-4-saint-josephs-terrace-ballyhooly-road-st-lukes-co-cork/3937646
3936146,19285811,"2 Tower Street, Co. Cork",225000.0,48,48 m²,2,1,Terrace,2022-06-16,E2,103360335,367.83 kWh/m2/yr,51.891783,-8.471971,Buy,CORK_CITY_CENTRE_CORK,http://www.daft.ie/for-sale/terraced-house-2-tower-street-co-cork/3936146
3936014,19284236,"8 Vicar Street, Co. Cork",Price on Application,126,126 m²,6,2,Terrace,2022-07-13,E2,,,51.893619,-8.479024,Buy,CORK_CITY_CENTRE_CORK,http://www.daft.ie/for-sale/terraced-house-8-vicar-street-co-cork/3936014
3935333,19278083,"Monserrat, 3 Cahergal Avenue, Ballyvolane, Co. Cork",295000.0,N/A,,3,2,Semi-D,2022-07-01,D2,115055410,296.89 kWh/m2/yr,51.91145,-8.448654,Buy,CORK_CITY_CENTRE_CORK,http://www.daft.ie/for-sale/semi-detached-house-monserrat-3-cahergal-avenue-ballyvolane-co-cork/3935333
3935114,19276631,"53 Lower Pouladuff Road, Pouladuff, Co. Cork",259000.0,53,53 m²,2,1,End of Terrace,2022-08-03,G,112580428,,51.877595,-8.484376,Buy,CORK_CITY_CENTRE_CORK,http://www.daft.ie/for-sale/end-of-terrace-house-53-lower-pouladuff-road-pouladuff-co-cork/3935114
3934400,19270519,"4 Maria Villas, 98 Street, Co. Cork",280000.0,89,89 m²,5,3,Terrace,2022-06-21,D2,103281267,289.82 kWh/m2/yr,51.893373,-8.482946,Buy,CORK_CITY_CENTRE_CORK,http://www.daft.ie/for-sale/terraced-house-4-maria-villas-98-street-co-cork/3934400
3927669,19204364,"84 Great William O'Brien Street, Blackpool, Co. Cork",195000.0,N/A,,2,2,Townhouse,2022-06-14,E2,,,51.910579,-8.474608,Buy,CORK_CITY_CENTRE_CORK,http://www.daft.ie/for-sale/townhouse-84-great-william-obrien-street-blackpool-co-cork/3927669
3932698,19251026,"Inglewood, 31 Capwell Avenue, Co. Cork",290000.0,73,73 m²,3,2,Semi-D,2022-08-02,D1,111967519,,51.887878,-8.464166,Buy,CORK_CITY_CENTRE_CORK,http://www.daft.ie/for-sale/semi-detached-house-inglewood-31-capwell-avenue-co-cork/3932698
3932077,19246144,"Skellig, 144 Old Youghal Road, Co. Cork",185000.0,52,52 m²,2,1,Terrace,2022-06-13,E1,113630495,,51.907639,-8.458641,Buy,CORK_CITY_CENTRE_CORK,http://www.daft.ie/for-sale/terraced-house-skellig-144-old-youghal-road-co-cork/3932077
3927812,19205708,"33 Wycherley Place, College Road, Co. Cork",255000.0,54,54 m²,3,1,Terrace,2022-07-12,E2,103151569,,51.891336,-8.488099,Buy,CORK_CITY_CENTRE_CORK,http://www.daft.ie/for-sale/terraced-house-33-wycherley-place-college-road-co-cork/3927812
3813143,18754833,"1 Innisfail, Magazine Road, Co. Cork",310000.0,105,105 m²,5,3,Semi-D,2022-08-05,E1,110618659,327.67 kWh/m2/yr,51.889921,-8.493606,Buy,CORK_CITY_CENTRE_CORK,http://www.daft.ie/for-sale/semi-detached-house-1-innisfail-magazine-road-co-cork/3813143
3928801,19217564,"22 The Avenue, Ard Patrick, Co. Cork",275000.0,110,110 m²,3,3,End of Terrace,2022-06-13,B3,,,51.909025,-8.470855,Buy,CORK_CITY_CENTRE_CORK,http://www.daft.ie/for-sale/end-of-terrace-house-22-the-avenue-ard-patrick-co-cork/3928801
3928647,19215209,"43 McCurtains Villas, College Road, Co. Cork",295000.0,79,79 m²,3,2,End of Terrace,2022-08-02,G,114825532,,51.89178,-8.488434,Buy,CORK_CITY_CENTRE_CORK,http://www.daft.ie/for-sale/end-of-terrace-house-43-mccurtains-villas-college-road-co-cork/3928647
3928253,19210849,"1 Connolly Place, Ballyphehane, Ballyphehane, Co. Cork",195000.0,72,72 m²,3,1,End of Terrace,2022-07-15,G,115035099,1283.85 kWh/m2/yr,51.880069,-8.476226,Buy,CORK_CITY_CENTRE_CORK,http://www.daft.ie/for-sale/end-of-terrace-house-1-connolly-place-ballyphehane-ballyphehane-co-cork/3928253
3927913,19205784,"Crownend, Middle Glanmire Road, Montenotte, Co. Cork",580000.0,203,203 m²,4,2,Semi-D,2022-08-03,D1,113288286,259.05 kWh/m2/yr,51.904994,-8.447398,Buy,CORK_CITY_CENTRE_CORK,http://www.daft.ie/for-sale/semi-detached-house-crownend-middle-glanmire-road-montenotte-co-cork/3927913
3927387,19201970,"Monea, 18 Glendale Grove, Glasheen, Co. Cork",395000.0,153,153 m²,4,2,Semi-D,2022-06-22,D2,,,51.884558,-8.49645,Buy,CORK_CITY_CENTRE_CORK,http://www.daft.ie/for-sale/semi-detached-house-monea-18-glendale-grove-glasheen-co-cork/3927387
3927031,19198896,"4 Clifton Villas, Middle Glanmire Road, Montenotte, Co. Cork",375000.0,215,215 m²,6,3,End of Terrace,2022-06-17,D1,103369252,251.72 kWh/m2/yr,51.904864,-8.446504,Buy,CORK_CITY_CENTRE_CORK,http://www.daft.ie/for-sale/end-of-terrace-house-4-clifton-villas-middle-glanmire-road-montenotte-co-cork/3927031
3926095,19189950,"78 Capwell Road, Turners Cross, Co. Cork",275000.0,78,78 m²,3,1,End of Terrace,2022-08-08,G,115025249,508.51 kWh/m2/yr,51.887844,-8.464772,Buy,CORK_CITY_CENTRE_CORK,http://www.daft.ie/for-sale/end-of-terrace-house-78-capwell-road-turners-cross-co-cork/3926095
3924364,19171198,"Saint Brendans, School Avenue, Glasheen, Co. Cork",360000.0,N/A,,5,2,Detached,2022-08-05,SI_666,,,51.886973,-8.49985,Buy,CORK_CITY_CENTRE_CORK,http://www.daft.ie/for-sale/detached-house-saint-brendans-school-avenue-glasheen-co-cork/3924364
3923553,19162073,"138 Silversprings Lawn, Tivoli, Silversprings, Co. Cork",275000.0,102,102 m²,3,1,Semi-D,2022-08-10,C3,115172215,219.32 kWh/m2/yr,51.909735,-8.42477,Buy,CORK_CITY_CENTRE_CORK,http://www.daft.ie/for-sale/semi-detached-house-138-silversprings-lawn-tivoli-silversprings-co-cork/3923553
3921485,19149211,"1A McCurtains Villas, College Road, Co. Cork",265000.0,61,61 m²,2,1,Semi-D,2022-06-13,E1,103366118,,51.892957,-8.485694,Buy,CORK_CITY_CENTRE_CORK,http://www.daft.ie/for-sale/semi-detached-house-1a-mccurtains-villas-college-road-co-cork/3921485
3919818,19135575,"17 Great William O'Brien Street, Blackpool, Blackpool, Co. Cork",220000.0,N/A,,3,1,Townhouse,2022-06-03,E1,108731423,,51.909797,-8.474718,Buy,CORK_CITY_CENTRE_CORK,http://www.daft.ie/for-sale/townhouse-17-great-william-obrien-street-blackpool-blackpool-co-cork/3919818
3919980,19136959,"41 Congress Road, Turners Cross, Turners Cross, Co. Cork",225000.0,70,70 m²,2,1,Terrace,2022-07-05,D1,,,51.887612,-8.471066,Buy,CORK_CITY_CENTRE_CORK,http://www.daft.ie/for-sale/terraced-house-41-congress-road-turners-cross-turners-cross-co-cork/3919980
3917074,19107129,"Grenville, Blackrock Road, Blackrock, Co. Cork",600000.0,162,162 m²,3,2,Detached,2022-08-08,D1,115005100,229.3 kWh/m2/yr,51.895292,-8.423414,Buy,CORK_CITY_CENTRE_CORK,http://www.daft.ie/for-sale/detached-house-grenville-blackrock-road-blackrock-co-cork/3917074
3989350,19716561,"16 Rockcliffe Village, Blackrock, Blackrock, Co. Cork",365000.0,N/A,,2,2,Terrace,2022-07-20,B3,,,51.897361,-8.424804,Buy,CORK_CITY_CENTRE_CORK,http://www.daft.ie/for-sale/terraced-house-16-rockcliffe-village-blackrock-blackrock-co-cork/3989350
3988643,19708593,"Caher House, 2 Dundanion Road, Blackrock, Co. Cork",385000.0,122,122 m²,4,2,Detached,2022-07-25,F,115334138,,51.892975,-8.428016,Buy,CORK_CITY_CENTRE_CORK,http://www.daft.ie/for-sale/detached-house-caher-house-2-dundanion-road-blackrock-co-cork/3988643
3989234,19714963,"15 Bandon Road, Co. Cork",275000.0,100,100 m²,5,2,Terrace,2022-07-20,D1,115357543,246.93 kWh/m2/yr,51.892368,-8.482268,Buy,CORK_CITY_CENTRE_CORK,http://www.daft.ie/for-sale/terraced-house-15-bandon-road-co-cork/3989234
3987854,19700272,"3 Gillabbey Park, O'Donovan Rossa Road, Co. Cork",325000.0,N/A,,3,1,Terrace,2022-08-03,C3,,,51.894742,-8.487285,Buy,CORK_CITY_CENTRE_CORK,http://www.daft.ie/for-sale/terraced-house-3-gillabbey-park-odonovan-rossa-road-co-cork/3987854
3986101,19685629,"40 College Road, Co. Cork",320000.0,95,95 m²,4,2,End of Terrace,2022-08-03,F,,,51.892778,-8.488227,Buy,CORK_CITY_CENTRE_CORK,http://www.daft.ie/for-sale/end-of-terrace-house-40-college-road-co-cork/3986101
3987456,19695822,"Monteco, 9 Upper Beaumont Drive, Blackrock, Co. Cork",575000.0,142,142 m²,4,2,Semi-D,2022-08-10,D2,115386054,,51.891489,-8.427791,Buy,CORK_CITY_CENTRE_CORK,http://www.daft.ie/for-sale/semi-detached-house-monteco-9-upper-beaumont-drive-blackrock-co-cork/3987456
3972984,19582619,"43 Southern Road, Co. Cork",230000.0,110,110 m²,5,3,Terrace,2022-07-19,G,115347619,459.68 kWh/m2/yr,51.892452,-8.465664,Buy,CORK_CITY_CENTRE_CORK,http://www.daft.ie/for-sale/terraced-house-43-southern-road-co-cork/3972984
3986684,19688653,"Grove Vale, Iona Road, Mayfield, Co. Cork",360000.0,87,87 m²,3,1,Detached,2022-07-19,E1,115339434,332.53 kWh/m2/yr,51.909444,-8.437201,Buy,CORK_CITY_CENTRE_CORK,http://www.daft.ie/for-sale/detached-house-grove-vale-iona-road-mayfield-co-cork/3986684
3975416,19595684,"Hayfield House, Glasheen Road, Glasheen, Co. Cork",890000.0,297,297 m²,5,5,Detached,2022-07-18,B2,,,51.888119,-8.494898,Buy,CORK_CITY_CENTRE_CORK,http://www.daft.ie/for-sale/detached-house-hayfield-house-glasheen-road-glasheen-co-cork/3975416
3984989,19673248,"1 The Lough, The Lough, Co. Cork",295000.0,101,101 m²,4,2,Terrace,2022-07-19,G,114635642,486.84 kWh/m2/yr,51.888839,-8.4845,Buy,CORK_CITY_CENTRE_CORK,http://www.daft.ie/for-sale/terraced-house-1-the-lough-the-lough-co-cork/3984989
3983399,19655607,"1 Connolly Place, Ballyphehane, Ballyphehane, Co. Cork",195000.0,72,72 m²,3,1,End of Terrace,2022-08-10,G,115035099,1283.85 kWh/m2/yr,51.880069,-8.476226,Buy,CORK_CITY_CENTRE_CORK,http://www.daft.ie/for-sale/end-of-terrace-house-1-connolly-place-ballyphehane-ballyphehane-co-cork/3983399
3983463,19657828,"2 City View Terrace, Winter's Hill, Sunday's Well, Co. Cork",210000.0,46,46 m²,2,2,Terrace,2022-08-10,C1,,,51.901401,-8.484609,Buy,CORK_CITY_CENTRE_CORK,http://www.daft.ie/for-sale/terraced-house-2-city-view-terrace-winters-hill-sundays-well-co-cork/3983463
3983134,19652053,"Knocknagow, Douglas Road, Douglas, Co. Cork",625000.0,145,145 m²,4,2,Semi-D,2022-08-09,F,,,51.882356,-8.444855,Buy,CORK_CITY_CENTRE_CORK,http://www.daft.ie/for-sale/semi-detached-house-knocknagow-douglas-road-douglas-co-cork/3983134
3982872,19648941,"43 Oakpark, Ballyhooly Road, Co. Cork",295000.0,80,80 m²,3,1,Semi-D,2022-07-15,D2,101715860,262.68 kWh/m2/yr,51.912747,-8.447222,Buy,CORK_CITY_CENTRE_CORK,http://www.daft.ie/for-sale/semi-detached-house-43-oakpark-ballyhooly-road-co-cork/3982872
3982086,19639201,"24 Ashburton Row, Gardiners Hill, Co. Cork",140000.0,42,42 m²,2,1,Terrace,2022-08-10,E2,,,51.908727,-8.451259,Buy,CORK_CITY_CENTRE_CORK,http://www.daft.ie/for-sale/terraced-house-24-ashburton-row-gardiners-hill-co-cork/3982086
3981206,19628411,"31 Botanic Road, Ballyphehane, Ballyphehane, Co. Cork",250000.0,75,75 m²,3,1,Terrace,2022-08-10,D2,105429336,,51.882473,-8.471489,Buy,CORK_CITY_CENTRE_CORK,http://www.daft.ie/for-sale/terraced-house-31-botanic-road-ballyphehane-ballyphehane-co-cork/3981206
3981571,19632069,"Casa-Mia, 24 Clareville Estate, Pouladuff, Co. Cork",340000.0,104,104 m²,3,1,Semi-D,2022-08-08,D2,105028138,292.97 kWh/m2/yr,51.886099,-8.481209,Buy,CORK_CITY_CENTRE_CORK,http://www.daft.ie/for-sale/semi-detached-house-casa-mia-24-clareville-estate-pouladuff-co-cork/3981571
3981371,19630256,"20 Goldsmith's Avenue, Richmond Hill, Co. Cork",195000.0,52,52 m²,2,1,Townhouse,2022-08-03,G,115334245,,51.905393,-8.471499,Buy,CORK_CITY_CENTRE_CORK,http://www.daft.ie/for-sale/townhouse-20-goldsmiths-avenue-richmond-hill-co-cork/3981371
3979973,19624310,"15 ArdPatrick Close, Ladyswell, Co. Cork",305000.0,121,121 m²,4,3,Semi-D,2022-08-10,C1,,,51.909436,-8.470034,Buy,CORK_CITY_CENTRE_CORK,http://www.daft.ie/for-sale/semi-detached-house-15-ardpatrick-close-ladyswell-co-cork/3979973
3770829,18385824,"2 Audley Place, Patricks Hill, Co. Cork",595000.0,178,178 m²,4,2,Terrace,2022-08-10,SI_666,,,51.905296,-8.469861,Buy,CORK_CITY_CENTRE_CORK,http://www.daft.ie/for-sale/terraced-house-2-audley-place-patricks-hill-co-cork/3770829
3979539,19620840,"3 Gardiner's Hill Avenue, Saint Lukes, St. Lukes, Co. Cork",210000.0,72,72 m²,3,1,Townhouse,2022-07-15,D1,,,51.908265,-8.453448,Buy,CORK_CITY_CENTRE_CORK,http://www.daft.ie/for-sale/townhouse-3-gardiners-hill-avenue-saint-lukes-st-lukes-co-cork/3979539
3976978,19603452,"233 Pearse Road, Ballyphehane, The Lough, Co. Cork",395000.0,N/A,,4,2,Terrace,2022-07-12,D2,,,51.885536,-8.485929,Buy,CORK_CITY_CENTRE_CORK,http://www.daft.ie/for-sale/terraced-house-233-pearse-road-ballyphehane-the-lough-co-cork/3976978
3975797,19599620,"41 Wilton Court, Wilton, Co. Cork",330000.0,113,113 m²,5,3,Semi-D,2022-08-09,C3,114655285,,51.879805,-8.50479,Buy,CORK_CITY_CENTRE_CORK,http://www.daft.ie/for-sale/semi-detached-house-41-wilton-court-wilton-co-cork/3975797
3966951,19529967,"Gibraltar, 17 Bellair Estate, Douglas, Co. Cork",585000.0,138,138 m²,4,1,Detached,2022-07-18,E1,,,51.889372,-8.457208,Buy,CORK_CITY_CENTRE_CORK,http://www.daft.ie/for-sale/detached-house-gibraltar-17-bellair-estate-douglas-co-cork/3966951
3975131,19594068,"42 Silverdale Road, Ballinlough, Co. Cork",340000.0,105,105 m²,3,2,Semi-D,2022-08-10,E1,102464286,301.09 kWh/m2/yr,51.887068,-8.429279,Buy,CORK_CITY_CENTRE_CORK,http://www.daft.ie/for-sale/semi-detached-house-42-silverdale-road-ballinlough-co-cork/3975131
3972979,19582617,"Issodoun, 8 Woolhara Park, Douglas, Co. Cork",750000.0,251,251 m²,5,3,Detached,2022-07-21,D2,115358608,296.39 kWh/m2/yr,51.886619,-8.450971,Buy,CORK_CITY_CENTRE_CORK,http://www.daft.ie/for-sale/detached-house-issodoun-8-woolhara-park-douglas-co-cork/3972979
3972902,19582567,"40 Congress Road, Turners Cross, Turners Cross, Co. Cork",345000.0,85,85 m²,3,2,Detached,2022-08-09,D2,115018392,56.05 kWh/m2/yr,51.887119,-8.471737,Buy,CORK_CITY_CENTRE_CORK,http://www.daft.ie/for-sale/detached-house-40-congress-road-turners-cross-turners-cross-co-cork/3972902
3972802,19580575,"1 Little William Street, Off MacCurtain Street, Cork City, Co. Cork",275000.0,140,140 m²,6,4,Terrace,2022-07-11,D2,,,51.901702,-8.466177,Buy,CORK_CITY_CENTRE_CORK,http://www.daft.ie/for-sale/terraced-house-1-little-william-street-off-maccurtain-street-cork-city-co-cork/3972802
3972671,19578519,"17 South View, Ballinlough Road, Co. Cork",150000.0,88,88 m²,2,1,Terrace,2022-07-26,G,115368243,706.32 kWh/m2/yr,51.890119,-8.459244,Buy,CORK_CITY_CENTRE_CORK,http://www.daft.ie/for-sale/terraced-house-17-south-view-ballinlough-road-co-cork/3972671
3971527,19569801,"60 Mount Farran, Assumption Road, Blackpool, Co. Cork",219000.0,68,68 m²,3,1,Semi-D,2022-08-03,D1,115218588,,51.911278,-8.468931,Buy,CORK_CITY_CENTRE_CORK,http://www.daft.ie/for-sale/semi-detached-house-60-mount-farran-assumption-road-blackpool-co-cork/3971527
3971191,19567938,"8 Linden Avenue, Beaumont, Blackrock, Co. Cork",435000.0,124,124 m²,3,2,Semi-D,2022-08-10,G,115155426,528.19 kWh/m2/yr,51.890517,-8.42508,Buy,CORK_CITY_CENTRE_CORK,http://www.daft.ie/for-sale/semi-detached-house-8-linden-avenue-beaumont-blackrock-co-cork/3971191
3971020,19567061,"35 Heatherton Park, South Douglas Road, Ballinlough, Co. Cork",319000.0,89,89 m²,3,2,Semi-D,2022-07-28,C3,115012668,,51.882424,-8.456531,Buy,CORK_CITY_CENTRE_CORK,http://www.daft.ie/for-sale/semi-detached-house-35-heatherton-park-south-douglas-road-ballinlough-co-cork/3971020
3970503,19561207,"45 Saint Anne's Park, Turners Cross, Turners Cross, Co. Cork",195000.0,66,66 m²,2,1,End of Terrace,2022-07-29,G,115204737,171.01 kWh/m2/yr,51.885263,-8.469848,Buy,CORK_CITY_CENTRE_CORK,http://www.daft.ie/for-sale/end-of-terrace-house-45-saint-annes-park-turners-cross-turners-cross-co-cork/3970503
3969913,19556212,"12 Cove Street, Co. Cork",380000.0,121,121 m²,4,2,End of Terrace,2022-08-02,C1,113522015,,51.894798,-8.474265,Buy,CORK_CITY_CENTRE_CORK,http://www.daft.ie/for-sale/end-of-terrace-house-12-cove-street-co-cork/3969913
3969063,19549210,"Roncalli, 68 Clashduv Estate, Glasheen, Co. Cork",420000.0,130,130 m²,3,2,Semi-D,2022-08-10,D1,112896683,241.26 kWh/m2/yr,51.882849,-8.497007,Buy,CORK_CITY_CENTRE_CORK,http://www.daft.ie/for-sale/semi-detached-house-roncalli-68-clashduv-estate-glasheen-co-cork/3969063
3968169,19542912,"11 Ashburton Row, Gardiners Hill, St. Lukes, Co. Cork",195000.0,78,78 m²,3,2,Townhouse,2022-07-13,F,115222457,,51.90922,-8.450652,Buy,CORK_CITY_CENTRE_CORK,http://www.daft.ie/for-sale/townhouse-11-ashburton-row-gardiners-hill-st-lukes-co-cork/3968169
3967715,19537789,"46 Lough Road, The Lough, Co. Cork",225000.0,90,90 m²,4,2,Terrace,2022-07-29,C3,111174926,37.23 kWh/m2/yr,51.891122,-8.484463,Buy,CORK_CITY_CENTRE_CORK,http://www.daft.ie/for-sale/terraced-house-46-lough-road-the-lough-co-cork/3967715
3967079,19530898,"1A Saint Dominick's Terrace, Crosse's Green, Co. Cork",229000.0,80,80 m²,2,1,Terrace,2022-07-08,E2,,,51.895298,-8.478091,Buy,CORK_CITY_CENTRE_CORK,http://www.daft.ie/for-sale/terraced-house-1a-saint-dominicks-terrace-crosses-green-co-cork/3967079
3966478,19527231,"Saint John's, 5 Croaghta Park, Glasheen, Co. Cork",275000.0,122,122 m²,3,1,Semi-D,2022-07-07,E2,103071627,364.33 kWh/m2/yr,51.887216,-8.494018,Buy,CORK_CITY_CENTRE_CORK,http://www.daft.ie/for-sale/semi-detached-house-saint-johns-5-croaghta-park-glasheen-co-cork/3966478
3966293,19524893,"58 Summerstown Drive, Wilton, Glasheen, Co. Cork",335000.0,108,108 m²,3,2,Semi-D,2022-08-10,D2,115226615,290.41 kWh/m2/yr,51.879713,-8.503677,Buy,CORK_CITY_CENTRE_CORK,http://www.daft.ie/for-sale/semi-detached-house-58-summerstown-drive-wilton-glasheen-co-cork/3966293
3966111,19523479,"6 Richmond Estate, Blackrock Road, Blackrock, Co. Cork",430000.0,161,161 m²,4,2,Semi-D,2022-08-10,D2,115209413,298.86 kWh/m2/yr,51.893294,-8.444969,Buy,CORK_CITY_CENTRE_CORK,http://www.daft.ie/for-sale/semi-detached-house-6-richmond-estate-blackrock-road-blackrock-co-cork/3966111
3964525,19511453,"17 Mary Street, Co. Cork",335000.0,88,88 m²,4,2,Terrace,2022-07-26,C1,,,51.894324,-8.472785,Buy,CORK_CITY_CENTRE_CORK,http://www.daft.ie/for-sale/terraced-house-17-mary-street-co-cork/3964525
3964454,19511247,"2 Westbourne Terrace, The Lough, The Lough, Co. Cork",370000.0,123,123 m²,3,1,Terrace,2022-07-05,F,112792353,436.77 kWh/m2/yr,51.887771,-8.484803,Buy,CORK_CITY_CENTRE_CORK,http://www.daft.ie/for-sale/terraced-house-2-westbourne-terrace-the-lough-the-lough-co-cork/3964454
3961189,19482438,"30 Nicholas Street, Douglas Street, Co. Cork",400000.0,160,160 m²,3,3,Terrace,2022-07-05,G,115033219,,51.8928585,-8.4722273,Buy,CORK_CITY_CENTRE_CORK,http://www.daft.ie/for-sale/terraced-house-30-nicholas-street-douglas-street-co-cork/3961189
3963657,19503971,"2 Clifton Villas, Middle Glanmire Road, Montenotte, Cork City, Co. Cork",395000.0,263,263 m²,5,4,Terrace,2022-07-04,E2,,,51.904856,-8.446311,Buy,CORK_CITY_CENTRE_CORK,http://www.daft.ie/for-sale/terraced-house-2-clifton-villas-middle-glanmire-road-montenotte-cork-city-co-cork/3963657
3962222,19495429,"4 Greenbanks, Well Road, Douglas, Co. Cork",1200000.0,248,248 m²,4,4,Detached,2022-08-09,A2,111278982,48.88 kWh/m2/yr,51.883792,-8.435959,Buy,CORK_CITY_CENTRE_CORK,http://www.daft.ie/for-sale/detached-house-4-greenbanks-well-road-douglas-co-cork/3962222
3960186,19472806,"Santiago, 12 Riverview Estate, Glasheen, Co. Cork",350000.0,127,127 m²,3,1,Semi-D,2022-07-01,F,114853070,,51.881699,-8.498093,Buy,CORK_CITY_CENTRE_CORK,http://www.daft.ie/for-sale/semi-detached-house-santiago-12-riverview-estate-glasheen-co-cork/3960186
3960367,19475351,"Killeshin, 20 Endsleigh Estate, Douglas, Co. Cork",575000.0,151,151 m²,4,2,Semi-D,2022-08-10,E1,108390907,312.25 kWh/m2/yr,51.88319,-8.441802,Buy,CORK_CITY_CENTRE_CORK,http://www.daft.ie/for-sale/semi-detached-house-killeshin-20-endsleigh-estate-douglas-co-cork/3960367
3960145,19472774,"156 Lower Glanmire Road, Glanmire, Co. Cork",295000.0,N/A,,3,3,Terrace,2022-08-10,SI_666,,,51.902861,-8.449333,Buy,CORK_CITY_CENTRE_CORK,http://www.daft.ie/for-sale/terraced-house-156-lower-glanmire-road-glanmire-co-cork/3960145
3960121,19472761,"Killeshin, 20 Endsleigh Estate, Douglas, Co. Cork",575000.0,151,151 m²,4,2,Semi-D,2022-06-30,E1,108390907,,51.88319,-8.441802,Buy,CORK_CITY_CENTRE_CORK,http://www.daft.ie/for-sale/semi-detached-house-killeshin-20-endsleigh-estate-douglas-co-cork/3960121
3959948,19471732,"33 Summerhill North, Co. Cork",345000.0,101,101 m²,4,2,Detached,2022-06-30,D1,,,51.90205,-8.463024,Buy,CORK_CITY_CENTRE_CORK,http://www.daft.ie/for-sale/detached-house-33-summerhill-north-co-cork/3959948
3959607,19468117,"10 O'Connell Street, Blackpool, Co. Cork",165000.0,46,46 m²,2,1,Terrace,2022-08-10,E1,,,51.90777,-8.475249,Buy,CORK_CITY_CENTRE_CORK,http://www.daft.ie/for-sale/terraced-house-10-oconnell-street-blackpool-co-cork/3959607
3949366,19414987,"24 Liam Lynch Park, Glasheen Road, Co. Cork",295000.0,79,79 m²,3,2,Terrace,2022-06-29,E1,115176372,79.42 kWh/m2/yr,51.884766,-8.505948,Buy,CORK_CITY_CENTRE_CORK,http://www.daft.ie/for-sale/terraced-house-24-liam-lynch-park-glasheen-road-co-cork/3949366
3958250,19452612,"Ardgur, 17 Mount Pleasant Avenue, Turners Cross, Co. Cork",340000.0,110,110 m²,3,1,Semi-D,2022-07-18,D2,,276.33 kWh/m2/yr,51.88857,-8.474161,Buy,CORK_CITY_CENTRE_CORK,http://www.daft.ie/for-sale/semi-detached-house-ardgur-17-mount-pleasant-avenue-turners-cross-co-cork/3958250
3947622,19399581,"10 Saint Patricks Terrace, Magazine Road, Glasheen, Co. Cork",375000.0,149,149 m²,7,2,Terrace,2022-08-10,D2,,,51.889581,-8.496084,Buy,CORK_CITY_CENTRE_CORK,http://www.daft.ie/for-sale/terraced-house-10-saint-patricks-terrace-magazine-road-glasheen-co-cork/3947622
3955836,19429137,"20 Drumcora Mews, Blackrock, Co. Cork",365000.0,89,89 m²,3,2,Terrace,2022-06-28,D2,115162513,281.43 kWh/m2/yr,51.896805,-8.423415,Buy,CORK_CITY_CENTRE_CORK,http://www.daft.ie/for-sale/terraced-house-20-drumcora-mews-blackrock-co-cork/3955836
3949517,19416236,"Dunamaise, 12 Beaumont Lawn, Ballintemple, Co. Cork",425000.0,98,98 m²,3,1,Semi-D,2022-08-10,G,,,51.890504,-8.426598,Buy,CORK_CITY_CENTRE_CORK,http://www.daft.ie/for-sale/semi-detached-house-dunamaise-12-beaumont-lawn-ballintemple-co-cork/3949517
3949302,19413347,"17 Gillabbey Park, Donovan Road, Co. Cork",245000.0,77,77 m²,2,1,Terrace,2022-07-07,F,,,51.894849,-8.48597,Buy,CORK_CITY_CENTRE_CORK,http://www.daft.ie/for-sale/terraced-house-17-gillabbey-park-donovan-road-co-cork/3949302
3949252,19413317,"53 Skehard Road, Blackrock, Blackrock, Co. Cork",415000.0,107,107 m²,3,1,Semi-D,2022-06-27,E2,114857410,370.26 kWh/m2/yr,51.887546,-8.42379,Buy,CORK_CITY_CENTRE_CORK,http://www.daft.ie/for-sale/semi-detached-house-53-skehard-road-blackrock-blackrock-co-cork/3949252
3949051,19411312,"Cruac Paoraic, 55 Beechwood Park, Ballinlough, Co. Cork",415000.0,N/A,,3,2,Semi-D,2022-06-27,F,,,51.887006,-8.445665,Buy,CORK_CITY_CENTRE_CORK,http://www.daft.ie/for-sale/semi-detached-house-cruac-paoraic-55-beechwood-park-ballinlough-co-cork/3949051
3948966,19410299,"1 Drews Terrace, Evergreen Street, Co. Cork",245000.0,55,55 m²,3,1,End of Terrace,2022-07-12,G,105582696,518.83 kWh/m2/yr,51.892412,-8.472295,Buy,CORK_CITY_CENTRE_CORK,http://www.daft.ie/for-sale/end-of-terrace-house-1-drews-terrace-evergreen-street-co-cork/3948966
3948922,19410274,"29 Tara Lawn, Glasheen, Co. Cork",325000.0,114,114 m²,3,2,Semi-D,2022-06-27,F,115177149,432.05 kWh/m2/yr,51.885738,-8.496316,Buy,CORK_CITY_CENTRE_CORK,http://www.daft.ie/for-sale/semi-detached-house-29-tara-lawn-glasheen-co-cork/3948922
3925455,19179347,"Lisheen 13 Deerpark Mews, Turners Cross, Cork City, Co. Cork",340000.0,88,88 m²,3,1,Terrace,2022-06-29,C1,109812222,168.99 kWh/m2/yr,51.88982,-8.470347,Buy,CORK_CITY_CENTRE_CORK,http://www.daft.ie/for-sale/terraced-house-lisheen-13-deerpark-mews-turners-cross-cork-city-co-cork/3925455
3945652,19378960,"176 Lower Glanmire Road, Glanmire, Co. Cork","AMV: €130,000",N/A,,3,1,Terrace,2022-08-10,F,111432936,390.48 kWh/m2/yr,51.902964,-8.446703,Buy,CORK_CITY_CENTRE_CORK,http://www.daft.ie/for-sale/terraced-house-176-lower-glanmire-road-glanmire-co-cork/3945652
3945167,19373488,"26 Gould Street, Co. Cork",215000.0,58,58 m²,4,2,End of Terrace,2022-06-23,G,107281081,634.7 kWh/m2/yr,51.890453,-8.483522,Buy,CORK_CITY_CENTRE_CORK,http://www.daft.ie/for-sale/end-of-terrace-house-26-gould-street-co-cork/3945167
3944615,19371320,"Wyldwood, St Francis Avenue, Co. Cork",895000.0,232,232 m²,4,3,Detached,2022-08-03,D2,115155996,277.67 kWh/m2/yr,51.8892179,-8.499836,Buy,CORK_CITY_CENTRE_CORK,http://www.daft.ie/for-sale/detached-house-wyldwood-st-francis-avenue-co-cork/3944615
3943953,19363412,"The Grange, 16 Glencoo Gardens, Ballinlough, Co. Cork",395000.0,100,100 m²,3,2,Semi-D,2022-06-23,E2,114688096,363.25 kWh/m2/yr,51.889774,-8.443114,Buy,CORK_CITY_CENTRE_CORK,http://www.daft.ie/for-sale/semi-detached-house-the-grange-16-glencoo-gardens-ballinlough-co-cork/3943953
3943595,19359174,"Garnavilla, Menloe Gardens, Blackrock, Co. Cork",675000.0,141,141 m²,4,3,Semi-D,2022-08-10,F,,,51.894716,-8.424303,Buy,CORK_CITY_CENTRE_CORK,http://www.daft.ie/for-sale/semi-detached-house-garnavilla-menloe-gardens-blackrock-co-cork/3943595
3940966,19333270,"Celtic, 13 Ardfallen Estate, Douglas, Co. Cork",550000.0,153,153 m²,3,3,Semi-D,2022-08-08,D1,115025942,241.49 kWh/m2/yr,51.885193,-8.445752,Buy,CORK_CITY_CENTRE_CORK,http://www.daft.ie/for-sale/semi-detached-house-celtic-13-ardfallen-estate-douglas-co-cork/3940966
3940591,19330408,"84 Evergreen Street, Co. Cork",285000.0,N/A,,3,1,End of Terrace,2022-07-07,E1,113510986,,51.892225,-8.47211,Buy,CORK_CITY_CENTRE_CORK,http://www.daft.ie/for-sale/end-of-terrace-house-84-evergreen-street-co-cork/3940591
3940376,19325859,"22 Gerald Griffin Street, Blackpool, Co. Cork",400000.0,N/A,,4,3,End of Terrace,2022-08-02,C3,,,51.906529,-8.476386,Buy,CORK_CITY_CENTRE_CORK,http://www.daft.ie/for-sale/end-of-terrace-house-22-gerald-griffin-street-blackpool-co-cork/3940376
3940091,19323223,"30 Prosperity Square, Barrack Street, Co. Cork",125000.0,55,55 m²,2,1,Terrace,2022-07-28,SI_666,,,51.8940279,-8.4772884,Buy,CORK_CITY_CENTRE_CORK,http://www.daft.ie/for-sale/terraced-house-30-prosperity-square-barrack-street-co-cork/3940091
3938948,19313855,"29 Greenhills Estate, South Douglas Road, Douglas, Co. Cork",325000.0,100,100 m²,3,2,Semi-D,2022-06-22,E2,115051815,,51.88157,-8.455925,Buy,CORK_CITY_CENTRE_CORK,http://www.daft.ie/for-sale/semi-detached-house-29-greenhills-estate-south-douglas-road-douglas-co-cork/3938948
3938497,19309917,"Villa Francisca, 50 Ballyhooly Road, St. Lukes, Co. Cork",275000.0,105,105 m²,4,3,Terrace,2022-08-10,F,104917273,397.47 kWh/m2/yr,51.908002,-8.455769,Buy,CORK_CITY_CENTRE_CORK,http://www.daft.ie/for-sale/terraced-house-villa-francisca-50-ballyhooly-road-st-lukes-co-cork/3938497
3938471,19309903,"Modeligo, Blackrock Road, Blackrock, Co. Cork",1800000.0,334,334 m²,5,6,Detached,2022-08-02,A2,,,51.895927,-8.425305,Buy,CORK_CITY_CENTRE_CORK,http://www.daft.ie/for-sale/detached-house-modeligo-blackrock-road-blackrock-co-cork/3938471
3938047,19305577,"Sleepy Hollow, Barrington's Avenue, Blackrock, Co. Cork",925000.0,259,259 m²,3,2,Detached,2022-08-02,D1,112856463,,51.897172,-8.426473,Buy,CORK_CITY_CENTRE_CORK,http://www.daft.ie/for-sale/detached-house-sleepy-hollow-barringtons-avenue-blackrock-co-cork/3938047
3937646,19302473,"4 Saint Joseph's Terrace, Ballyhooly Road, St. Lukes, Co. Cork",255000.0,65,65 m²,3,1,Townhouse,2022-07-12,D1,102686037,,51.907073,-8.456958,Buy,CORK_CITY_CENTRE_CORK,http://www.daft.ie/for-sale/townhouse-4-saint-josephs-terrace-ballyhooly-road-st-lukes-co-cork/3937646
3936146,19285811,"2 Tower Street, Co. Cork",225000.0,48,48 m²,2,1,Terrace,2022-06-16,E2,103360335,367.83 kWh/m2/yr,51.891783,-8.471971,Buy,CORK_CITY_CENTRE_CORK,http://www.daft.ie/for-sale/terraced-house-2-tower-street-co-cork/3936146
3936014,19284236,"8 Vicar Street, Co. Cork",Price on Application,126,126 m²,6,2,Terrace,2022-07-13,E2,,,51.893619,-8.479024,Buy,CORK_CITY_CENTRE_CORK,http://www.daft.ie/for-sale/terraced-house-8-vicar-street-co-cork/3936014
3935333,19278083,"Monserrat, 3 Cahergal Avenue, Ballyvolane, Co. Cork",295000.0,N/A,,3,2,Semi-D,2022-07-01,D2,115055410,296.89 kWh/m2/yr,51.91145,-8.448654,Buy,CORK_CITY_CENTRE_CORK,http://www.daft.ie/for-sale/semi-detached-house-monserrat-3-cahergal-avenue-ballyvolane-co-cork/3935333
3935114,19276631,"53 Lower Pouladuff Road, Pouladuff, Co. Cork",259000.0,53,53 m²,2,1,End of Terrace,2022-08-03,G,112580428,,51.877595,-8.484376,Buy,CORK_CITY_CENTRE_CORK,http://www.daft.ie/for-sale/end-of-terrace-house-53-lower-pouladuff-road-pouladuff-co-cork/3935114
3934400,19270519,"4 Maria Villas, 98 Street, Co. Cork",280000.0,89,89 m²,5,3,Terrace,2022-06-21,D2,103281267,289.82 kWh/m2/yr,51.893373,-8.482946,Buy,CORK_CITY_CENTRE_CORK,http://www.daft.ie/for-sale/terraced-house-4-maria-villas-98-street-co-cork/3934400
3927669,19204364,"84 Great William O'Brien Street, Blackpool, Co. Cork",195000.0,N/A,,2,2,Townhouse,2022-06-14,E2,,,51.910579,-8.474608,Buy,CORK_CITY_CENTRE_CORK,http://www.daft.ie/for-sale/townhouse-84-great-william-obrien-street-blackpool-co-cork/3927669
3932698,19251026,"Inglewood, 31 Capwell Avenue, Co. Cork",290000.0,73,73 m²,3,2,Semi-D,2022-08-02,D1,111967519,,51.887878,-8.464166,Buy,CORK_CITY_CENTRE_CORK,http://www.daft.ie/for-sale/semi-detached-house-inglewood-31-capwell-avenue-co-cork/3932698
3932077,19246144,"Skellig, 144 Old Youghal Road, Co. Cork",185000.0,52,52 m²,2,1,Terrace,2022-06-13,E1,113630495,,51.907639,-8.458641,Buy,CORK_CITY_CENTRE_CORK,http://www.daft.ie/for-sale/terraced-house-skellig-144-old-youghal-road-co-cork/3932077
3927812,19205708,"33 Wycherley Place, College Road, Co. Cork",255000.0,54,54 m²,3,1,Terrace,2022-07-12,E2,103151569,,51.891336,-8.488099,Buy,CORK_CITY_CENTRE_CORK,http://www.daft.ie/for-sale/terraced-house-33-wycherley-place-college-road-co-cork/3927812
3813143,18754833,"1 Innisfail, Magazine Road, Co. Cork",310000.0,105,105 m²,5,3,Semi-D,2022-08-05,E1,110618659,327.67 kWh/m2/yr,51.889921,-8.493606,Buy,CORK_CITY_CENTRE_CORK,http://www.daft.ie/for-sale/semi-detached-house-1-innisfail-magazine-road-co-cork/3813143
3928801,19217564,"22 The Avenue, Ard Patrick, Co. Cork",275000.0,110,110 m²,3,3,End of Terrace,2022-06-13,B3,,,51.909025,-8.470855,Buy,CORK_CITY_CENTRE_CORK,http://www.daft.ie/for-sale/end-of-terrace-house-22-the-avenue-ard-patrick-co-cork/3928801
3928647,19215209,"43 McCurtains Villas, College Road, Co. Cork",295000.0,79,79 m²,3,2,End of Terrace,2022-08-02,G,114825532,,51.89178,-8.488434,Buy,CORK_CITY_CENTRE_CORK,http://www.daft.ie/for-sale/end-of-terrace-house-43-mccurtains-villas-college-road-co-cork/3928647
3928253,19210849,"1 Connolly Place, Ballyphehane, Ballyphehane, Co. Cork",195000.0,72,72 m²,3,1,End of Terrace,2022-07-15,G,115035099,1283.85 kWh/m2/yr,51.880069,-8.476226,Buy,CORK_CITY_CENTRE_CORK,http://www.daft.ie/for-sale/end-of-terrace-house-1-connolly-place-ballyphehane-ballyphehane-co-cork/3928253
3927913,19205784,"Crownend, Middle Glanmire Road, Montenotte, Co. Cork",580000.0,203,203 m²,4,2,Semi-D,2022-08-03,D1,113288286,259.05 kWh/m2/yr,51.904994,-8.447398,Buy,CORK_CITY_CENTRE_CORK,http://www.daft.ie/for-sale/semi-detached-house-crownend-middle-glanmire-road-montenotte-co-cork/3927913
3927387,19201970,"Monea, 18 Glendale Grove, Glasheen, Co. Cork",395000.0,153,153 m²,4,2,Semi-D,2022-06-22,D2,,,51.884558,-8.49645,Buy,CORK_CITY_CENTRE_CORK,http://www.daft.ie/for-sale/semi-detached-house-monea-18-glendale-grove-glasheen-co-cork/3927387
3927031,19198896,"4 Clifton Villas, Middle Glanmire Road, Montenotte, Co. Cork",375000.0,215,215 m²,6,3,End of Terrace,2022-06-17,D1,103369252,251.72 kWh/m2/yr,51.904864,-8.446504,Buy,CORK_CITY_CENTRE_CORK,http://www.daft.ie/for-sale/end-of-terrace-house-4-clifton-villas-middle-glanmire-road-montenotte-co-cork/3927031
3926095,19189950,"78 Capwell Road, Turners Cross, Co. Cork",275000.0,78,78 m²,3,1,End of Terrace,2022-08-08,G,115025249,508.51 kWh/m2/yr,51.887844,-8.464772,Buy,CORK_CITY_CENTRE_CORK,http://www.daft.ie/for-sale/end-of-terrace-house-78-capwell-road-turners-cross-co-cork/3926095
3924364,19171198,"Saint Brendans, School Avenue, Glasheen, Co. Cork",360000.0,N/A,,5,2,Detached,2022-08-05,SI_666,,,51.886973,-8.49985,Buy,CORK_CITY_CENTRE_CORK,http://www.daft.ie/for-sale/detached-house-saint-brendans-school-avenue-glasheen-co-cork/3924364
3923553,19162073,"138 Silversprings Lawn, Tivoli, Silversprings, Co. Cork",275000.0,102,102 m²,3,1,Semi-D,2022-08-10,C3,115172215,219.32 kWh/m2/yr,51.909735,-8.42477,Buy,CORK_CITY_CENTRE_CORK,http://www.daft.ie/for-sale/semi-detached-house-138-silversprings-lawn-tivoli-silversprings-co-cork/3923553
3921485,19149211,"1A McCurtains Villas, College Road, Co. Cork",265000.0,61,61 m²,2,1,Semi-D,2022-06-13,E1,103366118,,51.892957,-8.485694,Buy,CORK_CITY_CENTRE_CORK,http://www.daft.ie/for-sale/semi-detached-house-1a-mccurtains-villas-college-road-co-cork/3921485
3919818,19135575,"17 Great William O'Brien Street, Blackpool, Blackpool, Co. Cork",220000.0,N/A,,3,1,Townhouse,2022-06-03,E1,108731423,,51.909797,-8.474718,Buy,CORK_CITY_CENTRE_CORK,http://www.daft.ie/for-sale/townhouse-17-great-william-obrien-street-blackpool-blackpool-co-cork/3919818
3919980,19136959,"41 Congress Road, Turners Cross, Turners Cross, Co. Cork",225000.0,70,70 m²,2,1,Terrace,2022-07-05,D1,,,51.887612,-8.471066,Buy,CORK_CITY_CENTRE_CORK,http://www.daft.ie/for-sale/terraced-house-41-congress-road-turners-cross-turners-cross-co-cork/3919980
3917074,19107129,"Grenville, Blackrock Road, Blackrock, Co. Cork",600000.0,162,162 m²,3,2,Detached,2022-08-08,D1,115005100,229.3 kWh/m2/yr,51.895292,-8.423414,Buy,CORK_CITY_CENTRE_CORK,http://www.daft.ie/for-sale/detached-house-grenville-blackrock-road-blackrock-co-cork/3917074
3916201,19101968,"Casa Mia, 20 Lower Beaumont Drive, Ballintemple, Co. Cork",595000.0,144,144 m²,4,2,Semi-D,2022-07-29,E2,114824204,377.88 kWh/m2/yr,51.894722,-8.430469,Buy,CORK_CITY_CENTRE_CORK,http://www.daft.ie/for-sale/semi-detached-house-casa-mia-20-lower-beaumont-drive-ballintemple-co-cork/3916201
3916130,19100651,"5 Rocklawn Terrace, Douglas, Co. Cork",610000.0,115,115 m²,5,2,Terrace,2022-08-10,B2,105125991,,51.885583,-8.449867,Buy,CORK_CITY_CENTRE_CORK,http://www.daft.ie/for-sale/terraced-house-5-rocklawn-terrace-douglas-co-cork/3916130
3915886,19098333,"De Nada, 19 Cleve Hill, Blackrock, Co. Cork",695000.0,210,210 m²,5,4,Detached,2022-08-10,G,,,51.894694,-8.44118,Buy,CORK_CITY_CENTRE_CORK,http://www.daft.ie/for-sale/detached-house-de-nada-19-cleve-hill-blackrock-co-cork/3915886
3802922,18669893,"8A Elm Grove Park, Old Youghal Road, Co. Cork",375000.0,150,150 m²,5,2,Semi-D,2022-08-10,D2,114878895,260.95 kWh/m2/yr,51.91087,-8.446576,Buy,CORK_CITY_CENTRE_CORK,http://www.daft.ie/for-sale/semi-detached-house-8a-elm-grove-park-old-youghal-road-co-cork/3802922
3911617,19064282,"Árd Aoibinn, 11 Kilcolman Lawn, Kilcolman, Co. Cork",380000.0,140,140 m²,3,2,Semi-D,2022-05-27,F,114769805,391.7 kWh/m2/yr,51.884279,-8.460509,Buy,CORK_CITY_CENTRE_CORK,http://www.daft.ie/for-sale/semi-detached-house--rd-aoibinn-11-kilcolman-lawn-kilcolman-co-cork/3911617
3909031,19038201,"Laurels, 53 Sunday's Well Road, Sunday's Well, Co. Cork",500000.0,150,150 m²,3,2,Detached,2022-05-27,E1,,,51.897754,-8.498035,Buy,CORK_CITY_CENTRE_CORK,http://www.daft.ie/for-sale/detached-house-laurels-53-sundays-well-road-sundays-well-co-cork/3909031
3908175,19029179,"26 Maiville Terrace, Turners Cross, Turners Cross, Co. Cork",240000.0,60,60 m²,2,1,Terrace,2022-05-25,D1,115001026,,51.888423,-8.466491,Buy,CORK_CITY_CENTRE_CORK,http://www.daft.ie/for-sale/terraced-house-26-maiville-terrace-turners-cross-turners-cross-co-cork/3908175
3908162,19029171,"15 North Mall, Co. Cork",425000.0,307,307 m²,4,1,Terrace,2022-05-25,SI_666,,,51.901092,-8.481755,Buy,CORK_CITY_CENTRE_CORK,http://www.daft.ie/for-sale/terraced-house-15-north-mall-co-cork/3908162
3907950,19027773,"14 Hardwick Street, Co. Cork",295000.0,142,142 m²,6,3,Terrace,2022-05-25,F,,,51.902326,-8.470796,Buy,CORK_CITY_CENTRE_CORK,http://www.daft.ie/for-sale/terraced-house-14-hardwick-street-co-cork/3907950
3903715,18989553,"1A McCurtains Villas, College Road, Co. Cork",265000.0,61,61 m²,2,1,Semi-D,2022-06-01,E1,103366118,332.24 kWh/m2/yr,51.892957,-8.485694,Buy,CORK_CITY_CENTRE_CORK,http://www.daft.ie/for-sale/semi-detached-house-1a-mccurtains-villas-college-road-co-cork/3903715
3901397,18968886,"22 Bandon Road, Co. Cork",250000.0,65,65 m²,3,2,Terrace,2022-05-20,D1,101153807,252.17 kWh/m2/yr,51.892267,-8.482881,Buy,CORK_CITY_CENTRE_CORK,http://www.daft.ie/for-sale/terraced-house-22-bandon-road-co-cork/3901397
3901258,18967295,"52 Dominick Street, Co. Cork",250000.0,111,111 m²,2,3,Terrace,2022-05-20,B3,105612626,146.1 kWh/m2/yr,51.902363,-8.476046,Buy,CORK_CITY_CENTRE_CORK,http://www.daft.ie/for-sale/terraced-house-52-dominick-street-co-cork/3901258
3674621,17574372,"3 Sullivan's Lane, Barrack Street, Co. Cork",160000.0,45,45 m²,2,1,Terrace,2022-08-10,G,109326009,588.21 kWh/m2/yr,51.892937,-8.47894,Buy,CORK_CITY_CENTRE_CORK,http://www.daft.ie/for-sale/terraced-house-3-sullivans-lane-barrack-street-co-cork/3674621
3890368,18863819,"179 Connolly Road, Ballyphehane, Ballyphehane, Co. Cork",280000.0,84,84 m²,3,1,Terrace,2022-06-21,F,114872930,449.47 kWh/m2/yr,51.88093,-8.475194,Buy,CORK_CITY_CENTRE_CORK,http://www.daft.ie/for-sale/terraced-house-179-connolly-road-ballyphehane-ballyphehane-co-cork/3890368
3898267,18931105,"7 Military Road , St. Lukes, Co. Cork",295000.0,140,140 m²,5,1,End of Terrace,2022-08-10,SI_666,,,51.906093,-8.461712,Buy,CORK_CITY_CENTRE_CORK,http://www.daft.ie/for-sale/end-of-terrace-house-7-military-road-st-lukes-co-cork/3898267
3895794,18909762,"136 Pearse Road, Ballyphehane, Ballyphehane, Co. Cork",300000.0,75,75 m²,3,2,Terrace,2022-05-17,C2,101540052,177.12 kWh/m2/yr,51.882684,-8.4797,Buy,CORK_CITY_CENTRE_CORK,http://www.daft.ie/for-sale/terraced-house-136-pearse-road-ballyphehane-ballyphehane-co-cork/3895794
3894257,18895905,"53 Joe Murphy Road, Ballyphehane, Ballyphehane, Co. Cork",279000.0,N/A,,3,2,Terrace,2022-06-29,F,103676961,,51.884519,-8.481473,Buy,CORK_CITY_CENTRE_CORK,http://www.daft.ie/for-sale/terraced-house-53-joe-murphy-road-ballyphehane-ballyphehane-co-cork/3894257
3822274,18838187,"11 Parkowen, Quaker Road, Co. Cork",220000.0,59,59 m²,3,1,Terrace,2022-08-10,D2,,,51.892363,-8.471377,Buy,CORK_CITY_CENTRE_CORK,http://www.daft.ie/for-sale/terraced-house-11-parkowen-quaker-road-co-cork/3822274
3820699,18821619,"9 York Terrace, Summerhill North, St. Lukes, Co. Cork",695000.0,151,151 m²,6,,Detached,2022-08-10,C3,111562468,212.57 kWh/m2/yr,51.90222,-8.46423,Buy,CORK_CITY_CENTRE_CORK,http://www.daft.ie/for-sale/detached-house-9-york-terrace-summerhill-north-st-lukes-co-cork/3820699
3817051,18791530,"13 Our Lady of Lourdes Park, Ballinlough, Ballinlough, Co. Cork",325000.0,74,74 m²,3,1,End of Terrace,2022-08-10,G,114853005,605.38 kWh/m2/yr,51.887007,-8.436876,Buy,CORK_CITY_CENTRE_CORK,http://www.daft.ie/for-sale/end-of-terrace-house-13-our-lady-of-lourdes-park-ballinlough-ballinlough-co-cork/3817051
3816294,18783915,"No. 3 Eastview Terrace, Quaker Rd, Co. Cork",295000.0,79,79 m²,3,2,Terrace,2022-05-26,C1,114864887,,51.891973,-8.469968,Buy,CORK_CITY_CENTRE_CORK,http://www.daft.ie/for-sale/terraced-house-no-3-eastview-terrace-quaker-rd-co-cork/3816294
3552768,16245069,"16 Parklyn, Brockelsby Street, Blackpool, Co. Cork",225000.0,62,62 m²,2,2,Semi-D,2022-08-10,C2,,,51.911343,-8.474723,Buy,CORK_CITY_CENTRE_CORK,http://www.daft.ie/for-sale/semi-detached-house-16-parklyn-brockelsby-street-blackpool-co-cork/3552768
3811638,18742272,"4 City View Terrace, Winters Hill, Sunday's Well, Co. Cork",165000.0,N/A,,2,1,Terrace,2022-05-25,C1,109817015,167.48 kWh/m2/yr,51.901469,-8.484644,Buy,CORK_CITY_CENTRE_CORK,http://www.daft.ie/for-sale/terraced-house-4-city-view-terrace-winters-hill-sundays-well-co-cork/3811638
3807717,18719167,"67 Thomas Davis Street, Blackpool, Blackpool, Co. Cork",165000.0,120,120 m²,5,2,Terrace,2022-08-02,G,,,51.912618,-8.472706,Buy,CORK_CITY_CENTRE_CORK,http://www.daft.ie/for-sale/terraced-house-67-thomas-davis-street-blackpool-blackpool-co-cork/3807717
3807163,18713707,"109 Industry Street, Co. Cork",230000.0,7,7 m²,3,1,Terrace,2022-05-20,F,,,51.893829,-8.475587,Buy,CORK_CITY_CENTRE_CORK,http://www.daft.ie/for-sale/terraced-house-109-industry-street-co-cork/3807163
3806166,18703194,"17 Wilton Lawn, Wilton, Co. Cork",385000.0,N/A,,4,2,Semi-D,2022-08-08,E1,114735574,,51.883188,-8.503002,Buy,CORK_CITY_CENTRE_CORK,http://www.daft.ie/for-sale/semi-detached-house-17-wilton-lawn-wilton-co-cork/3806166
3805790,18698416,"10 Reeves Wood, Douglas Road, Douglas, Co. Cork",995000.0,240,240 m²,5,5,Detached,2022-08-10,B2,106375330,,51.878939,-8.439556,Buy,CORK_CITY_CENTRE_CORK,http://www.daft.ie/for-sale/detached-house-10-reeves-wood-douglas-road-douglas-co-cork/3805790
3803723,18678109,"THE RENOVATION CENTRE, 82C Ballyhooly Road, St. Lukes, Co. Cork",250000.0,N/A,,2,2,Terrace,2022-08-10,C2,,,51.90489,-8.457682,Buy,CORK_CITY_CENTRE_CORK,http://www.daft.ie/for-sale/terraced-house-the-renovation-centre-82c-ballyhooly-road-st-lukes-co-cork/3803723
3800712,18649427,"21 Bandon Road, Co. Cork",250000.0,73,73 m²,3,1,Terrace,2022-05-12,C1,101153823,158.54 kWh/m2/yr,51.892282,-8.482823,Buy,CORK_CITY_CENTRE_CORK,http://www.daft.ie/for-sale/terraced-house-21-bandon-road-co-cork/3800712
3800753,18650151,"34 Ballyhooly Road, Dillons Cross, Co. Cork",235000.0,63,63 m²,2,1,Terrace,2022-08-10,C2,101494250,192.49 kWh/m2/yr,51.908592,-8.455263,Buy,CORK_CITY_CENTRE_CORK,http://www.daft.ie/for-sale/terraced-house-34-ballyhooly-road-dillons-cross-co-cork/3800753
3795847,18611367,"Avenue House, Boreenmanna Road, Cork City, Co. Cork",650000.0,199,199 m²,4,5,Detached,2022-06-22,C1,101643856,161.42 kWh/m2/yr,51.890771,-8.442644,Buy,CORK_CITY_CENTRE_CORK,http://www.daft.ie/for-sale/detached-house-avenue-house-boreenmanna-road-cork-city-co-cork/3795847
3796563,18615688,"23 Greenmount Avenue, Co. Cork",190000.0,66,66 m²,3,1,Terrace,2022-05-18,E1,114821572,,51.891639,-8.482624,Buy,CORK_CITY_CENTRE_CORK,http://www.daft.ie/for-sale/terraced-house-23-greenmount-avenue-co-cork/3796563
3795504,18607389,"51 Boyne Crescent, Mayfield, Mayfield, Co. Cork",265000.0,N/A,,3,1,Townhouse,2022-08-09,C2,,,51.914189,-8.443989,Buy,CORK_CITY_CENTRE_CORK,http://www.daft.ie/for-sale/townhouse-51-boyne-crescent-mayfield-mayfield-co-cork/3795504
3795055,18602604,"1A The Village, Glasheen, Co. Cork",270000.0,82,82 m²,3,2,End of Terrace,2022-08-10,B2,,,51.885609,-8.498737,Buy,CORK_CITY_CENTRE_CORK,http://www.daft.ie/for-sale/end-of-terrace-house-1a-the-village-glasheen-co-cork/3795055
3785356,18525225,"19 Saint Finbarr's Park, Glasheen Road, The Lough, Co. Cork",495000.0,136,136 m²,3,3,Semi-D,2022-07-12,B3,107726721,,51.88748,-8.488924,Buy,CORK_CITY_CENTRE_CORK,http://www.daft.ie/for-sale/semi-detached-house-19-saint-finbarrs-park-glasheen-road-the-lough-co-cork/3785356
3782524,18497082,"28 Tower Street, Co. Cork",210000.0,66,66 m²,2,1,Terrace,2022-08-10,G,,,51.892102,-8.47402,Buy,CORK_CITY_CENTRE_CORK,http://www.daft.ie/for-sale/terraced-house-28-tower-street-co-cork/3782524
3746467,18201408,"1 Percyville, South, Douglas, Co. Cork",750000.0,150,150 m²,5,1,Semi-D,2022-08-03,G,114703473,,51.887169,-8.465564,Buy,CORK_CITY_CENTRE_CORK,http://www.daft.ie/for-sale/semi-detached-house-1-percyville-south-douglas-co-cork/3746467
3770525,18382806,"32 Maiville Terrace, Evergreen Road, Turners Cross, Co. Cork",225000.0,69,69 m²,3,1,Townhouse,2022-05-04,F,114752389,,51.888604,-8.466223,Buy,CORK_CITY_CENTRE_CORK,http://www.daft.ie/for-sale/townhouse-32-maiville-terrace-evergreen-road-turners-cross-co-cork/3770525
3766421,18364865,"Apartment 1 & 2, 2A O'Connor Ville, Off Tower Street, Co. Cork",250000.0,59,59 m²,2,2,Terrace,2022-05-20,E1,,,51.891717,-8.472894,Buy,CORK_CITY_CENTRE_CORK,http://www.daft.ie/for-sale/terraced-house-apartment-1-2-2a-oconnor-ville-off-tower-street-co-cork/3766421
3759807,18306642,"1 Carriglee, Co. Cork",1650000.0,301,301 m²,12,12,Semi-D,2022-07-29,B1,800831513,396.44 kWh/m2/yr,51.895932,-8.488094,Buy,CORK_CITY_CENTRE_CORK,http://www.daft.ie/for-sale/semi-detached-house-1-carriglee-co-cork/3759807
3751729,18250847,"2 Clermont Cottages, South Douglas Road, Douglas, Co. Cork",255000.0,48,48 m²,1,2,Terrace,2022-08-10,B3,,,51.879376,-8.444627,Buy,CORK_CITY_CENTRE_CORK,http://www.daft.ie/for-sale/terraced-house-2-clermont-cottages-south-douglas-road-douglas-co-cork/3751729
3744879,18187065,"0.5 Acre Site Approx. 1 Percyville, South Douglas Road, Douglas, Co. Cork",750000.0,150,150 m²,5,1,Semi-D,2022-08-10,G,,,51.887169,-8.465564,Buy,CORK_CITY_CENTRE_CORK,http://www.daft.ie/for-sale/semi-detached-house-0-5-acre-site-approx-1-percyville-south-douglas-road-douglas-co-cork/3744879
3737573,18119784,"63 Maryville, Ballintemple, Ballintemple, Co. Cork",375000.0,97,97 m²,3,2,Semi-D,2022-03-21,F,112279427,432.22 kWh/m2/yr,51.896939,-8.434905,Buy,CORK_CITY_CENTRE_CORK,http://www.daft.ie/for-sale/semi-detached-house-63-maryville-ballintemple-ballintemple-co-cork/3737573
3736510,18108226,"3 Blackrock Road, Ballintemple, Co. Cork",269000.0,120,120 m²,2,1,Terrace,2022-08-09,D2,110824558,294.73 kWh/m2/yr,51.895256,-8.4345,Buy,CORK_CITY_CENTRE_CORK,http://www.daft.ie/for-sale/terraced-house-3-blackrock-road-ballintemple-co-cork/3736510
3730059,18038095,"71 Barrack Street, Co. Cork",225000.0,71,71 m²,3,1,Terrace,2022-05-17,F,114674973,400.92 kWh/m2/yr,51.892753,-8.480087,Buy,CORK_CITY_CENTRE_CORK,http://www.daft.ie/for-sale/terraced-house-71-barrack-street-co-cork/3730059
3725751,18004780,"5 Lloyd's Lane, Dominick Street, Co. Cork",180000.0,55,55 m²,2,1,Terrace,2022-06-23,D2,,,51.90225,-8.475057,Buy,CORK_CITY_CENTRE_CORK,http://www.daft.ie/for-sale/terraced-house-5-lloyds-lane-dominick-street-co-cork/3725751
3722068,17970000,"4 Beale's Hill, Lower Glanmire Road, Co. Cork",160000.0,73,73 m²,3,1,End of Terrace,2022-05-20,G,114673502,686.04 kWh/m2/yr,51.903071,-8.447052,Buy,CORK_CITY_CENTRE_CORK,http://www.daft.ie/for-sale/end-of-terrace-house-4-beales-hill-lower-glanmire-road-co-cork/3722068
3717638,17938496,"15 & 16 The Cottages, Ballintemple, Co. Cork",320000.0,35,35 m²,1,1,Terrace,2022-07-29,G,114664295,745.0 kWh/m2/yr,51.895596,-8.433195,Buy,CORK_CITY_CENTRE_CORK,http://www.daft.ie/for-sale/terraced-house-15-16-the-cottages-ballintemple-co-cork/3717638
3715421,17910719,"Douglas Hall, Well Road, Douglas, Co. Cork",825000.0,390,390 m²,7,,Detached,2022-08-09,F,109236554,388.56 kWh/m2/yr,51.879626,-8.437526,Buy,CORK_CITY_CENTRE_CORK,http://www.daft.ie/for-sale/detached-house-douglas-hall-well-road-douglas-co-cork/3715421
3711557,17871605,"16 Willow Court, Cross, Douglas, Co. Cork",335000.0,87,87 m²,3,1,Terrace,2022-08-10,C3,114644859,208.65 kWh/m2/yr,51.884716,-8.457386,Buy,CORK_CITY_CENTRE_CORK,http://www.daft.ie/for-sale/terraced-house-16-willow-court-cross-douglas-co-cork/3711557
3684125,17665161,"73 Tower Street, Co. Cork",150000.0,51,51 m²,2,1,Townhouse,2022-08-10,F,,,51.89246,-8.475231,Buy,CORK_CITY_CENTRE_CORK,http://www.daft.ie/for-sale/townhouse-73-tower-street-co-cork/3684125
3677075,17599431,"5 Mahony's Square, Great William O'Brien Street, Mahon, Co. Cork",150000.0,65,65 m²,2,1,Terrace,2022-07-29,D1,104151501,254.0 kWh/m2/yr,51.909919,-8.475975,Buy,CORK_CITY_CENTRE_CORK,http://www.daft.ie/for-sale/terraced-house-5-mahonys-square-great-william-obrien-street-mahon-co-cork/3677075
3647922,17250800,"1 Dryden Place, Ballinlough, Co. Cork",315000.0,134,134 m²,4,2,End of Terrace,2022-08-10,G,114546583,492.02 kWh/m2/yr,51.890111,-8.456839,Buy,CORK_CITY_CENTRE_CORK,http://www.daft.ie/for-sale/end-of-terrace-house-1-dryden-place-ballinlough-co-cork/3647922
3621917,16995127,"57 Lough Road, Co. Cork",185000.0,N/A,,2,1,Terrace,2022-07-22,D2,114507932,,51.891717,-8.484473,Buy,CORK_CITY_CENTRE_CORK,http://www.daft.ie/for-sale/terraced-house-57-lough-road-co-cork/3621917
3607893,16871195,"6 Cathedral Place, Bishop Street, Co. Cork",Price on Application,159,159 m²,5,2,Semi-D,2022-02-23,F,114495666,,51.89472,-8.480434,Buy,CORK_CITY_CENTRE_CORK,http://www.daft.ie/for-sale/semi-detached-house-6-cathedral-place-bishop-street-co-cork/3607893
2897755,13688719,"Clifford House, Ballinlough Road, Ballinlough, Co. Cork",790000.0,197,197 m²,5,1,Detached,2022-06-21,F,113577415,,51.888891,-8.435343,Buy,CORK_CITY_CENTRE_CORK,http://www.daft.ie/for-sale/detached-house-clifford-house-ballinlough-road-ballinlough-co-cork/2897755
3571185,16457350,"ACUPUNCTURE & HERBAL CLINIC, 14 Kyle Street, Co. Cork",225000.0,73,73 m²,2,2,Terrace,2022-07-29,C1,800732067,385.24 kWh/m2/yr,51.899765,-8.477973,Buy,CORK_CITY_CENTRE_CORK,http://www.daft.ie/for-sale/terraced-house-acupuncture-herbal-clinic-14-kyle-street-co-cork/3571185
3547859,16227846,"4 Marie Place, Windmill Road, Co. Cork",195000.0,60,60 m²,2,2,Terrace,2022-07-28,G,113097224,,51.891185,-8.467884,Buy,CORK_CITY_CENTRE_CORK,http://www.daft.ie/for-sale/terraced-house-4-marie-place-windmill-road-co-cork/3547859
72295,11699244,"Well Road, Douglas, Douglas, Co. Cork",995000.0,232,232 m²,4,4,Detached,2022-07-21,SI_666,,,51.881928,-8.4380916,Buy,CORK_CITY_CENTRE_CORK,http://www.daft.ie/for-sale/detached-house-well-road-douglas-douglas-co-cork/72295
3802922,18669893,"8A Elm Grove Park, Old Youghal Road, Co. Cork",375000.0,150,150 m²,5,2,Semi-D,2022-08-10,D2,114878895,260.95 kWh/m2/yr,51.91087,-8.446576,Buy,CORK_CITY_CENTRE_CORK,http://www.daft.ie/for-sale/semi-detached-house-8a-elm-grove-park-old-youghal-road-co-cork/3802922
3911617,19064282,"Árd Aoibinn, 11 Kilcolman Lawn, Kilcolman, Co. Cork",380000.0,140,140 m²,3,2,Semi-D,2022-05-27,F,114769805,391.7 kWh/m2/yr,51.884279,-8.460509,Buy,CORK_CITY_CENTRE_CORK,http://www.daft.ie/for-sale/semi-detached-house--rd-aoibinn-11-kilcolman-lawn-kilcolman-co-cork/3911617
3903715,18989553,"1A McCurtains Villas, College Road, Co. Cork",265000.0,61,61 m²,2,1,Semi-D,2022-06-01,E1,103366118,332.24 kWh/m2/yr,51.892957,-8.485694,Buy,CORK_CITY_CENTRE_CORK,http://www.daft.ie/for-sale/semi-detached-house-1a-mccurtains-villas-college-road-co-cork/3903715
3552768,16245069,"16 Parklyn, Brockelsby Street, Blackpool, Co. Cork",225000.0,62,62 m²,2,2,Semi-D,2022-08-10,C2,,,51.911343,-8.474723,Buy,CORK_CITY_CENTRE_CORK,http://www.daft.ie/for-sale/semi-detached-house-16-parklyn-brockelsby-street-blackpool-co-cork/3552768
3806166,18703194,"17 Wilton Lawn, Wilton, Co. Cork",385000.0,N/A,,4,2,Semi-D,2022-08-08,E1,114735574,,51.883188,-8.503002,Buy,CORK_CITY_CENTRE_CORK,http://www.daft.ie/for-sale/semi-detached-house-17-wilton-lawn-wilton-co-cork/3806166
3785356,18525225,"19 Saint Finbarr's Park, Glasheen Road, The Lough, Co. Cork",495000.0,136,136 m²,3,3,Semi-D,2022-07-12,B3,107726721,,51.88748,-8.488924,Buy,CORK_CITY_CENTRE_CORK,http://www.daft.ie/for-sale/semi-detached-house-19-saint-finbarrs-park-glasheen-road-the-lough-co-cork/3785356
3746467,18201408,"1 Percyville, South, Douglas, Co. Cork",750000.0,150,150 m²,5,1,Semi-D,2022-08-03,G,114703473,,51.887169,-8.465564,Buy,CORK_CITY_CENTRE_CORK,http://www.daft.ie/for-sale/semi-detached-house-1-percyville-south-douglas-co-cork/3746467
3759807,18306642,"1 Carriglee, Co. Cork",1650000.0,301,301 m²,12,12,Semi-D,2022-07-29,B1,800831513,396.44 kWh/m2/yr,51.895932,-8.488094,Buy,CORK_CITY_CENTRE_CORK,http://www.daft.ie/for-sale/semi-detached-house-1-carriglee-co-cork/3759807
3744879,18187065,"0.5 Acre Site Approx. 1 Percyville, South Douglas Road, Douglas, Co. Cork",750000.0,150,150 m²,5,1,Semi-D,2022-08-10,G,,,51.887169,-8.465564,Buy,CORK_CITY_CENTRE_CORK,http://www.daft.ie/for-sale/semi-detached-house-0-5-acre-site-approx-1-percyville-south-douglas-road-douglas-co-cork/3744879
3737573,18119784,"63 Maryville, Ballintemple, Ballintemple, Co. Cork",375000.0,97,97 m²,3,2,Semi-D,2022-03-21,F,112279427,432.22 kWh/m2/yr,51.896939,-8.434905,Buy,CORK_CITY_CENTRE_CORK,http://www.daft.ie/for-sale/semi-detached-house-63-maryville-ballintemple-ballintemple-co-cork/3737573
3607893,16871195,"6 Cathedral Place, Bishop Street, Co. Cork",Price on Application,159,159 m²,5,2,Semi-D,2022-02-23,F,114495666,,51.89472,-8.480434,Buy,CORK_CITY_CENTRE_CORK,http://www.daft.ie/for-sale/semi-detached-house-6-cathedral-place-bishop-street-co-cork/3607893
3938497,19309917,"Villa Francisca, 50 Ballyhooly Road, St. Lukes, Co. Cork",275000.0,105,105 m²,4,3,Terrace,2022-08-10,F,104917273,397.47 kWh/m2/yr,51.908002,-8.455769,Buy,CORK_CITY_CENTRE_CORK,http://www.daft.ie/for-sale/terraced-house-villa-francisca-50-ballyhooly-road-st-lukes-co-cork/3938497
3936146,19285811,"2 Tower Street, Co. Cork",225000.0,48,48 m²,2,1,Terrace,2022-06-16,E2,103360335,367.83 kWh/m2/yr,51.891783,-8.471971,Buy,CORK_CITY_CENTRE_CORK,http://www.daft.ie/for-sale/terraced-house-2-tower-street-co-cork/3936146
3936014,19284236,"8 Vicar Street, Co. Cork",Price on Application,126,126 m²,6,2,Terrace,2022-07-13,E2,,,51.893619,-8.479024,Buy,CORK_CITY_CENTRE_CORK,http://www.daft.ie/for-sale/terraced-house-8-vicar-street-co-cork/3936014
3934400,19270519,"4 Maria Villas, 98 Street, Co. Cork",280000.0,89,89 m²,5,3,Terrace,2022-06-21,D2,103281267,289.82 kWh/m2/yr,51.893373,-8.482946,Buy,CORK_CITY_CENTRE_CORK,http://www.daft.ie/for-sale/terraced-house-4-maria-villas-98-street-co-cork/3934400
3932077,19246144,"Skellig, 144 Old Youghal Road, Co. Cork",185000.0,52,52 m²,2,1,Terrace,2022-06-13,E1,113630495,,51.907639,-8.458641,Buy,CORK_CITY_CENTRE_CORK,http://www.daft.ie/for-sale/terraced-house-skellig-144-old-youghal-road-co-cork/3932077
3927812,19205708,"33 Wycherley Place, College Road, Co. Cork",255000.0,54,54 m²,3,1,Terrace,2022-07-12,E2,103151569,,51.891336,-8.488099,Buy,CORK_CITY_CENTRE_CORK,http://www.daft.ie/for-sale/terraced-house-33-wycherley-place-college-road-co-cork/3927812
3919980,19136959,"41 Congress Road, Turners Cross, Turners Cross, Co. Cork",225000.0,70,70 m²,2,1,Terrace,2022-07-05,D1,,,51.887612,-8.471066,Buy,CORK_CITY_CENTRE_CORK,http://www.daft.ie/for-sale/terraced-house-41-congress-road-turners-cross-turners-cross-co-cork/3919980
3916130,19100651,"5 Rocklawn Terrace, Douglas, Co. Cork",610000.0,115,115 m²,5,2,Terrace,2022-08-10,B2,105125991,,51.885583,-8.449867,Buy,CORK_CITY_CENTRE_CORK,http://www.daft.ie/for-sale/terraced-house-5-rocklawn-terrace-douglas-co-cork/3916130
3908175,19029179,"26 Maiville Terrace, Turners Cross, Turners Cross, Co. Cork",240000.0,60,60 m²,2,1,Terrace,2022-05-25,D1,115001026,,51.888423,-8.466491,Buy,CORK_CITY_CENTRE_CORK,http://www.daft.ie/for-sale/terraced-house-26-maiville-terrace-turners-cross-turners-cross-co-cork/3908175
3908162,19029171,"15 North Mall, Co. Cork",425000.0,307,307 m²,4,1,Terrace,2022-05-25,SI_666,,,51.901092,-8.481755,Buy,CORK_CITY_CENTRE_CORK,http://www.daft.ie/for-sale/terraced-house-15-north-mall-co-cork/3908162
3907950,19027773,"14 Hardwick Street, Co. Cork",295000.0,142,142 m²,6,3,Terrace,2022-05-25,F,,,51.902326,-8.470796,Buy,CORK_CITY_CENTRE_CORK,http://www.daft.ie/for-sale/terraced-house-14-hardwick-street-co-cork/3907950
3901397,18968886,"22 Bandon Road, Co. Cork",250000.0,65,65 m²,3,2,Terrace,2022-05-20,D1,101153807,252.17 kWh/m2/yr,51.892267,-8.482881,Buy,CORK_CITY_CENTRE_CORK,http://www.daft.ie/for-sale/terraced-house-22-bandon-road-co-cork/3901397
3901258,18967295,"52 Dominick Street, Co. Cork",250000.0,111,111 m²,2,3,Terrace,2022-05-20,B3,105612626,146.1 kWh/m2/yr,51.902363,-8.476046,Buy,CORK_CITY_CENTRE_CORK,http://www.daft.ie/for-sale/terraced-house-52-dominick-street-co-cork/3901258
3674621,17574372,"3 Sullivan's Lane, Barrack Street, Co. Cork",160000.0,45,45 m²,2,1,Terrace,2022-08-10,G,109326009,588.21 kWh/m2/yr,51.892937,-8.47894,Buy,CORK_CITY_CENTRE_CORK,http://www.daft.ie/for-sale/terraced-house-3-sullivans-lane-barrack-street-co-cork/3674621
3890368,18863819,"179 Connolly Road, Ballyphehane, Ballyphehane, Co. Cork",280000.0,84,84 m²,3,1,Terrace,2022-06-21,F,114872930,449.47 kWh/m2/yr,51.88093,-8.475194,Buy,CORK_CITY_CENTRE_CORK,http://www.daft.ie/for-sale/terraced-house-179-connolly-road-ballyphehane-ballyphehane-co-cork/3890368
3895794,18909762,"136 Pearse Road, Ballyphehane, Ballyphehane, Co. Cork",300000.0,75,75 m²,3,2,Terrace,2022-05-17,C2,101540052,177.12 kWh/m2/yr,51.882684,-8.4797,Buy,CORK_CITY_CENTRE_CORK,http://www.daft.ie/for-sale/terraced-house-136-pearse-road-ballyphehane-ballyphehane-co-cork/3895794
3894257,18895905,"53 Joe Murphy Road, Ballyphehane, Ballyphehane, Co. Cork",279000.0,N/A,,3,2,Terrace,2022-06-29,F,103676961,,51.884519,-8.481473,Buy,CORK_CITY_CENTRE_CORK,http://www.daft.ie/for-sale/terraced-house-53-joe-murphy-road-ballyphehane-ballyphehane-co-cork/3894257
3822274,18838187,"11 Parkowen, Quaker Road, Co. Cork",220000.0,59,59 m²,3,1,Terrace,2022-08-10,D2,,,51.892363,-8.471377,Buy,CORK_CITY_CENTRE_CORK,http://www.daft.ie/for-sale/terraced-house-11-parkowen-quaker-road-co-cork/3822274
3816294,18783915,"No. 3 Eastview Terrace, Quaker Rd, Co. Cork",295000.0,79,79 m²,3,2,Terrace,2022-05-26,C1,114864887,,51.891973,-8.469968,Buy,CORK_CITY_CENTRE_CORK,http://www.daft.ie/for-sale/terraced-house-no-3-eastview-terrace-quaker-rd-co-cork/3816294
3811638,18742272,"4 City View Terrace, Winters Hill, Sunday's Well, Co. Cork",165000.0,N/A,,2,1,Terrace,2022-05-25,C1,109817015,167.48 kWh/m2/yr,51.901469,-8.484644,Buy,CORK_CITY_CENTRE_CORK,http://www.daft.ie/for-sale/terraced-house-4-city-view-terrace-winters-hill-sundays-well-co-cork/3811638
3807717,18719167,"67 Thomas Davis Street, Blackpool, Blackpool, Co. Cork",165000.0,120,120 m²,5,2,Terrace,2022-08-02,G,,,51.912618,-8.472706,Buy,CORK_CITY_CENTRE_CORK,http://www.daft.ie/for-sale/terraced-house-67-thomas-davis-street-blackpool-blackpool-co-cork/3807717
3807163,18713707,"109 Industry Street, Co. Cork",230000.0,7,7 m²,3,1,Terrace,2022-05-20,F,,,51.893829,-8.475587,Buy,CORK_CITY_CENTRE_CORK,http://www.daft.ie/for-sale/terraced-house-109-industry-street-co-cork/3807163
3803723,18678109,"THE RENOVATION CENTRE, 82C Ballyhooly Road, St. Lukes, Co. Cork",250000.0,N/A,,2,2,Terrace,2022-08-10,C2,,,51.90489,-8.457682,Buy,CORK_CITY_CENTRE_CORK,http://www.daft.ie/for-sale/terraced-house-the-renovation-centre-82c-ballyhooly-road-st-lukes-co-cork/3803723
3800712,18649427,"21 Bandon Road, Co. Cork",250000.0,73,73 m²,3,1,Terrace,2022-05-12,C1,101153823,158.54 kWh/m2/yr,51.892282,-8.482823,Buy,CORK_CITY_CENTRE_CORK,http://www.daft.ie/for-sale/terraced-house-21-bandon-road-co-cork/3800712
3800753,18650151,"34 Ballyhooly Road, Dillons Cross, Co. Cork",235000.0,63,63 m²,2,1,Terrace,2022-08-10,C2,101494250,192.49 kWh/m2/yr,51.908592,-8.455263,Buy,CORK_CITY_CENTRE_CORK,http://www.daft.ie/for-sale/terraced-house-34-ballyhooly-road-dillons-cross-co-cork/3800753
3796563,18615688,"23 Greenmount Avenue, Co. Cork",190000.0,66,66 m²,3,1,Terrace,2022-05-18,E1,114821572,,51.891639,-8.482624,Buy,CORK_CITY_CENTRE_CORK,http://www.daft.ie/for-sale/terraced-house-23-greenmount-avenue-co-cork/3796563
3782524,18497082,"28 Tower Street, Co. Cork",210000.0,66,66 m²,2,1,Terrace,2022-08-10,G,,,51.892102,-8.47402,Buy,CORK_CITY_CENTRE_CORK,http://www.daft.ie/for-sale/terraced-house-28-tower-street-co-cork/3782524
3766421,18364865,"Apartment 1 & 2, 2A O'Connor Ville, Off Tower Street, Co. Cork",250000.0,59,59 m²,2,2,Terrace,2022-05-20,E1,,,51.891717,-8.472894,Buy,CORK_CITY_CENTRE_CORK,http://www.daft.ie/for-sale/terraced-house-apartment-1-2-2a-oconnor-ville-off-tower-street-co-cork/3766421
3751729,18250847,"2 Clermont Cottages, South Douglas Road, Douglas, Co. Cork",255000.0,48,48 m²,1,2,Terrace,2022-08-10,B3,,,51.879376,-8.444627,Buy,CORK_CITY_CENTRE_CORK,http://www.daft.ie/for-sale/terraced-house-2-clermont-cottages-south-douglas-road-douglas-co-cork/3751729
3736510,18108226,"3 Blackrock Road, Ballintemple, Co. Cork",269000.0,120,120 m²,2,1,Terrace,2022-08-09,D2,110824558,294.73 kWh/m2/yr,51.895256,-8.4345,Buy,CORK_CITY_CENTRE_CORK,http://www.daft.ie/for-sale/terraced-house-3-blackrock-road-ballintemple-co-cork/3736510
3730059,18038095,"71 Barrack Street, Co. Cork",225000.0,71,71 m²,3,1,Terrace,2022-05-17,F,114674973,400.92 kWh/m2/yr,51.892753,-8.480087,Buy,CORK_CITY_CENTRE_CORK,http://www.daft.ie/for-sale/terraced-house-71-barrack-street-co-cork/3730059
3725751,18004780,"5 Lloyd's Lane, Dominick Street, Co. Cork",180000.0,55,55 m²,2,1,Terrace,2022-06-23,D2,,,51.90225,-8.475057,Buy,CORK_CITY_CENTRE_CORK,http://www.daft.ie/for-sale/terraced-house-5-lloyds-lane-dominick-street-co-cork/3725751
3717638,17938496,"15 & 16 The Cottages, Ballintemple, Co. Cork",320000.0,35,35 m²,1,1,Terrace,2022-07-29,G,114664295,745.0 kWh/m2/yr,51.895596,-8.433195,Buy,CORK_CITY_CENTRE_CORK,http://www.daft.ie/for-sale/terraced-house-15-16-the-cottages-ballintemple-co-cork/3717638
3711557,17871605,"16 Willow Court, Cross, Douglas, Co. Cork",335000.0,87,87 m²,3,1,Terrace,2022-08-10,C3,114644859,208.65 kWh/m2/yr,51.884716,-8.457386,Buy,CORK_CITY_CENTRE_CORK,http://www.daft.ie/for-sale/terraced-house-16-willow-court-cross-douglas-co-cork/3711557
3677075,17599431,"5 Mahony's Square, Great William O'Brien Street, Mahon, Co. Cork",150000.0,65,65 m²,2,1,Terrace,2022-07-29,D1,104151501,254.0 kWh/m2/yr,51.909919,-8.475975,Buy,CORK_CITY_CENTRE_CORK,http://www.daft.ie/for-sale/terraced-house-5-mahonys-square-great-william-obrien-street-mahon-co-cork/3677075
3621917,16995127,"57 Lough Road, Co. Cork",185000.0,N/A,,2,1,Terrace,2022-07-22,D2,114507932,,51.891717,-8.484473,Buy,CORK_CITY_CENTRE_CORK,http://www.daft.ie/for-sale/terraced-house-57-lough-road-co-cork/3621917
3571185,16457350,"ACUPUNCTURE & HERBAL CLINIC, 14 Kyle Street, Co. Cork",225000.0,73,73 m²,2,2,Terrace,2022-07-29,C1,800732067,385.24 kWh/m2/yr,51.899765,-8.477973,Buy,CORK_CITY_CENTRE_CORK,http://www.daft.ie/for-sale/terraced-house-acupuncture-herbal-clinic-14-kyle-street-co-cork/3571185
3547859,16227846,"4 Marie Place, Windmill Road, Co. Cork",195000.0,60,60 m²,2,2,Terrace,2022-07-28,G,113097224,,51.891185,-8.467884,Buy,CORK_CITY_CENTRE_CORK,http://www.daft.ie/for-sale/terraced-house-4-marie-place-windmill-road-co-cork/3547859
3938497,19309917,"Villa Francisca, 50 Ballyhooly Road, St. Lukes, Co. Cork",275000.0,105,105 m²,4,3,Terrace,2022-08-10,F,104917273,397.47 kWh/m2/yr,51.908002,-8.455769,Buy,CORK_CITY_CENTRE_CORK,http://www.daft.ie/for-sale/terraced-house-villa-francisca-50-ballyhooly-road-st-lukes-co-cork/3938497
3936146,19285811,"2 Tower Street, Co. Cork",225000.0,48,48 m²,2,1,Terrace,2022-06-16,E2,103360335,367.83 kWh/m2/yr,51.891783,-8.471971,Buy,CORK_CITY_CENTRE_CORK,http://www.daft.ie/for-sale/terraced-house-2-tower-street-co-cork/3936146
3936014,19284236,"8 Vicar Street, Co. Cork",Price on Application,126,126 m²,6,2,Terrace,2022-07-13,E2,,,51.893619,-8.479024,Buy,CORK_CITY_CENTRE_CORK,http://www.daft.ie/for-sale/terraced-house-8-vicar-street-co-cork/3936014
3934400,19270519,"4 Maria Villas, 98 Street, Co. Cork",280000.0,89,89 m²,5,3,Terrace,2022-06-21,D2,103281267,289.82 kWh/m2/yr,51.893373,-8.482946,Buy,CORK_CITY_CENTRE_CORK,http://www.daft.ie/for-sale/terraced-house-4-maria-villas-98-street-co-cork/3934400
3932077,19246144,"Skellig, 144 Old Youghal Road, Co. Cork",185000.0,52,52 m²,2,1,Terrace,2022-06-13,E1,113630495,,51.907639,-8.458641,Buy,CORK_CITY_CENTRE_CORK,http://www.daft.ie/for-sale/terraced-house-skellig-144-old-youghal-road-co-cork/3932077
3927812,19205708,"33 Wycherley Place, College Road, Co. Cork",255000.0,54,54 m²,3,1,Terrace,2022-07-12,E2,103151569,,51.891336,-8.488099,Buy,CORK_CITY_CENTRE_CORK,http://www.daft.ie/for-sale/terraced-house-33-wycherley-place-college-road-co-cork/3927812
3919980,19136959,"41 Congress Road, Turners Cross, Turners Cross, Co. Cork",225000.0,70,70 m²,2,1,Terrace,2022-07-05,D1,,,51.887612,-8.471066,Buy,CORK_CITY_CENTRE_CORK,http://www.daft.ie/for-sale/terraced-house-41-congress-road-turners-cross-turners-cross-co-cork/3919980
3916130,19100651,"5 Rocklawn Terrace, Douglas, Co. Cork",610000.0,115,115 m²,5,2,Terrace,2022-08-10,B2,105125991,,51.885583,-8.449867,Buy,CORK_CITY_CENTRE_CORK,http://www.daft.ie/for-sale/terraced-house-5-rocklawn-terrace-douglas-co-cork/3916130
3908175,19029179,"26 Maiville Terrace, Turners Cross, Turners Cross, Co. Cork",240000.0,60,60 m²,2,1,Terrace,2022-05-25,D1,115001026,,51.888423,-8.466491,Buy,CORK_CITY_CENTRE_CORK,http://www.daft.ie/for-sale/terraced-house-26-maiville-terrace-turners-cross-turners-cross-co-cork/3908175
3908162,19029171,"15 North Mall, Co. Cork",425000.0,307,307 m²,4,1,Terrace,2022-05-25,SI_666,,,51.901092,-8.481755,Buy,CORK_CITY_CENTRE_CORK,http://www.daft.ie/for-sale/terraced-house-15-north-mall-co-cork/3908162
3907950,19027773,"14 Hardwick Street, Co. Cork",295000.0,142,142 m²,6,3,Terrace,2022-05-25,F,,,51.902326,-8.470796,Buy,CORK_CITY_CENTRE_CORK,http://www.daft.ie/for-sale/terraced-house-14-hardwick-street-co-cork/3907950
3901397,18968886,"22 Bandon Road, Co. Cork",250000.0,65,65 m²,3,2,Terrace,2022-05-20,D1,101153807,252.17 kWh/m2/yr,51.892267,-8.482881,Buy,CORK_CITY_CENTRE_CORK,http://www.daft.ie/for-sale/terraced-house-22-bandon-road-co-cork/3901397
3901258,18967295,"52 Dominick Street, Co. Cork",250000.0,111,111 m²,2,3,Terrace,2022-05-20,B3,105612626,146.1 kWh/m2/yr,51.902363,-8.476046,Buy,CORK_CITY_CENTRE_CORK,http://www.daft.ie/for-sale/terraced-house-52-dominick-street-co-cork/3901258
3674621,17574372,"3 Sullivan's Lane, Barrack Street, Co. Cork",160000.0,45,45 m²,2,1,Terrace,2022-08-10,G,109326009,588.21 kWh/m2/yr,51.892937,-8.47894,Buy,CORK_CITY_CENTRE_CORK,http://www.daft.ie/for-sale/terraced-house-3-sullivans-lane-barrack-street-co-cork/3674621
3890368,18863819,"179 Connolly Road, Ballyphehane, Ballyphehane, Co. Cork",280000.0,84,84 m²,3,1,Terrace,2022-06-21,F,114872930,449.47 kWh/m2/yr,51.88093,-8.475194,Buy,CORK_CITY_CENTRE_CORK,http://www.daft.ie/for-sale/terraced-house-179-connolly-road-ballyphehane-ballyphehane-co-cork/3890368
3895794,18909762,"136 Pearse Road, Ballyphehane, Ballyphehane, Co. Cork",300000.0,75,75 m²,3,2,Terrace,2022-05-17,C2,101540052,177.12 kWh/m2/yr,51.882684,-8.4797,Buy,CORK_CITY_CENTRE_CORK,http://www.daft.ie/for-sale/terraced-house-136-pearse-road-ballyphehane-ballyphehane-co-cork/3895794
3894257,18895905,"53 Joe Murphy Road, Ballyphehane, Ballyphehane, Co. Cork",279000.0,N/A,,3,2,Terrace,2022-06-29,F,103676961,,51.884519,-8.481473,Buy,CORK_CITY_CENTRE_CORK,http://www.daft.ie/for-sale/terraced-house-53-joe-murphy-road-ballyphehane-ballyphehane-co-cork/3894257
3822274,18838187,"11 Parkowen, Quaker Road, Co. Cork",220000.0,59,59 m²,3,1,Terrace,2022-08-10,D2,,,51.892363,-8.471377,Buy,CORK_CITY_CENTRE_CORK,http://www.daft.ie/for-sale/terraced-house-11-parkowen-quaker-road-co-cork/3822274
3816294,18783915,"No. 3 Eastview Terrace, Quaker Rd, Co. Cork",295000.0,79,79 m²,3,2,Terrace,2022-05-26,C1,114864887,,51.891973,-8.469968,Buy,CORK_CITY_CENTRE_CORK,http://www.daft.ie/for-sale/terraced-house-no-3-eastview-terrace-quaker-rd-co-cork/3816294
3811638,18742272,"4 City View Terrace, Winters Hill, Sunday's Well, Co. Cork",165000.0,N/A,,2,1,Terrace,2022-05-25,C1,109817015,167.48 kWh/m2/yr,51.901469,-8.484644,Buy,CORK_CITY_CENTRE_CORK,http://www.daft.ie/for-sale/terraced-house-4-city-view-terrace-winters-hill-sundays-well-co-cork/3811638
3807717,18719167,"67 Thomas Davis Street, Blackpool, Blackpool, Co. Cork",165000.0,120,120 m²,5,2,Terrace,2022-08-02,G,,,51.912618,-8.472706,Buy,CORK_CITY_CENTRE_CORK,http://www.daft.ie/for-sale/terraced-house-67-thomas-davis-street-blackpool-blackpool-co-cork/3807717
3807163,18713707,"109 Industry Street, Co. Cork",230000.0,7,7 m²,3,1,Terrace,2022-05-20,F,,,51.893829,-8.475587,Buy,CORK_CITY_CENTRE_CORK,http://www.daft.ie/for-sale/terraced-house-109-industry-street-co-cork/3807163
3803723,18678109,"THE RENOVATION CENTRE, 82C Ballyhooly Road, St. Lukes, Co. Cork",250000.0,N/A,,2,2,Terrace,2022-08-10,C2,,,51.90489,-8.457682,Buy,CORK_CITY_CENTRE_CORK,http://www.daft.ie/for-sale/terraced-house-the-renovation-centre-82c-ballyhooly-road-st-lukes-co-cork/3803723
3800712,18649427,"21 Bandon Road, Co. Cork",250000.0,73,73 m²,3,1,Terrace,2022-05-12,C1,101153823,158.54 kWh/m2/yr,51.892282,-8.482823,Buy,CORK_CITY_CENTRE_CORK,http://www.daft.ie/for-sale/terraced-house-21-bandon-road-co-cork/3800712
3800753,18650151,"34 Ballyhooly Road, Dillons Cross, Co. Cork",235000.0,63,63 m²,2,1,Terrace,2022-08-10,C2,101494250,192.49 kWh/m2/yr,51.908592,-8.455263,Buy,CORK_CITY_CENTRE_CORK,http://www.daft.ie/for-sale/terraced-house-34-ballyhooly-road-dillons-cross-co-cork/3800753
3796563,18615688,"23 Greenmount Avenue, Co. Cork",190000.0,66,66 m²,3,1,Terrace,2022-05-18,E1,114821572,,51.891639,-8.482624,Buy,CORK_CITY_CENTRE_CORK,http://www.daft.ie/for-sale/terraced-house-23-greenmount-avenue-co-cork/3796563
3782524,18497082,"28 Tower Street, Co. Cork",210000.0,66,66 m²,2,1,Terrace,2022-08-10,G,,,51.892102,-8.47402,Buy,CORK_CITY_CENTRE_CORK,http://www.daft.ie/for-sale/terraced-house-28-tower-street-co-cork/3782524
3766421,18364865,"Apartment 1 & 2, 2A O'Connor Ville, Off Tower Street, Co. Cork",250000.0,59,59 m²,2,2,Terrace,2022-05-20,E1,,,51.891717,-8.472894,Buy,CORK_CITY_CENTRE_CORK,http://www.daft.ie/for-sale/terraced-house-apartment-1-2-2a-oconnor-ville-off-tower-street-co-cork/3766421
3751729,18250847,"2 Clermont Cottages, South Douglas Road, Douglas, Co. Cork",255000.0,48,48 m²,1,2,Terrace,2022-08-10,B3,,,51.879376,-8.444627,Buy,CORK_CITY_CENTRE_CORK,http://www.daft.ie/for-sale/terraced-house-2-clermont-cottages-south-douglas-road-douglas-co-cork/3751729
3736510,18108226,"3 Blackrock Road, Ballintemple, Co. Cork",269000.0,120,120 m²,2,1,Terrace,2022-08-09,D2,110824558,294.73 kWh/m2/yr,51.895256,-8.4345,Buy,CORK_CITY_CENTRE_CORK,http://www.daft.ie/for-sale/terraced-house-3-blackrock-road-ballintemple-co-cork/3736510
3730059,18038095,"71 Barrack Street, Co. Cork",225000.0,71,71 m²,3,1,Terrace,2022-05-17,F,114674973,400.92 kWh/m2/yr,51.892753,-8.480087,Buy,CORK_CITY_CENTRE_CORK,http://www.daft.ie/for-sale/terraced-house-71-barrack-street-co-cork/3730059
3725751,18004780,"5 Lloyd's Lane, Dominick Street, Co. Cork",180000.0,55,55 m²,2,1,Terrace,2022-06-23,D2,,,51.90225,-8.475057,Buy,CORK_CITY_CENTRE_CORK,http://www.daft.ie/for-sale/terraced-house-5-lloyds-lane-dominick-street-co-cork/3725751
3717638,17938496,"15 & 16 The Cottages, Ballintemple, Co. Cork",320000.0,35,35 m²,1,1,Terrace,2022-07-29,G,114664295,745.0 kWh/m2/yr,51.895596,-8.433195,Buy,CORK_CITY_CENTRE_CORK,http://www.daft.ie/for-sale/terraced-house-15-16-the-cottages-ballintemple-co-cork/3717638
3711557,17871605,"16 Willow Court, Cross, Douglas, Co. Cork",335000.0,87,87 m²,3,1,Terrace,2022-08-10,C3,114644859,208.65 kWh/m2/yr,51.884716,-8.457386,Buy,CORK_CITY_CENTRE_CORK,http://www.daft.ie/for-sale/terraced-house-16-willow-court-cross-douglas-co-cork/3711557
3677075,17599431,"5 Mahony's Square, Great William O'Brien Street, Mahon, Co. Cork",150000.0,65,65 m²,2,1,Terrace,2022-07-29,D1,104151501,254.0 kWh/m2/yr,51.909919,-8.475975,Buy,CORK_CITY_CENTRE_CORK,http://www.daft.ie/for-sale/terraced-house-5-mahonys-square-great-william-obrien-street-mahon-co-cork/3677075
3621917,16995127,"57 Lough Road, Co. Cork",185000.0,N/A,,2,1,Terrace,2022-07-22,D2,114507932,,51.891717,-8.484473,Buy,CORK_CITY_CENTRE_CORK,http://www.daft.ie/for-sale/terraced-house-57-lough-road-co-cork/3621917
3571185,16457350,"ACUPUNCTURE & HERBAL CLINIC, 14 Kyle Street, Co. Cork",225000.0,73,73 m²,2,2,Terrace,2022-07-29,C1,800732067,385.24 kWh/m2/yr,51.899765,-8.477973,Buy,CORK_CITY_CENTRE_CORK,http://www.daft.ie/for-sale/terraced-house-acupuncture-herbal-clinic-14-kyle-street-co-cork/3571185
3547859,16227846,"4 Marie Place, Windmill Road, Co. Cork",195000.0,60,60 m²,2,2,Terrace,2022-07-28,G,113097224,,51.891185,-8.467884,Buy,CORK_CITY_CENTRE_CORK,http://www.daft.ie/for-sale/terraced-house-4-marie-place-windmill-road-co-cork/3547859
