id,daftShortcode,title,price,size_meters_squared,propertySize,bedrooms,bathrooms,propertyType,publishDate,ber_rating,ber_code,ber_epi,latitude,longitude,category,location,url_link
3918895,19125818,"Aghern Upper, Fermoy, Co. Cork",168000.0,N/A,,2,1,Detached,2022-07-04,G,,,52.0973,-8.159625,Buy,EAST_CORK_CORK,http://www.daft.ie/for-sale/detached-house-aghern-upper-fermoy-co-cork/3918895
3904340,18997646,"Kilcrone Cottage, Kilcrone, Cloyne, Co. Cork",375000.0,N/A,,3,2,Detached,2022-08-05,G,101849594,566.37 kWh/m2/yr,51.854049,-8.117978,Buy,EAST_CORK_CORK,http://www.daft.ie/for-sale/detached-house-kilcrone-cottage-kilcrone-cloyne-co-cork/3904340
3903756,18989781,"1 The Fairways, Castle Rock, Midleton, Co. Cork",395000.0,156,156 m²,4,3,Detached,2022-08-10,B3,114499304,148.12 kWh/m2/yr,51.909671,-8.198613,Buy,EAST_CORK_CORK,http://www.daft.ie/for-sale/detached-house-1-the-fairways-castle-rock-midleton-co-cork/3903756
3894667,18898974,"39 Woodview, Killeagh, Co. Cork",300000.0,N/A,,3,3,Detached,2022-08-09,C1,,,51.939174,-7.990448,Buy,EAST_CORK_CORK,http://www.daft.ie/for-sale/detached-house-39-woodview-killeagh-co-cork/3894667
3894553,18897517,"Lahard, Whitegate, Co. Cork",250000.0,125,125 m²,3,2,Detached,2022-08-05,G,114865942,572.11 kWh/m2/yr,51.793689,-8.167409,Buy,EAST_CORK_CORK,http://www.daft.ie/for-sale/detached-house-lahard-whitegate-co-cork/3894553
3747428,18214398,"Laccarue, West End, Carrigtwohill, Co. Cork",350000.0,116,116 m²,3,3,Detached,2022-08-05,E1,114719461,308.15 kWh/m2/yr,51.909017,-8.26782,Buy,EAST_CORK_CORK,http://www.daft.ie/for-sale/detached-house-laccarue-west-end-carrigtwohill-co-cork/3747428
3819194,18809083,"66 Killeagh Gardens, Killeagh, Co. Cork",280000.0,N/A,,3,2,Detached,2022-08-09,SI_666,,,51.940967,-7.997695,Buy,EAST_CORK_CORK,http://www.daft.ie/for-sale/detached-house-66-killeagh-gardens-killeagh-co-cork/3819194
3811379,18739887,"Pairc an Chosain, Garryvoe Road, Ladysbridge, Co. Cork",475000.0,N/A,,4,3,Detached,2022-06-24,A2,,,51.91462439937831,-8.173243118095058,New Homes,EAST_CORK_CORK,http://www.daft.ie/new-home-for-sale/detached-house-type-a-pairc-an-chosain-pairc-an-chosain-garryvoe-road-ladysbridge-co-cork/3811379
3811380,18739888,"Pairc an Chosain, Garryvoe Road, Ladysbridge, Co. Cork",525000.0,N/A,,4,3,Detached,2022-06-24,A2,,,51.91462439937831,-8.173243118095058,New Homes,EAST_CORK_CORK,http://www.daft.ie/new-home-for-sale/detached-house-type-a1-pairc-an-chosain-pairc-an-chosain-garryvoe-road-ladysbridge-co-cork/3811380
3811382,18739889,"Pairc an Chosain, Garryvoe Road, Ladysbridge, Co. Cork",565000.0,N/A,,4,4,Detached,2022-06-24,A2,,,51.91462439937831,-8.173243118095058,New Homes,EAST_CORK_CORK,http://www.daft.ie/new-home-for-sale/detached-house-type-b-pairc-an-chosain-pairc-an-chosain-garryvoe-road-ladysbridge-co-cork/3811382
3806102,18702431,"Mary Street, Youghal, Co. Cork",175000.0,81,81 m²,3,1,Detached,2022-08-10,E1,109539742,337.82 kWh/m2/yr,51.950136,-7.844879,Buy,EAST_CORK_CORK,http://www.daft.ie/for-sale/detached-house-mary-street-youghal-co-cork/3806102
3804538,18685135,"5 The Willows, Gort an Oir, Castlemartyr, Midleton, Co. Cork",350000.0,141,141 m²,4,3,Detached,2022-08-10,C1,114356538,161.64 kWh/m2/yr,51.9135626,-8.0499937,Buy,EAST_CORK_CORK,http://www.daft.ie/for-sale/detached-house-5-the-willows-gort-an-oir-castlemartyr-midleton-co-cork/3804538
3799208,18640213,"Cobh Cross, Carrigtwohill, Co. Cork",315000.0,77,77 m²,3,1,Detached,2022-08-10,G,114815616,485.65 kWh/m2/yr,51.907512,-8.287321,Buy,EAST_CORK_CORK,http://www.daft.ie/for-sale/detached-house-cobh-cross-carrigtwohill-co-cork/3799208
3268971,15119902,"Lyre, Tallow",495000.0,N/A,,4,4,Detached,2022-07-29,C2,,,52.05509189854274,-8.030488812305236,Buy,EAST_CORK_CORK,http://www.daft.ie/for-sale/detached-house-lyre-tallow/3268971
2328403,9180774,"Elmbury, Carrigane, Carrigtwohill, Co. Cork",Price on Application,N/A,,3 & 4 bed,,Houses,2022-06-20,A2,,,51.91312984275672,-8.246178893304005,New Homes,EAST_CORK_CORK,http://www.daft.ie/new-home-for-sale/elmbury-carrigane-carrigtwohill-co-cork/2328403
3697962,17772296,"6 Ashwood Crescent, Ashlin Road, Midleton, Co. Cork",429950.0,N/A,,4,3,Detached,2022-08-10,D1,107373383,,51.907784,-8.166123,Buy,EAST_CORK_CORK,http://www.daft.ie/for-sale/detached-house-6-ashwood-crescent-ashlin-road-midleton-co-cork/3697962
3668434,17512325,"Aerie, Jamesbrook, Midleton, Co. Cork",680000.0,279,279 m²,4,3,Detached,2022-08-09,D1,,,51.858614,-8.198692,Buy,EAST_CORK_CORK,http://www.daft.ie/for-sale/detached-house-aerie-jamesbrook-midleton-co-cork/3668434
2835751,13281740,"Catherine Street, Youghal, Co. Cork",400000.0,123,123 m²,3,2,Detached,2022-05-23,F,111159182,438.56 kWh/m2/yr,51.954487,-7.847534,Buy,EAST_CORK_CORK,http://www.daft.ie/for-sale/detached-house-catherine-street-youghal-co-cork/2835751
3570336,16449341,"Rose Cottage, Rock Street, Cloyne, Midleton, Co. Cork",170000.0,98,98 m²,3,2,Detached,2022-07-18,E1,114413867,310.72 kWh/m2/yr,51.86305502585938,-8.120094507238122,Buy,EAST_CORK_CORK,http://www.daft.ie/for-sale/detached-house-rose-cottage-rock-street-cloyne-midleton-co-cork/3570336
3473034,15743425,"15 Bruach Abhainn, Mogeely, Midleton, Co. Cork",480000.0,N/A,,4,3,Detached,2022-08-10,B2,,,51.9331439378461,-8.043969351475056,Buy,EAST_CORK_CORK,http://www.daft.ie/for-sale/detached-house-15-bruach-abhainn-mogeely-midleton-co-cork/3473034
3462808,15644425,"Rockview, Rocky Road, Midleton, Co. Cork",695000.0,186,186 m²,4,2,Detached,2022-08-03,D2,107416307,,51.906359,-8.155012,Buy,EAST_CORK_CORK,http://www.daft.ie/for-sale/detached-house-rockview-rocky-road-midleton-co-cork/3462808
2875896,13556399,"No. 5 Bruach Abhainn, Mogeely, Castlemartyr, Co. Cork",480000.0,224,224 m²,4,3,Detached,2022-08-10,B2,,,51.9345761,-8.0562796,Buy,EAST_CORK_CORK,http://www.daft.ie/for-sale/detached-house-no-5-bruach-abhainn-mogeely-castlemartyr-co-cork/2875896
3184383,14469917,"17 Cois Na Criann, Ballymaloe Road, Midleton, Co. Cork",360000.0,165,165 m²,4,4,Detached,2022-08-10,A3,,,51.867807,-8.113621,Buy,EAST_CORK_CORK,http://www.daft.ie/for-sale/detached-house-17-cois-na-criann-ballymaloe-road-midleton-co-cork/3184383
3918895,19125818,"Aghern Upper, Fermoy, Co. Cork",168000.0,N/A,,2,1,Detached,2022-07-04,G,,,52.0973,-8.159625,Buy,EAST_CORK_CORK,http://www.daft.ie/for-sale/detached-house-aghern-upper-fermoy-co-cork/3918895
3904340,18997646,"Kilcrone Cottage, Kilcrone, Cloyne, Co. Cork",375000.0,N/A,,3,2,Detached,2022-08-05,G,101849594,566.37 kWh/m2/yr,51.854049,-8.117978,Buy,EAST_CORK_CORK,http://www.daft.ie/for-sale/detached-house-kilcrone-cottage-kilcrone-cloyne-co-cork/3904340
3903756,18989781,"1 The Fairways, Castle Rock, Midleton, Co. Cork",395000.0,156,156 m²,4,3,Detached,2022-08-10,B3,114499304,148.12 kWh/m2/yr,51.909671,-8.198613,Buy,EAST_CORK_CORK,http://www.daft.ie/for-sale/detached-house-1-the-fairways-castle-rock-midleton-co-cork/3903756
3894667,18898974,"39 Woodview, Killeagh, Co. Cork",300000.0,N/A,,3,3,Detached,2022-08-09,C1,,,51.939174,-7.990448,Buy,EAST_CORK_CORK,http://www.daft.ie/for-sale/detached-house-39-woodview-killeagh-co-cork/3894667
3894553,18897517,"Lahard, Whitegate, Co. Cork",250000.0,125,125 m²,3,2,Detached,2022-08-05,G,114865942,572.11 kWh/m2/yr,51.793689,-8.167409,Buy,EAST_CORK_CORK,http://www.daft.ie/for-sale/detached-house-lahard-whitegate-co-cork/3894553
3747428,18214398,"Laccarue, West End, Carrigtwohill, Co. Cork",350000.0,116,116 m²,3,3,Detached,2022-08-05,E1,114719461,308.15 kWh/m2/yr,51.909017,-8.26782,Buy,EAST_CORK_CORK,http://www.daft.ie/for-sale/detached-house-laccarue-west-end-carrigtwohill-co-cork/3747428
3819194,18809083,"66 Killeagh Gardens, Killeagh, Co. Cork",280000.0,N/A,,3,2,Detached,2022-08-09,SI_666,,,51.940967,-7.997695,Buy,EAST_CORK_CORK,http://www.daft.ie/for-sale/detached-house-66-killeagh-gardens-killeagh-co-cork/3819194
3811379,18739887,"Pairc an Chosain, Garryvoe Road, Ladysbridge, Co. Cork",475000.0,N/A,,4,3,Detached,2022-06-24,A2,,,51.91462439937831,-8.173243118095058,New Homes,EAST_CORK_CORK,http://www.daft.ie/new-home-for-sale/detached-house-type-a-pairc-an-chosain-pairc-an-chosain-garryvoe-road-ladysbridge-co-cork/3811379
3811380,18739888,"Pairc an Chosain, Garryvoe Road, Ladysbridge, Co. Cork",525000.0,N/A,,4,3,Detached,2022-06-24,A2,,,51.91462439937831,-8.173243118095058,New Homes,EAST_CORK_CORK,http://www.daft.ie/new-home-for-sale/detached-house-type-a1-pairc-an-chosain-pairc-an-chosain-garryvoe-road-ladysbridge-co-cork/3811380
3811382,18739889,"Pairc an Chosain, Garryvoe Road, Ladysbridge, Co. Cork",565000.0,N/A,,4,4,Detached,2022-06-24,A2,,,51.91462439937831,-8.173243118095058,New Homes,EAST_CORK_CORK,http://www.daft.ie/new-home-for-sale/detached-house-type-b-pairc-an-chosain-pairc-an-chosain-garryvoe-road-ladysbridge-co-cork/3811382
3806102,18702431,"Mary Street, Youghal, Co. Cork",175000.0,81,81 m²,3,1,Detached,2022-08-10,E1,109539742,337.82 kWh/m2/yr,51.950136,-7.844879,Buy,EAST_CORK_CORK,http://www.daft.ie/for-sale/detached-house-mary-street-youghal-co-cork/3806102
3804538,18685135,"5 The Willows, Gort an Oir, Castlemartyr, Midleton, Co. Cork",350000.0,141,141 m²,4,3,Detached,2022-08-10,C1,114356538,161.64 kWh/m2/yr,51.9135626,-8.0499937,Buy,EAST_CORK_CORK,http://www.daft.ie/for-sale/detached-house-5-the-willows-gort-an-oir-castlemartyr-midleton-co-cork/3804538
3799208,18640213,"Cobh Cross, Carrigtwohill, Co. Cork",315000.0,77,77 m²,3,1,Detached,2022-08-10,G,114815616,485.65 kWh/m2/yr,51.907512,-8.287321,Buy,EAST_CORK_CORK,http://www.daft.ie/for-sale/detached-house-cobh-cross-carrigtwohill-co-cork/3799208
3268971,15119902,"Lyre, Tallow",495000.0,N/A,,4,4,Detached,2022-07-29,C2,,,52.05509189854274,-8.030488812305236,Buy,EAST_CORK_CORK,http://www.daft.ie/for-sale/detached-house-lyre-tallow/3268971
2328403,9180774,"Elmbury, Carrigane, Carrigtwohill, Co. Cork",Price on Application,N/A,,3 & 4 bed,,Houses,2022-06-20,A2,,,51.91312984275672,-8.246178893304005,New Homes,EAST_CORK_CORK,http://www.daft.ie/new-home-for-sale/elmbury-carrigane-carrigtwohill-co-cork/2328403
3697962,17772296,"6 Ashwood Crescent, Ashlin Road, Midleton, Co. Cork",429950.0,N/A,,4,3,Detached,2022-08-10,D1,107373383,,51.907784,-8.166123,Buy,EAST_CORK_CORK,http://www.daft.ie/for-sale/detached-house-6-ashwood-crescent-ashlin-road-midleton-co-cork/3697962
3668434,17512325,"Aerie, Jamesbrook, Midleton, Co. Cork",680000.0,279,279 m²,4,3,Detached,2022-08-09,D1,,,51.858614,-8.198692,Buy,EAST_CORK_CORK,http://www.daft.ie/for-sale/detached-house-aerie-jamesbrook-midleton-co-cork/3668434
2835751,13281740,"Catherine Street, Youghal, Co. Cork",400000.0,123,123 m²,3,2,Detached,2022-05-23,F,111159182,438.56 kWh/m2/yr,51.954487,-7.847534,Buy,EAST_CORK_CORK,http://www.daft.ie/for-sale/detached-house-catherine-street-youghal-co-cork/2835751
3570336,16449341,"Rose Cottage, Rock Street, Cloyne, Midleton, Co. Cork",170000.0,98,98 m²,3,2,Detached,2022-07-18,E1,114413867,310.72 kWh/m2/yr,51.86305502585938,-8.120094507238122,Buy,EAST_CORK_CORK,http://www.daft.ie/for-sale/detached-house-rose-cottage-rock-street-cloyne-midleton-co-cork/3570336
3473034,15743425,"15 Bruach Abhainn, Mogeely, Midleton, Co. Cork",480000.0,N/A,,4,3,Detached,2022-08-10,B2,,,51.9331439378461,-8.043969351475056,Buy,EAST_CORK_CORK,http://www.daft.ie/for-sale/detached-house-15-bruach-abhainn-mogeely-midleton-co-cork/3473034
3462808,15644425,"Rockview, Rocky Road, Midleton, Co. Cork",695000.0,186,186 m²,4,2,Detached,2022-08-03,D2,107416307,,51.906359,-8.155012,Buy,EAST_CORK_CORK,http://www.daft.ie/for-sale/detached-house-rockview-rocky-road-midleton-co-cork/3462808
2875896,13556399,"No. 5 Bruach Abhainn, Mogeely, Castlemartyr, Co. Cork",480000.0,224,224 m²,4,3,Detached,2022-08-10,B2,,,51.9345761,-8.0562796,Buy,EAST_CORK_CORK,http://www.daft.ie/for-sale/detached-house-no-5-bruach-abhainn-mogeely-castlemartyr-co-cork/2875896
3184383,14469917,"17 Cois Na Criann, Ballymaloe Road, Midleton, Co. Cork",360000.0,165,165 m²,4,4,Detached,2022-08-10,A3,,,51.867807,-8.113621,Buy,EAST_CORK_CORK,http://www.daft.ie/for-sale/detached-house-17-cois-na-criann-ballymaloe-road-midleton-co-cork/3184383
3993335,112861116,"54 Ashbrook, Castlelake, Carrigtwohill, Co. Cork",239000.0,104,104 m²,3,3,Terrace,2022-08-10,B3,105397087,130.47 kWh/m2/yr,51.910754,-8.274093,Buy,EAST_CORK_CORK,http://www.daft.ie/for-sale/terraced-house-54-ashbrook-castlelake-carrigtwohill-co-cork/3993335
3991315,19737949,"Knockglass, Ladysbridge, Co. Cork",430000.0,218,218 m²,5,4,Detached,2022-08-05,C2,115359366,183.48 kWh/m2/yr,51.893215,-8.038898,Buy,EAST_CORK_CORK,http://www.daft.ie/for-sale/detached-house-knockglass-ladysbridge-co-cork/3991315
3992844,19757508,"34 Glebe Manor. At First Fix stage., Whitegate, Co. Cork",Price on Application,203,203 m²,5,4,Semi-D,2022-07-27,B2,,,51.822383,-8.231781,Buy,EAST_CORK_CORK,http://www.daft.ie/for-sale/semi-detached-house-34-glebe-manor-at-first-fix-stage-whitegate-co-cork/3992844
3992214,19750910,"4 Riverdowns, Ladysbridge, Co. Cork",230000.0,100,100 m²,3,2,Semi-D,2022-08-08,C1,115362915,,51.898981,-8.043816,Buy,EAST_CORK_CORK,http://www.daft.ie/for-sale/semi-detached-house-4-riverdowns-ladysbridge-co-cork/3992214
3992087,19749223,"90 Rooskagh Valley, Shanagarry, Midleton, Co. Cork",265000.0,109,109 m²,3,4,Semi-D,2022-08-10,C1,105995385,157043.0 kWh/m2/yr,51.855813,-8.029508,Buy,EAST_CORK_CORK,http://www.daft.ie/for-sale/semi-detached-house-90-rooskagh-valley-shanagarry-midleton-co-cork/3992087
3991732,19743774,"1 Lauriston Mews, The Park, Midleton, Co. Cork",275000.0,102,102 m²,3,3,End of Terrace,2022-08-08,C2,115222341,198.75 kWh/m2/yr,51.918223,-8.166848,Buy,EAST_CORK_CORK,http://www.daft.ie/for-sale/end-of-terrace-house-1-lauriston-mews-the-park-midleton-co-cork/3991732
3990700,19731468,"2 Flemings Court, Tallow Street, Youghal, Co. Cork",100000.0,33,33 m²,2,1,Townhouse,2022-07-21,G,115359093,,51.958358,-7.853469,Buy,EAST_CORK_CORK,http://www.daft.ie/for-sale/townhouse-2-flemings-court-tallow-street-youghal-co-cork/3990700
3990654,19729936,"5 Main Street, Carrigtwohill, Carrigtwohill, Co. Cork",300000.0,N/A,,3,3,Townhouse,2022-07-25,D1,,,51.909471,-8.261525,Buy,EAST_CORK_CORK,http://www.daft.ie/for-sale/townhouse-5-main-street-carrigtwohill-carrigtwohill-co-cork/3990654
3990127,19726010,"32 The Willows, Fota Rock, Carrigtwohill, Co. Cork",230000.0,72,72 m²,2,2,Terrace,2022-07-21,C1,114639560,161.75 kWh/m2/yr,51.911764,-8.250693,Buy,EAST_CORK_CORK,http://www.daft.ie/for-sale/terraced-house-32-the-willows-fota-rock-carrigtwohill-co-cork/3990127
3989557,19720240,"2 Castlemanor Crescent, Castlemartyr, Co. Cork",Price on Application,102,102 m²,3,3,Semi-D,2022-07-29,C3,115354888,214.27 kWh/m2/yr,51.910909,-8.050383,Buy,EAST_CORK_CORK,http://www.daft.ie/for-sale/semi-detached-house-2-castlemanor-crescent-castlemartyr-co-cork/3989557
3988501,19706857,"Main Street, Ballycotton, Midleton, Co. Cork",450000.0,158,158 m²,2,1,Semi-D,2022-08-05,C1,800848863,463.5 kWh/m2/yr,51.829813,-8.009867,Buy,EAST_CORK_CORK,http://www.daft.ie/for-sale/semi-detached-house-main-street-ballycotton-midleton-co-cork/3988501
3987334,19695083,"24 Cois Na Habhann, Midleton, Co. Cork",260000.0,N/A,,3,3,Semi-D,2022-08-10,B3,101014397,,51.8652,-8.118181,Buy,EAST_CORK_CORK,http://www.daft.ie/for-sale/semi-detached-house-24-cois-na-habhann-midleton-co-cork/3987334
3984861,19672171,"22 The Meadows, Té­r Cluain, Midleton, Co. Cork",285000.0,106,106 m²,3,3,Semi-D,2022-08-09,B3,113245013,126.18 kWh/m2/yr,51.930546,-8.189711,Buy,EAST_CORK_CORK,http://www.daft.ie/for-sale/semi-detached-house-22-the-meadows-t-r-cluain-midleton-co-cork/3984861
3984695,19671372,"12 Tom Clarke's Terrace, Midleton, Co. Cork",275000.0,106,106 m²,4,2,End of Terrace,2022-07-18,C3,108251463,201.83 kWh/m2/yr,51.920507,-8.171821,Buy,EAST_CORK_CORK,http://www.daft.ie/for-sale/end-of-terrace-house-12-tom-clarkes-terrace-midleton-co-cork/3984695
3982988,19650927,"Island View, Ballycrennane, Garryvoe, Co. Cork",220000.0,107,107 m²,3,1,Detached,2022-08-05,E2,115203119,363.24 kWh/m2/yr,51.871459,-7.970229,Buy,EAST_CORK_CORK,http://www.daft.ie/for-sale/detached-house-island-view-ballycrennane-garryvoe-co-cork/3982988
3983404,19655614,"Ballinaglogh, Midleton, Co. Cork",185000.0,63,63 m²,3,1,Detached,2022-07-18,G,114444615,640.46 kWh/m2/yr,51.979327,-8.277938,Buy,EAST_CORK_CORK,http://www.daft.ie/for-sale/detached-house-ballinaglogh-midleton-co-cork/3983404
3983385,19655558,"12 Ban Na Greine, Carrigtwohill, Co. Cork",245000.0,83,83 m²,3,2,Semi-D,2022-08-09,C3,,,51.909912,-8.263662,Buy,EAST_CORK_CORK,http://www.daft.ie/for-sale/semi-detached-house-12-ban-na-greine-carrigtwohill-co-cork/3983385
3983358,19653771,"66 The Willows, Gort An Óir, Castlemartyr, Co. Cork",245000.0,107,107 m²,3,3,Semi-D,2022-08-04,C1,114733454,161.63 kWh/m2/yr,51.914147,-8.049554,Buy,EAST_CORK_CORK,http://www.daft.ie/for-sale/semi-detached-house-66-the-willows-gort-an-ir-castlemartyr-co-cork/3983358
3983046,19650958,"16 Meadowlands, Broomfield, Midleton, Co. Cork",350000.0,111,111 m²,4,3,Semi-D,2022-08-03,C1,115350258,,51.925499,-8.16856,Buy,EAST_CORK_CORK,http://www.daft.ie/for-sale/semi-detached-house-16-meadowlands-broomfield-midleton-co-cork/3983046
3983002,19650934,"Beanfield, Youghal, Co. Cork",235000.0,N/A,,2,1,Detached,2022-08-10,C3,,,51.928215,-7.899451,Buy,EAST_CORK_CORK,http://www.daft.ie/for-sale/detached-house-beanfield-youghal-co-cork/3983002
3982508,19645132,"Barryscourt, Carrigtwohill, Midleton, Co. Cork",280000.0,102,102 m²,4,1,Detached,2022-08-10,F,115205544,104.53 kWh/m2/yr,51.901884,-8.256115,Buy,EAST_CORK_CORK,http://www.daft.ie/for-sale/detached-house-barryscourt-carrigtwohill-midleton-co-cork/3982508
3981015,19627953,"1 Wilmount Terrace, Cobh, Co. Cork",550000.0,137,137 m²,3,2,End of Terrace,2022-07-14,B2,,,51.852454,-8.283691,Buy,EAST_CORK_CORK,http://www.daft.ie/for-sale/end-of-terrace-house-1-wilmount-terrace-cobh-co-cork/3981015
3979659,19622657,"Curraheen, Ballymacoda, Co. Cork",425000.0,107,107 m²,4,1,Detached,2022-08-05,D2,112498332,285.81 kWh/m2/yr,51.917667,-7.963156,Buy,EAST_CORK_CORK,http://www.daft.ie/for-sale/detached-house-curraheen-ballymacoda-co-cork/3979659
3978523,19612265,"Ballinteosig, Killeagh, Co. Cork",495000.0,325,325 m²,5,4,Detached,2022-08-05,B2,115048035,104.39 kWh/m2/yr,52.000452,-8.007791,Buy,EAST_CORK_CORK,http://www.daft.ie/for-sale/detached-house-ballinteosig-killeagh-co-cork/3978523
3975605,19598036,"35 Harbour Row, Cobh, Co. Cork",485000.0,209,209 m²,4,3,Terrace,2022-07-12,SI_666,,,51.851404,-8.287117,Buy,EAST_CORK_CORK,http://www.daft.ie/for-sale/terraced-house-35-harbour-row-cobh-co-cork/3975605
3975496,19597992,"15 Saint Patrick's Square, Cobh, Co. Cork",140000.0,N/A,,3,1,Terrace,2022-08-08,G,,,51.855393,-8.278373,Buy,EAST_CORK_CORK,http://www.daft.ie/for-sale/terraced-house-15-saint-patricks-square-cobh-co-cork/3975496
3975378,19595666,"15 Saint Patrick's Square, Cobh, Co. Cork","AMV: €140,000",72,72 m²,3,1,End of Terrace,2022-08-10,G,,,51.855393,-8.278373,Buy,EAST_CORK_CORK,http://www.daft.ie/for-sale/end-of-terrace-house-15-saint-patricks-square-cobh-co-cork/3975378
3973858,19588038,"66 Willowbank Court, Midleton, Co. Cork",425000.0,130,130 m²,4,3,Detached,2022-08-05,C3,115232316,203.14 kWh/m2/yr,51.927527,-8.185418,Buy,EAST_CORK_CORK,http://www.daft.ie/for-sale/detached-house-66-willowbank-court-midleton-co-cork/3973858
3972412,19575032,"Merton Lodge, French's Walk, Cobh, Co. Cork",190000.0,56,56 m²,2,1,Detached,2022-07-19,SI_666,,,51.853204,-8.27867,Buy,EAST_CORK_CORK,http://www.daft.ie/for-sale/detached-house-merton-lodge-frenchs-walk-cobh-co-cork/3972412
3971464,19569084,"29 Saint Mary's Terrace, Midleton, Co. Cork",240000.0,75,75 m²,2,2,Terrace,2022-08-10,C1,113038590,162.21 kWh/m2/yr,51.907855,-8.167588,Buy,EAST_CORK_CORK,http://www.daft.ie/for-sale/terraced-house-29-saint-marys-terrace-midleton-co-cork/3971464
3971388,19569029,"16 Shanagarry Holiday Village, Shanagarry, Midleton, Co. Cork",230000.0,111,111 m²,4,2,Terrace,2022-08-10,C2,109930453,193.56 kWh/m2/yr,51.855736,-8.03203,Buy,EAST_CORK_CORK,http://www.daft.ie/for-sale/terraced-house-16-shanagarry-holiday-village-shanagarry-midleton-co-cork/3971388
3970374,19559819,"38 Oakbrook, Castlelake, Carrigtwohill, Co. Cork",220000.0,74,74 m²,2,2,Terrace,2022-08-10,C1,114356488,172.96 kWh/m2/yr,51.91096,-8.271957,Buy,EAST_CORK_CORK,http://www.daft.ie/for-sale/terraced-house-38-oakbrook-castlelake-carrigtwohill-co-cork/3970374
3969446,19553830,"5 Carraig Rí, Leamlara, Co. Cork",278000.0,115,115 m²,3,3,Semi-D,2022-08-08,C2,,,51.969854,-8.262999,Buy,EAST_CORK_CORK,http://www.daft.ie/for-sale/semi-detached-house-5-carraig-r-leamlara-co-cork/3969446
3967119,19530939,"Cluain Ard, Aghada Hall, Midleton, Co. Cork",325000.0,84,84 m²,3,1,Detached,2022-08-05,E1,115217580,322.91 kWh/m2/yr,51.840026,-8.221373,Buy,EAST_CORK_CORK,http://www.daft.ie/for-sale/detached-house-cluain-ard-aghada-hall-midleton-co-cork/3967119
3967736,19538392,"An Grianán, Main Street, Killeagh, Co. Cork",225000.0,118,118 m²,3,2,Semi-D,2022-08-08,E2,115219875,372.07 kWh/m2/yr,51.941001,-7.994413,Buy,EAST_CORK_CORK,http://www.daft.ie/for-sale/semi-detached-house-an-grian-n-main-street-killeagh-co-cork/3967736
3965596,19519890,"2 Grattan Street, Youghal, Co. Cork",275000.0,132,132 m²,4,1,End of Terrace,2022-08-10,E2,,341.16 kWh/m2/yr,51.953915,-7.847003,Buy,EAST_CORK_CORK,http://www.daft.ie/for-sale/end-of-terrace-house-2-grattan-street-youghal-co-cork/3965596
3965389,19518580,"Churchtown, Midleton, Co. Cork",369950.0,N/A,,4,2,Detached,2022-08-10,D1,114718984,,51.918381,-8.120906,Buy,EAST_CORK_CORK,http://www.daft.ie/for-sale/detached-house-churchtown-midleton-co-cork/3965389
3477385,15787662,"Kilclare House, Conna, Co. Cork",Price on Application,371,371 m²,5,6,Detached,2022-08-09,B1,,,52.089385,-8.133451,Buy,EAST_CORK_CORK,http://www.daft.ie/for-sale/detached-house-kilclare-house-conna-co-cork/3477385
3963881,19506960,"Ballydonaghmore, Dungourney, Co. Cork",450000.0,204,204 m²,4,3,Detached,2022-08-05,C1,115172843,157.43 kWh/m2/yr,51.97998,-8.098776,Buy,EAST_CORK_CORK,http://www.daft.ie/for-sale/detached-house-ballydonaghmore-dungourney-co-cork/3963881
3766211,18362949,"16 The Mews, Castle Rock, Midleton, Co. Cork",350000.0,135,135 m²,4,4,Semi-D,2022-08-05,C1,110354768,167.55 kWh/m2/yr,51.910632,-8.197884,Buy,EAST_CORK_CORK,http://www.daft.ie/for-sale/semi-detached-house-16-the-mews-castle-rock-midleton-co-cork/3766211
3960136,19472769,"40 Riverwalk, Té­r Cluain, Midleton, Co. Cork",275000.0,97,97 m²,3,3,Semi-D,2022-08-04,C1,115179137,153.74 kWh/m2/yr,51.929811,-8.18849,Buy,EAST_CORK_CORK,http://www.daft.ie/for-sale/semi-detached-house-40-riverwalk-t-r-cluain-midleton-co-cork/3960136
3963408,19502130,"12 Saint Mary's Terrace, Church Street, Youghal, Co. Cork",Price on Application,40,40 m²,1,1,Terrace,2022-07-29,G,,,51.95621,-7.852319,Buy,EAST_CORK_CORK,http://www.daft.ie/for-sale/terraced-house-12-saint-marys-terrace-church-street-youghal-co-cork/3963408
3959544,19467022,"19A Tim Daly Terrace, Midleton, Co. Cork",329000.0,141,141 m²,4,3,Semi-D,2022-08-10,C2,101731313,189.24 kWh/m2/yr,51.920431,-8.173386,Buy,EAST_CORK_CORK,http://www.daft.ie/for-sale/semi-detached-house-19a-tim-daly-terrace-midleton-co-cork/3959544
3958587,19456530,"Rock Cottage, Upper Strand, Youghal, Co. Cork",300000.0,91,91 m²,3,2,End of Terrace,2022-07-29,D2,115195372,278.03 kWh/m2/yr,51.940824,-7.844036,Buy,EAST_CORK_CORK,http://www.daft.ie/for-sale/end-of-terrace-house-rock-cottage-upper-strand-youghal-co-cork/3958587
3890151,18862453,"7 Siddons Court, Aghada, Co. Cork",245000.0,84,84 m²,3,3,Townhouse,2022-08-05,C1,114773757,174.71 kWh/m2/yr,51.842633,-8.208753,Buy,EAST_CORK_CORK,http://www.daft.ie/for-sale/townhouse-7-siddons-court-aghada-co-cork/3890151
3958068,19451785,"6 Cois Na Mara, Midleton, Co. Cork",285000.0,N/A,,3,2,Semi-D,2022-07-18,C1,,,51.830047,-8.225745,Buy,EAST_CORK_CORK,http://www.daft.ie/for-sale/semi-detached-house-6-cois-na-mara-midleton-co-cork/3958068
3956982,19443459,"4 The Park, Midleton, Co. Cork",130000.0,N/A,,2,1,Terrace,2022-07-18,G,,,51.917198,-8.16543,Buy,EAST_CORK_CORK,http://www.daft.ie/for-sale/terraced-house-4-the-park-midleton-co-cork/3956982
3956241,19434545,"11 Clonmult Terrace, Midleton, Co. Cork",195000.0,70,70 m²,2,1,Townhouse,2022-08-05,E2,111243093,363.56 kWh/m2/yr,51.917047,-8.167927,Buy,EAST_CORK_CORK,http://www.daft.ie/for-sale/townhouse-11-clonmult-terrace-midleton-co-cork/3956241
3955978,19432784,"30 An Caíreál, Cúl Árd, Carrigtwohill, Co. Cork",285000.0,89,89 m²,3,3,Semi-D,2022-07-18,C1,107633612,157.66 kWh/m2/yr,51.914817,-8.256824,Buy,EAST_CORK_CORK,http://www.daft.ie/for-sale/semi-detached-house-30-an-ca-re-l-c-l-rd-carrigtwohill-co-cork/3955978
3944538,19369009,"1 Courtville, Rocky Road, Midleton, Co. Cork",Price on Application,93,93 m²,3,1,Semi-D,2022-07-19,C2,115172819,193.6 kWh/m2/yr,51.90666,-8.16169,Buy,EAST_CORK_CORK,http://www.daft.ie/for-sale/semi-detached-house-1-courtville-rocky-road-midleton-co-cork/3944538
3993335,112861116,"54 Ashbrook, Castlelake, Carrigtwohill, Co. Cork",239000.0,104,104 m²,3,3,Terrace,2022-08-10,B3,105397087,130.47 kWh/m2/yr,51.910754,-8.274093,Buy,EAST_CORK_CORK,http://www.daft.ie/for-sale/terraced-house-54-ashbrook-castlelake-carrigtwohill-co-cork/3993335
3991315,19737949,"Knockglass, Ladysbridge, Co. Cork",430000.0,218,218 m²,5,4,Detached,2022-08-05,C2,115359366,183.48 kWh/m2/yr,51.893215,-8.038898,Buy,EAST_CORK_CORK,http://www.daft.ie/for-sale/detached-house-knockglass-ladysbridge-co-cork/3991315
3992844,19757508,"34 Glebe Manor. At First Fix stage., Whitegate, Co. Cork",Price on Application,203,203 m²,5,4,Semi-D,2022-07-27,B2,,,51.822383,-8.231781,Buy,EAST_CORK_CORK,http://www.daft.ie/for-sale/semi-detached-house-34-glebe-manor-at-first-fix-stage-whitegate-co-cork/3992844
3992214,19750910,"4 Riverdowns, Ladysbridge, Co. Cork",230000.0,100,100 m²,3,2,Semi-D,2022-08-08,C1,115362915,,51.898981,-8.043816,Buy,EAST_CORK_CORK,http://www.daft.ie/for-sale/semi-detached-house-4-riverdowns-ladysbridge-co-cork/3992214
3992087,19749223,"90 Rooskagh Valley, Shanagarry, Midleton, Co. Cork",265000.0,109,109 m²,3,4,Semi-D,2022-08-10,C1,105995385,157043.0 kWh/m2/yr,51.855813,-8.029508,Buy,EAST_CORK_CORK,http://www.daft.ie/for-sale/semi-detached-house-90-rooskagh-valley-shanagarry-midleton-co-cork/3992087
3991732,19743774,"1 Lauriston Mews, The Park, Midleton, Co. Cork",275000.0,102,102 m²,3,3,End of Terrace,2022-08-08,C2,115222341,198.75 kWh/m2/yr,51.918223,-8.166848,Buy,EAST_CORK_CORK,http://www.daft.ie/for-sale/end-of-terrace-house-1-lauriston-mews-the-park-midleton-co-cork/3991732
3990700,19731468,"2 Flemings Court, Tallow Street, Youghal, Co. Cork",100000.0,33,33 m²,2,1,Townhouse,2022-07-21,G,115359093,,51.958358,-7.853469,Buy,EAST_CORK_CORK,http://www.daft.ie/for-sale/townhouse-2-flemings-court-tallow-street-youghal-co-cork/3990700
3990654,19729936,"5 Main Street, Carrigtwohill, Carrigtwohill, Co. Cork",300000.0,N/A,,3,3,Townhouse,2022-07-25,D1,,,51.909471,-8.261525,Buy,EAST_CORK_CORK,http://www.daft.ie/for-sale/townhouse-5-main-street-carrigtwohill-carrigtwohill-co-cork/3990654
3990127,19726010,"32 The Willows, Fota Rock, Carrigtwohill, Co. Cork",230000.0,72,72 m²,2,2,Terrace,2022-07-21,C1,114639560,161.75 kWh/m2/yr,51.911764,-8.250693,Buy,EAST_CORK_CORK,http://www.daft.ie/for-sale/terraced-house-32-the-willows-fota-rock-carrigtwohill-co-cork/3990127
3989557,19720240,"2 Castlemanor Crescent, Castlemartyr, Co. Cork",Price on Application,102,102 m²,3,3,Semi-D,2022-07-29,C3,115354888,214.27 kWh/m2/yr,51.910909,-8.050383,Buy,EAST_CORK_CORK,http://www.daft.ie/for-sale/semi-detached-house-2-castlemanor-crescent-castlemartyr-co-cork/3989557
3988501,19706857,"Main Street, Ballycotton, Midleton, Co. Cork",450000.0,158,158 m²,2,1,Semi-D,2022-08-05,C1,800848863,463.5 kWh/m2/yr,51.829813,-8.009867,Buy,EAST_CORK_CORK,http://www.daft.ie/for-sale/semi-detached-house-main-street-ballycotton-midleton-co-cork/3988501
3987334,19695083,"24 Cois Na Habhann, Midleton, Co. Cork",260000.0,N/A,,3,3,Semi-D,2022-08-10,B3,101014397,,51.8652,-8.118181,Buy,EAST_CORK_CORK,http://www.daft.ie/for-sale/semi-detached-house-24-cois-na-habhann-midleton-co-cork/3987334
3984861,19672171,"22 The Meadows, Té­r Cluain, Midleton, Co. Cork",285000.0,106,106 m²,3,3,Semi-D,2022-08-09,B3,113245013,126.18 kWh/m2/yr,51.930546,-8.189711,Buy,EAST_CORK_CORK,http://www.daft.ie/for-sale/semi-detached-house-22-the-meadows-t-r-cluain-midleton-co-cork/3984861
3984695,19671372,"12 Tom Clarke's Terrace, Midleton, Co. Cork",275000.0,106,106 m²,4,2,End of Terrace,2022-07-18,C3,108251463,201.83 kWh/m2/yr,51.920507,-8.171821,Buy,EAST_CORK_CORK,http://www.daft.ie/for-sale/end-of-terrace-house-12-tom-clarkes-terrace-midleton-co-cork/3984695
3982988,19650927,"Island View, Ballycrennane, Garryvoe, Co. Cork",220000.0,107,107 m²,3,1,Detached,2022-08-05,E2,115203119,363.24 kWh/m2/yr,51.871459,-7.970229,Buy,EAST_CORK_CORK,http://www.daft.ie/for-sale/detached-house-island-view-ballycrennane-garryvoe-co-cork/3982988
3983404,19655614,"Ballinaglogh, Midleton, Co. Cork",185000.0,63,63 m²,3,1,Detached,2022-07-18,G,114444615,640.46 kWh/m2/yr,51.979327,-8.277938,Buy,EAST_CORK_CORK,http://www.daft.ie/for-sale/detached-house-ballinaglogh-midleton-co-cork/3983404
3983385,19655558,"12 Ban Na Greine, Carrigtwohill, Co. Cork",245000.0,83,83 m²,3,2,Semi-D,2022-08-09,C3,,,51.909912,-8.263662,Buy,EAST_CORK_CORK,http://www.daft.ie/for-sale/semi-detached-house-12-ban-na-greine-carrigtwohill-co-cork/3983385
3983358,19653771,"66 The Willows, Gort An Óir, Castlemartyr, Co. Cork",245000.0,107,107 m²,3,3,Semi-D,2022-08-04,C1,114733454,161.63 kWh/m2/yr,51.914147,-8.049554,Buy,EAST_CORK_CORK,http://www.daft.ie/for-sale/semi-detached-house-66-the-willows-gort-an-ir-castlemartyr-co-cork/3983358
3983046,19650958,"16 Meadowlands, Broomfield, Midleton, Co. Cork",350000.0,111,111 m²,4,3,Semi-D,2022-08-03,C1,115350258,,51.925499,-8.16856,Buy,EAST_CORK_CORK,http://www.daft.ie/for-sale/semi-detached-house-16-meadowlands-broomfield-midleton-co-cork/3983046
3983002,19650934,"Beanfield, Youghal, Co. Cork",235000.0,N/A,,2,1,Detached,2022-08-10,C3,,,51.928215,-7.899451,Buy,EAST_CORK_CORK,http://www.daft.ie/for-sale/detached-house-beanfield-youghal-co-cork/3983002
3982508,19645132,"Barryscourt, Carrigtwohill, Midleton, Co. Cork",280000.0,102,102 m²,4,1,Detached,2022-08-10,F,115205544,104.53 kWh/m2/yr,51.901884,-8.256115,Buy,EAST_CORK_CORK,http://www.daft.ie/for-sale/detached-house-barryscourt-carrigtwohill-midleton-co-cork/3982508
3981015,19627953,"1 Wilmount Terrace, Cobh, Co. Cork",550000.0,137,137 m²,3,2,End of Terrace,2022-07-14,B2,,,51.852454,-8.283691,Buy,EAST_CORK_CORK,http://www.daft.ie/for-sale/end-of-terrace-house-1-wilmount-terrace-cobh-co-cork/3981015
3979659,19622657,"Curraheen, Ballymacoda, Co. Cork",425000.0,107,107 m²,4,1,Detached,2022-08-05,D2,112498332,285.81 kWh/m2/yr,51.917667,-7.963156,Buy,EAST_CORK_CORK,http://www.daft.ie/for-sale/detached-house-curraheen-ballymacoda-co-cork/3979659
3978523,19612265,"Ballinteosig, Killeagh, Co. Cork",495000.0,325,325 m²,5,4,Detached,2022-08-05,B2,115048035,104.39 kWh/m2/yr,52.000452,-8.007791,Buy,EAST_CORK_CORK,http://www.daft.ie/for-sale/detached-house-ballinteosig-killeagh-co-cork/3978523
3975605,19598036,"35 Harbour Row, Cobh, Co. Cork",485000.0,209,209 m²,4,3,Terrace,2022-07-12,SI_666,,,51.851404,-8.287117,Buy,EAST_CORK_CORK,http://www.daft.ie/for-sale/terraced-house-35-harbour-row-cobh-co-cork/3975605
3975496,19597992,"15 Saint Patrick's Square, Cobh, Co. Cork",140000.0,N/A,,3,1,Terrace,2022-08-08,G,,,51.855393,-8.278373,Buy,EAST_CORK_CORK,http://www.daft.ie/for-sale/terraced-house-15-saint-patricks-square-cobh-co-cork/3975496
3975378,19595666,"15 Saint Patrick's Square, Cobh, Co. Cork","AMV: €140,000",72,72 m²,3,1,End of Terrace,2022-08-10,G,,,51.855393,-8.278373,Buy,EAST_CORK_CORK,http://www.daft.ie/for-sale/end-of-terrace-house-15-saint-patricks-square-cobh-co-cork/3975378
3973858,19588038,"66 Willowbank Court, Midleton, Co. Cork",425000.0,130,130 m²,4,3,Detached,2022-08-05,C3,115232316,203.14 kWh/m2/yr,51.927527,-8.185418,Buy,EAST_CORK_CORK,http://www.daft.ie/for-sale/detached-house-66-willowbank-court-midleton-co-cork/3973858
3972412,19575032,"Merton Lodge, French's Walk, Cobh, Co. Cork",190000.0,56,56 m²,2,1,Detached,2022-07-19,SI_666,,,51.853204,-8.27867,Buy,EAST_CORK_CORK,http://www.daft.ie/for-sale/detached-house-merton-lodge-frenchs-walk-cobh-co-cork/3972412
3971464,19569084,"29 Saint Mary's Terrace, Midleton, Co. Cork",240000.0,75,75 m²,2,2,Terrace,2022-08-10,C1,113038590,162.21 kWh/m2/yr,51.907855,-8.167588,Buy,EAST_CORK_CORK,http://www.daft.ie/for-sale/terraced-house-29-saint-marys-terrace-midleton-co-cork/3971464
3971388,19569029,"16 Shanagarry Holiday Village, Shanagarry, Midleton, Co. Cork",230000.0,111,111 m²,4,2,Terrace,2022-08-10,C2,109930453,193.56 kWh/m2/yr,51.855736,-8.03203,Buy,EAST_CORK_CORK,http://www.daft.ie/for-sale/terraced-house-16-shanagarry-holiday-village-shanagarry-midleton-co-cork/3971388
3970374,19559819,"38 Oakbrook, Castlelake, Carrigtwohill, Co. Cork",220000.0,74,74 m²,2,2,Terrace,2022-08-10,C1,114356488,172.96 kWh/m2/yr,51.91096,-8.271957,Buy,EAST_CORK_CORK,http://www.daft.ie/for-sale/terraced-house-38-oakbrook-castlelake-carrigtwohill-co-cork/3970374
3969446,19553830,"5 Carraig Rí, Leamlara, Co. Cork",278000.0,115,115 m²,3,3,Semi-D,2022-08-08,C2,,,51.969854,-8.262999,Buy,EAST_CORK_CORK,http://www.daft.ie/for-sale/semi-detached-house-5-carraig-r-leamlara-co-cork/3969446
3967119,19530939,"Cluain Ard, Aghada Hall, Midleton, Co. Cork",325000.0,84,84 m²,3,1,Detached,2022-08-05,E1,115217580,322.91 kWh/m2/yr,51.840026,-8.221373,Buy,EAST_CORK_CORK,http://www.daft.ie/for-sale/detached-house-cluain-ard-aghada-hall-midleton-co-cork/3967119
3967736,19538392,"An Grianán, Main Street, Killeagh, Co. Cork",225000.0,118,118 m²,3,2,Semi-D,2022-08-08,E2,115219875,372.07 kWh/m2/yr,51.941001,-7.994413,Buy,EAST_CORK_CORK,http://www.daft.ie/for-sale/semi-detached-house-an-grian-n-main-street-killeagh-co-cork/3967736
3965596,19519890,"2 Grattan Street, Youghal, Co. Cork",275000.0,132,132 m²,4,1,End of Terrace,2022-08-10,E2,,341.16 kWh/m2/yr,51.953915,-7.847003,Buy,EAST_CORK_CORK,http://www.daft.ie/for-sale/end-of-terrace-house-2-grattan-street-youghal-co-cork/3965596
3965389,19518580,"Churchtown, Midleton, Co. Cork",369950.0,N/A,,4,2,Detached,2022-08-10,D1,114718984,,51.918381,-8.120906,Buy,EAST_CORK_CORK,http://www.daft.ie/for-sale/detached-house-churchtown-midleton-co-cork/3965389
3477385,15787662,"Kilclare House, Conna, Co. Cork",Price on Application,371,371 m²,5,6,Detached,2022-08-09,B1,,,52.089385,-8.133451,Buy,EAST_CORK_CORK,http://www.daft.ie/for-sale/detached-house-kilclare-house-conna-co-cork/3477385
3963881,19506960,"Ballydonaghmore, Dungourney, Co. Cork",450000.0,204,204 m²,4,3,Detached,2022-08-05,C1,115172843,157.43 kWh/m2/yr,51.97998,-8.098776,Buy,EAST_CORK_CORK,http://www.daft.ie/for-sale/detached-house-ballydonaghmore-dungourney-co-cork/3963881
3766211,18362949,"16 The Mews, Castle Rock, Midleton, Co. Cork",350000.0,135,135 m²,4,4,Semi-D,2022-08-05,C1,110354768,167.55 kWh/m2/yr,51.910632,-8.197884,Buy,EAST_CORK_CORK,http://www.daft.ie/for-sale/semi-detached-house-16-the-mews-castle-rock-midleton-co-cork/3766211
3960136,19472769,"40 Riverwalk, Té­r Cluain, Midleton, Co. Cork",275000.0,97,97 m²,3,3,Semi-D,2022-08-04,C1,115179137,153.74 kWh/m2/yr,51.929811,-8.18849,Buy,EAST_CORK_CORK,http://www.daft.ie/for-sale/semi-detached-house-40-riverwalk-t-r-cluain-midleton-co-cork/3960136
3963408,19502130,"12 Saint Mary's Terrace, Church Street, Youghal, Co. Cork",Price on Application,40,40 m²,1,1,Terrace,2022-07-29,G,,,51.95621,-7.852319,Buy,EAST_CORK_CORK,http://www.daft.ie/for-sale/terraced-house-12-saint-marys-terrace-church-street-youghal-co-cork/3963408
3959544,19467022,"19A Tim Daly Terrace, Midleton, Co. Cork",329000.0,141,141 m²,4,3,Semi-D,2022-08-10,C2,101731313,189.24 kWh/m2/yr,51.920431,-8.173386,Buy,EAST_CORK_CORK,http://www.daft.ie/for-sale/semi-detached-house-19a-tim-daly-terrace-midleton-co-cork/3959544
3958587,19456530,"Rock Cottage, Upper Strand, Youghal, Co. Cork",300000.0,91,91 m²,3,2,End of Terrace,2022-07-29,D2,115195372,278.03 kWh/m2/yr,51.940824,-7.844036,Buy,EAST_CORK_CORK,http://www.daft.ie/for-sale/end-of-terrace-house-rock-cottage-upper-strand-youghal-co-cork/3958587
3890151,18862453,"7 Siddons Court, Aghada, Co. Cork",245000.0,84,84 m²,3,3,Townhouse,2022-08-05,C1,114773757,174.71 kWh/m2/yr,51.842633,-8.208753,Buy,EAST_CORK_CORK,http://www.daft.ie/for-sale/townhouse-7-siddons-court-aghada-co-cork/3890151
3958068,19451785,"6 Cois Na Mara, Midleton, Co. Cork",285000.0,N/A,,3,2,Semi-D,2022-07-18,C1,,,51.830047,-8.225745,Buy,EAST_CORK_CORK,http://www.daft.ie/for-sale/semi-detached-house-6-cois-na-mara-midleton-co-cork/3958068
3956982,19443459,"4 The Park, Midleton, Co. Cork",130000.0,N/A,,2,1,Terrace,2022-07-18,G,,,51.917198,-8.16543,Buy,EAST_CORK_CORK,http://www.daft.ie/for-sale/terraced-house-4-the-park-midleton-co-cork/3956982
3956241,19434545,"11 Clonmult Terrace, Midleton, Co. Cork",195000.0,70,70 m²,2,1,Townhouse,2022-08-05,E2,111243093,363.56 kWh/m2/yr,51.917047,-8.167927,Buy,EAST_CORK_CORK,http://www.daft.ie/for-sale/townhouse-11-clonmult-terrace-midleton-co-cork/3956241
3955978,19432784,"30 An Caíreál, Cúl Árd, Carrigtwohill, Co. Cork",285000.0,89,89 m²,3,3,Semi-D,2022-07-18,C1,107633612,157.66 kWh/m2/yr,51.914817,-8.256824,Buy,EAST_CORK_CORK,http://www.daft.ie/for-sale/semi-detached-house-30-an-ca-re-l-c-l-rd-carrigtwohill-co-cork/3955978
3944538,19369009,"1 Courtville, Rocky Road, Midleton, Co. Cork",Price on Application,93,93 m²,3,1,Semi-D,2022-07-19,C2,115172819,193.6 kWh/m2/yr,51.90666,-8.16169,Buy,EAST_CORK_CORK,http://www.daft.ie/for-sale/semi-detached-house-1-courtville-rocky-road-midleton-co-cork/3944538
3945163,19373486,"Rathcuppogue, Midleton, Co. Cork",695000.0,451,451 m²,5,6,Detached,2022-08-05,B2,106482268,117.37 kWh/m2/yr,51.828325,-8.153798,Buy,EAST_CORK_CORK,http://www.daft.ie/for-sale/detached-house-rathcuppogue-midleton-co-cork/3945163
3945255,19373565,"4 Briarsfield, Saleen, Midleton, Co. Cork",595000.0,223,223 m²,4,3,Detached,2022-08-05,B3,115035040,136.13 kWh/m2/yr,51.864591,-8.166517,Buy,EAST_CORK_CORK,http://www.daft.ie/for-sale/detached-house-4-briarsfield-saleen-midleton-co-cork/3945255
3943584,19359169,"9 Bridgetown Mews, Castlemartyr, Co. Cork",235000.0,93,93 m²,3,3,Townhouse,2022-08-05,B3,113000582,144.75 kWh/m2/yr,51.909828,-8.047607,Buy,EAST_CORK_CORK,http://www.daft.ie/for-sale/townhouse-9-bridgetown-mews-castlemartyr-co-cork/3943584
3946782,19391743,"42 Blueberry Fields, Broomfield, Midleton, Co. Cork",285000.0,94,94 m²,3,3,End of Terrace,2022-07-14,B3,115184848,144.96 kWh/m2/yr,51.922324,-8.171847,Buy,EAST_CORK_CORK,http://www.daft.ie/for-sale/end-of-terrace-house-42-blueberry-fields-broomfield-midleton-co-cork/3946782
3946746,19391719,"Greenpark, Aghada, Co. Cork",550000.0,158,158 m²,4,3,Detached,2022-08-09,B1,,,51.837524,-8.19825,Buy,EAST_CORK_CORK,http://www.daft.ie/for-sale/detached-house-greenpark-aghada-co-cork/3946746
3946144,19382825,"Sacre Coeur, Dark Road, Castleredmond, Midleton, Co. Cork",490000.0,150,150 m²,4,,Detached,2022-08-09,E2,109986216,359.81 kWh/m2/yr,51.902288,-8.16866,Buy,EAST_CORK_CORK,http://www.daft.ie/for-sale/detached-house-sacre-coeur-dark-road-castleredmond-midleton-co-cork/3946144
3944497,19368990,"2 Ardnahinch Bay, Shanagarry, Co. Cork",385000.0,163,163 m²,4,3,Detached,2022-08-05,B3,114621402,134.16 kWh/m2/yr,51.852467,-8.018433,Buy,EAST_CORK_CORK,http://www.daft.ie/for-sale/detached-house-2-ardnahinch-bay-shanagarry-co-cork/3944497
3944102,19365021,"13 Redbarn Cottages, Redbarn, Youghal, Co. Cork",170000.0,N/A,,3,2,Detached,2022-08-10,D2,108144627,,51.924856,-7.877155,Buy,EAST_CORK_CORK,http://www.daft.ie/for-sale/detached-house-13-redbarn-cottages-redbarn-youghal-co-cork/3944102
3943913,19363391,"19 Curragh Glen, Upper Aghada, Midleton, Co. Cork",240000.0,105,105 m²,3,3,Terrace,2022-08-10,B3,115187106,130.47 kWh/m2/yr,51.8364205,-8.2089998,Buy,EAST_CORK_CORK,http://www.daft.ie/for-sale/terraced-house-19-curragh-glen-upper-aghada-midleton-co-cork/3943913
3942618,19348191,"44 Oakbrook, Castlelake, Carrigtwohill, Co. Cork",240000.0,107,107 m²,3,3,Terrace,2022-07-14,C1,111278578,158.08 kWh/m2/yr,51.910707,-8.272429,Buy,EAST_CORK_CORK,http://www.daft.ie/for-sale/terraced-house-44-oakbrook-castlelake-carrigtwohill-co-cork/3942618
3935967,19282742,"An Sraidbhaile, Castlemartyr, Co. Cork",299000.0,N/A,,3,3,Terrace,2022-08-02,A2,,,51.9119477,-8.0535486,New Homes,EAST_CORK_CORK,http://www.daft.ie/new-home-for-sale/terraced-house-phase-2-mid-terrace-an-sraidbhaile-an-sraidbhaile-castlemartyr-co-cork/3935967
3935964,19282743,"An Sraidbhaile, Castlemartyr, Co. Cork",305000.0,N/A,,3,3,End of Terrace,2022-08-02,A2,,,51.9119477,-8.0535486,New Homes,EAST_CORK_CORK,http://www.daft.ie/new-home-for-sale/end-of-terrace-house-phase-2-end-of-terrace-an-sraidbhaile-an-sraidbhaile-castlemartyr-co-cork/3935964
3935965,19282741,"An Sraidbhaile, Castlemartyr, Co. Cork",315000.0,N/A,,3,3,End of Terrace,2022-08-02,A2,,,51.9119477,-8.0535486,New Homes,EAST_CORK_CORK,http://www.daft.ie/new-home-for-sale/end-of-terrace-house-phase-1-an-sraidbhaile-an-sraidbhaile-castlemartyr-co-cork/3935965
3941340,19337408,"Windsor Hill, Glounthaune, Co. Cork",625000.0,372,372 m²,6,7,Detached,2022-08-02,C1,108433533,,51.92001,-8.308278,Buy,EAST_CORK_CORK,http://www.daft.ie/for-sale/detached-house-windsor-hill-glounthaune-co-cork/3941340
3940980,19333276,"2 Hazlecourt, Castlelake, Carrigtwohill, Co. Cork",250000.0,87,87 m²,3,2,Terrace,2022-08-09,B3,,,51.911265,-8.274082,Buy,EAST_CORK_CORK,http://www.daft.ie/for-sale/terraced-house-2-hazlecourt-castlelake-carrigtwohill-co-cork/3940980
3940419,19327471,"Assumpta, Pearse Square, Youghal, Co. Cork",398000.0,158,158 m²,5,2,Semi-D,2022-08-10,,,,51.949615,-7.8435,Buy,EAST_CORK_CORK,http://www.daft.ie/for-sale/semi-detached-house-assumpta-pearse-square-youghal-co-cork/3940419
3940191,19324301,"Ballymore Lodge, Valley Road, Cobh, Co. Cork",1750000.0,284,284 m²,5,2,Detached,2022-06-20,D2,106776099,295.05 kWh/m2/yr,51.857175,-8.249325,Buy,EAST_CORK_CORK,http://www.daft.ie/for-sale/detached-house-ballymore-lodge-valley-road-cobh-co-cork/3940191
3940124,19323245,"3 The Courtyard, Meadow Lane. Whitegate., Whitegate, Co. Cork",295000.0,103,103 m²,3,3,Semi-D,2022-07-23,C2,109044396,176.78 kWh/m2/yr,51.825199549131725,-8.231662197862704,Buy,EAST_CORK_CORK,http://www.daft.ie/for-sale/semi-detached-house-3-the-courtyard-meadow-lane-whitegate-whitegate-co-cork/3940124
3938875,19312235,"Ballymore Lodge, Valley Road, Ballymore, Cobh, Co. Cork",1750000.0,284,284 m²,5,2,Detached,2022-08-10,D2,106776099,295.05 kWh/m2/yr,51.857175,-8.249325,Buy,EAST_CORK_CORK,http://www.daft.ie/for-sale/detached-house-ballymore-lodge-valley-road-ballymore-cobh-co-cork/3938875
3938843,19312191,"Castlewood, Ladysbridge, Midleton, Co. Cork",320000.0,111,111 m²,3,1,Detached,2022-08-10,F,109996942,446.5 kWh/m2/yr,51.8986209,-8.0258412,Buy,EAST_CORK_CORK,http://www.daft.ie/for-sale/detached-house-castlewood-ladysbridge-midleton-co-cork/3938843
3936061,19284263,"58 St. Mary's Road, Midleton, Co. Cork",225000.0,79,79 m²,3,1,Townhouse,2022-08-05,F,110188901,416.12 kWh/m2/yr,51.909939,-8.169332,Buy,EAST_CORK_CORK,http://www.daft.ie/for-sale/townhouse-58-st-marys-road-midleton-co-cork/3936061
3933419,19258523,"8 Meadowlands, Broomfield, Midleton, Co. Cork",360000.0,121,121 m²,4,3,Semi-D,2022-08-05,B3,108533548,131.76 kWh/m2/yr,51.925414,-8.169329,Buy,EAST_CORK_CORK,http://www.daft.ie/for-sale/semi-detached-house-8-meadowlands-broomfield-midleton-co-cork/3933419
3933269,19257014,"7 Dun Orga, Cloyne, Midleton, Co. Cork",185000.0,89,89 m²,3,2,Semi-D,2022-08-10,C3,114492861,213.31 kWh/m2/yr,51.8631202,-8.1246829,Buy,EAST_CORK_CORK,http://www.daft.ie/for-sale/semi-detached-house-7-dun-orga-cloyne-midleton-co-cork/3933269
3931299,19237663,"9 Bramble Close, Castlelake, Carrigtwohill, Co. Cork",430000.0,143,143 m²,4,3,Detached,2022-08-05,C1,114664634,169.92 kWh/m2/yr,51.912481,-8.275009,Buy,EAST_CORK_CORK,http://www.daft.ie/for-sale/detached-house-9-bramble-close-castlelake-carrigtwohill-co-cork/3931299
3928025,19207908,"6 Courseside Lodges, Fota Island Resort, Fota, Co. Cork",485000.0,131,131 m²,3,3,Detached,2022-06-21,C3,110740081,221.78 kWh/m2/yr,51.895334,-8.285834,Buy,EAST_CORK_CORK,http://www.daft.ie/for-sale/detached-house-6-courseside-lodges-fota-island-resort-fota-co-cork/3928025
3929493,19224310,"34 Oakbrook, Castlelake, Carrigtwohill, Co. Cork",240000.0,113,113 m²,3,3,Terrace,2022-08-10,C1,110184124,163.54 kWh/m2/yr,51.911135,-8.271863,Buy,EAST_CORK_CORK,http://www.daft.ie/for-sale/terraced-house-34-oakbrook-castlelake-carrigtwohill-co-cork/3929493
3929435,19224281,"Carraig An Mhuilinn, Kilva, Midleton, Co. Cork",495000.0,187,187 m²,4,3,Detached,2022-08-05,C3,114821515,221.59 kWh/m2/yr,51.874553,-8.151539,Buy,EAST_CORK_CORK,http://www.daft.ie/for-sale/detached-house-carraig-an-mhuilinn-kilva-midleton-co-cork/3929435
3929267,19222609,"1 Dolphin's Mews, Youghal, Co. Cork",280000.0,87,87 m²,3,1,End of Terrace,2022-06-16,D1,,,51.956485,-7.850503,Buy,EAST_CORK_CORK,http://www.daft.ie/for-sale/end-of-terrace-house-1-dolphins-mews-youghal-co-cork/3929267
3928546,19213367,"42 Rocklands, Carrigtwohill, Co. Cork",335000.0,120,120 m²,3,3,Semi-D,2022-08-10,C3,115019242,204.05 kWh/m2/yr,51.913444,-8.25275,Buy,EAST_CORK_CORK,http://www.daft.ie/for-sale/semi-detached-house-42-rocklands-carrigtwohill-co-cork/3928546
3928350,19210915,"13 An Guagán, Cúl Árd, Carrigtwohill, Co. Cork",240000.0,N/A,,2,2,Terrace,2022-08-09,B3,,,51.914536,-8.255198,Buy,EAST_CORK_CORK,http://www.daft.ie/for-sale/terraced-house-13-an-guag-n-c-l-rd-carrigtwohill-co-cork/3928350
3927070,19198917,"34 Carraig Rí, Leamlara, Co. Cork",268000.0,93,93 m²,3,1,Semi-D,2022-08-08,C2,,,51.971196,-8.263314,Buy,EAST_CORK_CORK,http://www.daft.ie/for-sale/semi-detached-house-34-carraig-r-leamlara-co-cork/3927070
3926889,19196767,"19 Roches Terrace, Midleton, Co. Cork",295000.0,108,108 m²,4,2,Terrace,2022-08-10,C1,109218255,164.77 kWh/m2/yr,51.919189,-8.172976,Buy,EAST_CORK_CORK,http://www.daft.ie/for-sale/terraced-house-19-roches-terrace-midleton-co-cork/3926889
3923661,19162849,"20 Oakhill, Youghal, Youghal, Co. Cork",249000.0,98,98 m²,3,2,Semi-D,2022-07-01,C2,,,51.95488818554372,-7.86847332526898,Buy,EAST_CORK_CORK,http://www.daft.ie/for-sale/semi-detached-house-20-oakhill-youghal-youghal-co-cork/3923661
3924038,19168236,"10 The Pines, Fota Rock, Carrigtwohill, Co. Cork",224950.0,N/A,,2,1,Terrace,2022-08-10,B3,106460223,,51.910517,-8.249677,Buy,EAST_CORK_CORK,http://www.daft.ie/for-sale/terraced-house-10-the-pines-fota-rock-carrigtwohill-co-cork/3924038
3923161,19160004,"16 Main Street, Rostellan, Co. Cork",195000.0,70,70 m²,2,2,Townhouse,2022-06-06,C2,115030116,192.09 kWh/m2/yr,51.844276,-8.192638,Buy,EAST_CORK_CORK,http://www.daft.ie/for-sale/townhouse-16-main-street-rostellan-co-cork/3923161
3920400,19140858,"St. Martins, Ightermurragh, Ladysbridge, Co. Cork",265000.0,N/A,,2,1,Detached,2022-08-05,G,,,51.898723,-8.027051,Buy,EAST_CORK_CORK,http://www.daft.ie/for-sale/detached-house-st-martins-ightermurragh-ladysbridge-co-cork/3920400
3920733,19142951,"Ballintubber, Carrigtwohill, Co. Cork",330000.0,46,46 m²,2,1,Detached,2022-08-03,G,,,51.896417,-8.23107,Buy,EAST_CORK_CORK,http://www.daft.ie/for-sale/detached-house-ballintubber-carrigtwohill-co-cork/3920733
3918895,19125818,"Aghern Upper, Fermoy, Co. Cork",168000.0,N/A,,2,1,Detached,2022-07-04,G,,,52.0973,-8.159625,Buy,EAST_CORK_CORK,http://www.daft.ie/for-sale/detached-house-aghern-upper-fermoy-co-cork/3918895
3915896,19098337,"10 Seaview, Rostellan, Co. Cork",179000.0,N/A,,2,1,Terrace,2022-08-10,C3,101045201,224.62 kWh/m2/yr,51.844332,-8.19211,Buy,EAST_CORK_CORK,http://www.daft.ie/for-sale/terraced-house-10-seaview-rostellan-co-cork/3915896
3909754,19045703,"16 Willowfields, Ladysbridge, Co. Cork",260000.0,93,93 m²,3,3,Semi-D,2022-08-05,C2,114860497,188.1 kWh/m2/yr,51.899599,-8.042397,Buy,EAST_CORK_CORK,http://www.daft.ie/for-sale/semi-detached-house-16-willowfields-ladysbridge-co-cork/3909754
3911007,19060446,"16 Primrose Banks, Cois Máigh, Mogeely, Co. Cork",250000.0,107,107 m²,4,1,Semi-D,2022-08-08,B3,,,51.928129,-8.054745,Buy,EAST_CORK_CORK,http://www.daft.ie/for-sale/semi-detached-house-16-primrose-banks-cois-m-igh-mogeely-co-cork/3911007
3910096,19049286,"61/62 South Main Street, Youghal, Co. Cork",159000.0,137,137 m²,4,2,Terrace,2022-08-10,C3,800588337,1000.61 kWh/m2/yr,51.95271,-7.846644,Buy,EAST_CORK_CORK,http://www.daft.ie/for-sale/terraced-house-61-62-south-main-street-youghal-co-cork/3910096
3908075,19029124,"29 Na Bánta, Ladysbridge, Co. Cork",220000.0,90,90 m²,3,3,Terrace,2022-07-11,B3,114786478,131.97 kWh/m2/yr,51.900144,-8.042597,Buy,EAST_CORK_CORK,http://www.daft.ie/for-sale/terraced-house-29-na-b-nta-ladysbridge-co-cork/3908075
3904340,18997646,"Kilcrone Cottage, Kilcrone, Cloyne, Co. Cork",375000.0,N/A,,3,2,Detached,2022-08-05,G,101849594,566.37 kWh/m2/yr,51.854049,-8.117978,Buy,EAST_CORK_CORK,http://www.daft.ie/for-sale/detached-house-kilcrone-cottage-kilcrone-cloyne-co-cork/3904340
3903756,18989781,"1 The Fairways, Castle Rock, Midleton, Co. Cork",395000.0,156,156 m²,4,3,Detached,2022-08-10,B3,114499304,148.12 kWh/m2/yr,51.909671,-8.198613,Buy,EAST_CORK_CORK,http://www.daft.ie/for-sale/detached-house-1-the-fairways-castle-rock-midleton-co-cork/3903756
3900581,18960565,"1 Spital Street, Cloyne, Co. Cork",200000.0,N/A,,2,2,Semi-D,2022-08-09,D2,,,51.862387,-8.123496,Buy,EAST_CORK_CORK,http://www.daft.ie/for-sale/semi-detached-house-1-spital-street-cloyne-co-cork/3900581
3900381,18959533,"11 Harbour Terrace, Cobh, Co. Cork",280000.0,109,109 m²,3,2,End of Terrace,2022-08-02,G,114868722,146.93 kWh/m2/yr,51.851889,-8.283806,Buy,EAST_CORK_CORK,http://www.daft.ie/for-sale/end-of-terrace-house-11-harbour-terrace-cobh-co-cork/3900381
3896754,18918924,"5 Cypress Circus, Broomfield, Midleton, Co. Cork",350000.0,125,125 m²,4,3,Semi-D,2022-08-05,B2,114839301,123.04 kWh/m2/yr,51.923876,-8.170111,Buy,EAST_CORK_CORK,http://www.daft.ie/for-sale/semi-detached-house-5-cypress-circus-broomfield-midleton-co-cork/3896754
3898213,18931078,"16 Bridgetown Drive, Castlemartyr, Co. Cork",215000.0,93,93 m²,3,2,Semi-D,2022-08-05,C3,114844301,200.77 kWh/m2/yr,51.909447,-8.047881,Buy,EAST_CORK_CORK,http://www.daft.ie/for-sale/semi-detached-house-16-bridgetown-drive-castlemartyr-co-cork/3898213
3894667,18898974,"39 Woodview, Killeagh, Co. Cork",300000.0,N/A,,3,3,Detached,2022-08-09,C1,,,51.939174,-7.990448,Buy,EAST_CORK_CORK,http://www.daft.ie/for-sale/detached-house-39-woodview-killeagh-co-cork/3894667
3894553,18897517,"Lahard, Whitegate, Co. Cork",250000.0,125,125 m²,3,2,Detached,2022-08-05,G,114865942,572.11 kWh/m2/yr,51.793689,-8.167409,Buy,EAST_CORK_CORK,http://www.daft.ie/for-sale/detached-house-lahard-whitegate-co-cork/3894553
3747428,18214398,"Laccarue, West End, Carrigtwohill, Co. Cork",350000.0,116,116 m²,3,3,Detached,2022-08-05,E1,114719461,308.15 kWh/m2/yr,51.909017,-8.26782,Buy,EAST_CORK_CORK,http://www.daft.ie/for-sale/detached-house-laccarue-west-end-carrigtwohill-co-cork/3747428
3892331,18883238,"21 Marine Gates, Cobh, Co. Cork",260000.0,102,102 m²,3,4,Terrace,2022-06-09,B3,,,51.853354,-8.279673,Buy,EAST_CORK_CORK,http://www.daft.ie/for-sale/terraced-house-21-marine-gates-cobh-co-cork/3892331
3890929,18869745,"54 Ryan and Ahern Place, Carrigtwohill, Co. Cork",250000.0,110,110 m²,3,1,Terrace,2022-07-25,C1,,,51.910246,-8.267472,Buy,EAST_CORK_CORK,http://www.daft.ie/for-sale/terraced-house-54-ryan-and-ahern-place-carrigtwohill-co-cork/3890929
3821148,18826484,"6 An Lantán, Cúl Árd, Carrigtwohill, Co. Cork",295000.0,88,88 m²,3,2,Semi-D,2022-05-13,C1,112839618,153.8 kWh/m2/yr,51.914448,-8.252922,Buy,EAST_CORK_CORK,http://www.daft.ie/for-sale/semi-detached-house-6-an-lant-n-c-l-rd-carrigtwohill-co-cork/3821148
3820600,18821558,"26 Saint Mary's Terrace, Midleton, Co. Cork",219950.0,N/A,,3,1,Terrace,2022-08-10,D2,105471403,,51.907892,-8.167381,Buy,EAST_CORK_CORK,http://www.daft.ie/for-sale/terraced-house-26-saint-marys-terrace-midleton-co-cork/3820600
3819194,18809083,"66 Killeagh Gardens, Killeagh, Co. Cork",280000.0,N/A,,3,2,Detached,2022-08-09,SI_666,,,51.940967,-7.997695,Buy,EAST_CORK_CORK,http://www.daft.ie/for-sale/detached-house-66-killeagh-gardens-killeagh-co-cork/3819194
3816803,18787811,"No. 2 Pairc na hAbhann, Cloyne, Midleton, Co. Cork",265000.0,171,171 m²,4,3,Semi-D,2022-08-10,C1,108108812,165.88 kWh/m2/yr,51.86566,-8.119386,Buy,EAST_CORK_CORK,http://www.daft.ie/for-sale/semi-detached-house-no-2-pairc-na-habhann-cloyne-midleton-co-cork/3816803
3815297,18774123,"47 Harbour Row, Cobh, Co. Cork",260000.0,95,95 m²,3,1,Terrace,2022-08-10,D1,114301765,244.69 kWh/m2/yr,51.851602,-8.28577,Buy,EAST_CORK_CORK,http://www.daft.ie/for-sale/terraced-house-47-harbour-row-cobh-co-cork/3815297
3812902,18752526,"1 Old Dairy, Ballinacurra, Midleton, Co. Cork",295000.0,111,111 m²,3,3,Semi-D,2022-08-10,C2,102717618,181.63 kWh/m2/yr,51.897497,-8.165108,Buy,EAST_CORK_CORK,http://www.daft.ie/for-sale/semi-detached-house-1-old-dairy-ballinacurra-midleton-co-cork/3812902
3811383,18739891,"Pairc an Chosain, Garryvoe Road, Ladysbridge, Co. Cork",365000.0,N/A,,3,3,Semi-D,2022-06-24,A2,,,51.91462439937831,-8.173243118095058,New Homes,EAST_CORK_CORK,http://www.daft.ie/new-home-for-sale/semi-detached-house-type-e-pairc-an-chosain-pairc-an-chosain-garryvoe-road-ladysbridge-co-cork/3811383
3811381,18739890,"Pairc an Chosain, Garryvoe Road, Ladysbridge, Co. Cork",395000.0,N/A,,4,3,Semi-D,2022-06-24,A2,,,51.91462439937831,-8.173243118095058,New Homes,EAST_CORK_CORK,http://www.daft.ie/new-home-for-sale/semi-detached-house-type-c-pairc-an-chosain-pairc-an-chosain-garryvoe-road-ladysbridge-co-cork/3811381
3811379,18739887,"Pairc an Chosain, Garryvoe Road, Ladysbridge, Co. Cork",475000.0,N/A,,4,3,Detached,2022-06-24,A2,,,51.91462439937831,-8.173243118095058,New Homes,EAST_CORK_CORK,http://www.daft.ie/new-home-for-sale/detached-house-type-a-pairc-an-chosain-pairc-an-chosain-garryvoe-road-ladysbridge-co-cork/3811379
3811380,18739888,"Pairc an Chosain, Garryvoe Road, Ladysbridge, Co. Cork",525000.0,N/A,,4,3,Detached,2022-06-24,A2,,,51.91462439937831,-8.173243118095058,New Homes,EAST_CORK_CORK,http://www.daft.ie/new-home-for-sale/detached-house-type-a1-pairc-an-chosain-pairc-an-chosain-garryvoe-road-ladysbridge-co-cork/3811380
3811382,18739889,"Pairc an Chosain, Garryvoe Road, Ladysbridge, Co. Cork",565000.0,N/A,,4,4,Detached,2022-06-24,A2,,,51.91462439937831,-8.173243118095058,New Homes,EAST_CORK_CORK,http://www.daft.ie/new-home-for-sale/detached-house-type-b-pairc-an-chosain-pairc-an-chosain-garryvoe-road-ladysbridge-co-cork/3811382
3578539,16545384,"Seascape, 22 A Harbour View, Cobh, Co. Cork","AMV: €190,000",130,130 m²,4,2,End of Terrace,2022-08-10,E2,,,51.851707,-8.286549,Buy,EAST_CORK_CORK,http://www.daft.ie/for-sale/end-of-terrace-house-seascape-22-a-harbour-view-cobh-co-cork/3578539
3811129,18738373,"19B The Park, Midleton, Co. Cork",299950.0,100,100 m²,3,2,Townhouse,2022-08-10,B3,101662021,28.09 kWh/m2/yr,51.918047,-8.166172,Buy,EAST_CORK_CORK,http://www.daft.ie/for-sale/townhouse-19b-the-park-midleton-co-cork/3811129
3806102,18702431,"Mary Street, Youghal, Co. Cork",175000.0,81,81 m²,3,1,Detached,2022-08-10,E1,109539742,337.82 kWh/m2/yr,51.950136,-7.844879,Buy,EAST_CORK_CORK,http://www.daft.ie/for-sale/detached-house-mary-street-youghal-co-cork/3806102
3804538,18685135,"5 The Willows, Gort an Oir, Castlemartyr, Midleton, Co. Cork",350000.0,141,141 m²,4,3,Detached,2022-08-10,C1,114356538,161.64 kWh/m2/yr,51.9135626,-8.0499937,Buy,EAST_CORK_CORK,http://www.daft.ie/for-sale/detached-house-5-the-willows-gort-an-oir-castlemartyr-midleton-co-cork/3804538
3799208,18640213,"Cobh Cross, Carrigtwohill, Co. Cork",315000.0,77,77 m²,3,1,Detached,2022-08-10,G,114815616,485.65 kWh/m2/yr,51.907512,-8.287321,Buy,EAST_CORK_CORK,http://www.daft.ie/for-sale/detached-house-cobh-cross-carrigtwohill-co-cork/3799208
3268971,15119902,"Lyre, Tallow",495000.0,N/A,,4,4,Detached,2022-07-29,C2,,,52.05509189854274,-8.030488812305236,Buy,EAST_CORK_CORK,http://www.daft.ie/for-sale/detached-house-lyre-tallow/3268971
2328404,12531298,"Elmbury, Carrigane, Carrigtwohill, Co. Cork",Price on Application,N/A,,3,3,Semi-D,2022-06-20,A2,,,51.91312984275672,-8.246178893304005,New Homes,EAST_CORK_CORK,http://www.daft.ie/new-home-for-sale/semi-detached-house-the-cedar-elmbury-elmbury-carrigane-carrigtwohill-co-cork/2328404
2328405,12531299,"Elmbury, Carrigane, Carrigtwohill, Co. Cork",Price on Application,N/A,,3,3,Semi-D,2022-06-20,A2,,,51.91312984275672,-8.246178893304005,New Homes,EAST_CORK_CORK,http://www.daft.ie/new-home-for-sale/semi-detached-house-the-cherry-elmbury-elmbury-carrigane-carrigtwohill-co-cork/2328405
2328406,12531300,"Elmbury, Carrigane, Carrigtwohill, Co. Cork",Price on Application,N/A,,4,3,Semi-D,2022-06-20,A2,,,51.91312984275672,-8.246178893304005,New Homes,EAST_CORK_CORK,http://www.daft.ie/new-home-for-sale/semi-detached-house-the-wilson-elmbury-elmbury-carrigane-carrigtwohill-co-cork/2328406
3712566,17879002,"THE LONG POINT, Main Street, Whitegate, Co. Cork",480000.0,232,232 m²,6,4,Terrace,2022-07-01,C2,800801011,518.02 kWh/m2/yr,51.827046,-8.231416,Buy,EAST_CORK_CORK,http://www.daft.ie/for-sale/terraced-house-the-long-point-main-street-whitegate-co-cork/3712566
3705202,17820247,"O'Brien's Place, Youghal, Co. Cork",285000.0,102,102 m²,3,2,Semi-D,2022-05-18,F,,,51.947923,-7.842768,Buy,EAST_CORK_CORK,http://www.daft.ie/for-sale/semi-detached-house-obriens-place-youghal-co-cork/3705202
3600866,16778445,"3 Saint James Terrace, Church Road, Midleton, Co. Cork",198000.0,98,98 m²,2,1,Terrace,2022-08-08,E1,101523322,327.69 kWh/m2/yr,51.897885,-8.166167,Buy,EAST_CORK_CORK,http://www.daft.ie/for-sale/terraced-house-3-saint-james-terrace-church-road-midleton-co-cork/3600866
3697962,17772296,"6 Ashwood Crescent, Ashlin Road, Midleton, Co. Cork",429950.0,N/A,,4,3,Detached,2022-08-10,D1,107373383,,51.907784,-8.166123,Buy,EAST_CORK_CORK,http://www.daft.ie/for-sale/detached-house-6-ashwood-crescent-ashlin-road-midleton-co-cork/3697962
3691280,17717225,"41 O'Neill's Place, Cobh, Co. Cork",255000.0,108,108 m²,3,2,Terrace,2022-02-25,C2,107890952,,51.855849,-8.281053,Buy,EAST_CORK_CORK,http://www.daft.ie/for-sale/terraced-house-41-oneills-place-cobh-co-cork/3691280
3668434,17512325,"Aerie, Jamesbrook, Midleton, Co. Cork",680000.0,279,279 m²,4,3,Detached,2022-08-09,D1,,,51.858614,-8.198692,Buy,EAST_CORK_CORK,http://www.daft.ie/for-sale/detached-house-aerie-jamesbrook-midleton-co-cork/3668434
2835751,13281740,"Catherine Street, Youghal, Co. Cork",400000.0,123,123 m²,3,2,Detached,2022-05-23,F,111159182,438.56 kWh/m2/yr,51.954487,-7.847534,Buy,EAST_CORK_CORK,http://www.daft.ie/for-sale/detached-house-catherine-street-youghal-co-cork/2835751
3570336,16449341,"Rose Cottage, Rock Street, Cloyne, Midleton, Co. Cork",170000.0,98,98 m²,3,2,Detached,2022-07-18,E1,114413867,310.72 kWh/m2/yr,51.86305502585938,-8.120094507238122,Buy,EAST_CORK_CORK,http://www.daft.ie/for-sale/detached-house-rose-cottage-rock-street-cloyne-midleton-co-cork/3570336
3570297,16448795,"WISTERIA HOUSE, Wisteria House, Midleton, Co. Cork",600000.0,N/A,,8,8,Terrace,2022-07-18,SI_666,,,51.863213,-8.120379,Buy,EAST_CORK_CORK,http://www.daft.ie/for-sale/terraced-house-wisteria-house-wisteria-house-midleton-co-cork/3570297
3557565,16298055,"Mary Mount, 3 Emmet Place, Youghal, Co. Cork",570000.0,311,311 m²,6,3,Townhouse,2022-07-29,SI_666,,,51.955119,-7.851947,Buy,EAST_CORK_CORK,http://www.daft.ie/for-sale/townhouse-mary-mount-3-emmet-place-youghal-co-cork/3557565
3473034,15743425,"15 Bruach Abhainn, Mogeely, Midleton, Co. Cork",480000.0,N/A,,4,3,Detached,2022-08-10,B2,,,51.9331439378461,-8.043969351475056,Buy,EAST_CORK_CORK,http://www.daft.ie/for-sale/detached-house-15-bruach-abhainn-mogeely-midleton-co-cork/3473034
3462808,15644425,"Rockview, Rocky Road, Midleton, Co. Cork",695000.0,186,186 m²,4,2,Detached,2022-08-03,D2,107416307,,51.906359,-8.155012,Buy,EAST_CORK_CORK,http://www.daft.ie/for-sale/detached-house-rockview-rocky-road-midleton-co-cork/3462808
2875896,13556399,"No. 5 Bruach Abhainn, Mogeely, Castlemartyr, Co. Cork",480000.0,224,224 m²,4,3,Detached,2022-08-10,B2,,,51.9345761,-8.0562796,Buy,EAST_CORK_CORK,http://www.daft.ie/for-sale/detached-house-no-5-bruach-abhainn-mogeely-castlemartyr-co-cork/2875896
3184383,14469917,"17 Cois Na Criann, Ballymaloe Road, Midleton, Co. Cork",360000.0,165,165 m²,4,4,Detached,2022-08-10,A3,,,51.867807,-8.113621,Buy,EAST_CORK_CORK,http://www.daft.ie/for-sale/detached-house-17-cois-na-criann-ballymaloe-road-midleton-co-cork/3184383
113636,11768876,"47 North Main Street, Youghal, Co. Cork",230000.0,N/A,,5,3,Townhouse,2022-07-29,,,,51.954644,-7.849076,Buy,EAST_CORK_CORK,http://www.daft.ie/for-sale/townhouse-47-north-main-street-youghal-co-cork/113636
3705202,17820247,"O'Brien's Place, Youghal, Co. Cork",285000.0,102,102 m²,3,2,Semi-D,2022-05-18,F,,,51.947923,-7.842768,Buy,EAST_CORK_CORK,http://www.daft.ie/for-sale/semi-detached-house-obriens-place-youghal-co-cork/3705202
