id,daftShortcode,title,price,size_meters_squared,propertySize,bedrooms,bathrooms,propertyType,publishDate,ber_rating,ber_code,ber_epi,latitude,longitude,category,location,url_link
3918014,19117335,"105 Salthill, 105, Salthill, Co. Galway",Price on Application,N/A,,1,1,Apartment,2022-08-10,A2,,,53.26268,-9.072327,New Homes,GALWAY_CITY,http://www.daft.ie/new-home-for-sale/apartment-1-bedroom-apartments-105-salthill-1-bedroom-apartments-105-salthill-co-galway/3918014
3918015,19117336,"105 Salthill, 105, Salthill, Co. Galway",Price on Application,N/A,,2,2,Apartment,2022-08-10,A2,,,53.26268,-9.072327,New Homes,GALWAY_CITY,http://www.daft.ie/new-home-for-sale/apartment-2-bedroom-apartments-105-salthill-2-bedroom-apartments-105-salthill-co-galway/3918015
3918019,19117337,"105 Salthill, 105, Salthill, Co. Galway",Price on Application,N/A,,3,2,Apartment,2022-08-10,A2,,,53.26268,-9.072327,New Homes,GALWAY_CITY,http://www.daft.ie/new-home-for-sale/apartment-3-bedroom-apartments-105-salthill-3-bedroom-apartments-105-salthill-co-galway/3918019
3957515,19447738,"7 Tuckmill Court, Bowling Green, Co. Galway",320000.0,94,94 m²,2,2,Apartment,2022-08-10,D2,107928798,263.51 kWh/m2/yr,53.272866,-9.055122,Buy,GALWAY_CITY,http://www.daft.ie/for-sale/apartment-7-tuckmill-court-bowling-green-co-galway/3957515
3955750,19429071,"1 Beachmount House, 164 Upper Salthill Road, Salthill, Co. Galway",370000.0,73,73 m²,2,1,Apartment,2022-08-10,E1,109775965,301.02 kWh/m2/yr,53.262285,-9.073887,Buy,GALWAY_CITY,http://www.daft.ie/for-sale/apartment-1-beachmount-house-164-upper-salthill-road-salthill-co-galway/3955750
3719157,17955731,"6 Cuan Na Coille, Fort Lorenzo, Galway, Taylor's Hill, Co. Galway",320000.0,67,67 m²,2,2,Apartment,2022-08-10,D1,101626232,,53.26726,-9.088863,Buy,GALWAY_CITY,http://www.daft.ie/for-sale/apartment-6-cuan-na-coille-fort-lorenzo-galway-taylors-hill-co-galway/3719157
3937230,19299165,"120 Dun Na Coiribe, Headford Road, Headford Road, Co. Galway",265000.0,84,84 m²,2,2,Apartment,2022-08-10,C2,106364383,40.54 kWh/m2/yr,53.283437,-9.052951,Buy,GALWAY_CITY,http://www.daft.ie/for-sale/apartment-120-dun-na-coiribe-headford-road-headford-road-co-galway/3937230
3934927,19275446,"Apartment 11, Croit Na Mara, Quincentennial Drive, Salthill, Co. Galway",425000.0,70,70 m²,2,2,Apartment,2022-08-04,B2,106364144,117.97 kWh/m2/yr,53.26173,-9.073116,Buy,GALWAY_CITY,http://www.daft.ie/for-sale/apartment-apartment-11-croit-na-mara-quincentennial-drive-salthill-co-galway/3934927
3931909,19245342,"Apartment 6, Na Creaga, Ballybrit, Co. Galway",245000.0,100,100 m²,3,4,Apartment,2022-08-04,C2,114857253,179.59 kWh/m2/yr,53.291264,-8.991434,Buy,GALWAY_CITY,http://www.daft.ie/for-sale/apartment-apartment-6-na-creaga-ballybrit-co-galway/3931909
3929563,19224349,"58 Cé na Mara, Co. Galway",320000.0,66,66 m²,2,2,Apartment,2022-07-13,D2,,,53.2703068,-9.0484814,Buy,GALWAY_CITY,http://www.daft.ie/for-sale/apartment-58-c-na-mara-co-galway/3929563
3928985,19218995,"Apartment 7, Tobar Na Mban, Co. Galway",550000.0,96,96 m²,2,2,Apartment,2022-08-09,B3,102343159,,53.276914,-9.039816,Buy,GALWAY_CITY,http://www.daft.ie/for-sale/apartment-apartment-7-tobar-na-mban-co-galway/3928985
3927923,19207637,"Tí­r na gCapall, Ballybrit, Co. Galway",235000.0,59,59 m²,3,3,Apartment,2022-07-25,C3,,,53.29121130032948,-8.99189716453057,Buy,GALWAY_CITY,http://www.daft.ie/for-sale/apartment-t-r-na-gcapall-ballybrit-co-galway/3927923
3922115,19154951,"10 Ocean Towers, Salthill, Co. Galway",420000.0,79,79 m²,2,,Apartment,2022-08-10,C3,103136339,205.2 kWh/m2/yr,53.257571,-9.09136,Buy,GALWAY_CITY,http://www.daft.ie/for-sale/apartment-10-ocean-towers-salthill-co-galway/3922115
3921588,19150830,"Apartment 15, Coill Mhara, Co. Galway",225000.0,77,77 m²,2,2,Apartment,2022-08-10,D2,108228214,55.46 kWh/m2/yr,53.260574,-9.121976,Buy,GALWAY_CITY,http://www.daft.ie/for-sale/apartment-apartment-15-coill-mhara-co-galway/3921588
3921142,19147476,"55 Gort Na Glaise, Sandy Road, Co. Galway",190000.0,57,57 m²,2,1,Apartment,2022-07-25,E1,103262853,,53.283821,-9.037692,Buy,GALWAY_CITY,http://www.daft.ie/for-sale/apartment-55-gort-na-glaise-sandy-road-co-galway/3921142
3919906,19135691,"171 Glasan Village, Ballybane, Co. Galway",185000.0,60,60 m²,2,1,Apartment,2022-08-10,C2,101117513,194.37 kWh/m2/yr,53.280099,-9.008262,Buy,GALWAY_CITY,http://www.daft.ie/for-sale/apartment-171-glasan-village-ballybane-co-galway/3919906
3919230,19129016,"27 Altan Apartments, Knocknacarra, Galway, Knocknacarra, Co. Galway",225000.0,65,65 m²,2,2,Apartment,2022-08-10,C2,,,53.275194,-9.047865,Buy,GALWAY_CITY,http://www.daft.ie/for-sale/apartment-27-altan-apartments-knocknacarra-galway-knocknacarra-co-galway/3919230
3913467,19079171,"18 Kirwans Court, Kirwans Lane, Co. Galway",389000.0,66,66 m²,2,1,Apartment,2022-08-10,B3,114891351,137.83 kWh/m2/yr,53.27144,-9.054858,Buy,GALWAY_CITY,http://www.daft.ie/for-sale/apartment-18-kirwans-court-kirwans-lane-co-galway/3913467
3912086,19066185,"Apartment 30, Cúirt Seoige, Co. Galway",235000.0,63,63 m²,2,2,Apartment,2022-05-27,C3,,,53.282026,-9.041249,Buy,GALWAY_CITY,http://www.daft.ie/for-sale/apartment-apartment-30-c-irt-seoige-co-galway/3912086
3909106,19038333,"57 Castán, Doughiska, Co. Galway",215000.0,N/A,,2,1,Apartment,2022-08-07,C3,114691900,,53.281141,-8.978847,Buy,GALWAY_CITY,http://www.daft.ie/for-sale/apartment-57-cast-n-doughiska-co-galway/3909106
3890033,18860857,"11 Ocean Towers, Upper Salthill, Salthill, Co. Galway",390000.0,N/A,,2,2,Apartment,2022-08-07,D1,102486255,,53.257571,-9.09136,Buy,GALWAY_CITY,http://www.daft.ie/for-sale/apartment-11-ocean-towers-upper-salthill-salthill-co-galway/3890033
3819621,18813234,"Apartment 25, The Plaza, Co. Galway",295000.0,84,84 m²,3,2,Apartment,2022-08-08,B2,100545466,23.95 kWh/m2/yr,53.278513,-9.04954,Buy,GALWAY_CITY,http://www.daft.ie/for-sale/apartment-apartment-25-the-plaza-co-galway/3819621
3820446,18820016,"56 Baily Point, Upper Salthill, Salthill, Co. Galway",210000.0,36,36 m²,1,1,Apartment,2022-08-10,D1,101236206,242.65 kWh/m2/yr,53.259636,-9.077886,Buy,GALWAY_CITY,http://www.daft.ie/for-sale/apartment-56-baily-point-upper-salthill-salthill-co-galway/3820446
3819779,18814615,"12 Doughiska Road, 12E, 12F, 12G, 12H, Doughiska, Co. Galway","AMV: €450,000",N/A,,1,1,Apartment,2022-05-13,B3,114803919,146.4 kWh/m2/yr,53.281023,-8.977022,Buy,GALWAY_CITY,http://www.daft.ie/for-sale/apartment-12-doughiska-road-12e-12f-12g-12h-doughiska-co-galway/3819779
3814879,18769119,"Apartment 13, Rosmeen Court, Salthill, Co. Galway",278000.0,N/A,,2,2,Apartment,2022-08-07,D1,110238185,,53.265868,-9.070558,Buy,GALWAY_CITY,http://www.daft.ie/for-sale/apartment-apartment-13-rosmeen-court-salthill-co-galway/3814879
3805990,18701601,"Tir na gCapall, Ballybrit, Co. Galway",2350000.0,N/A,,3,3,Apartment,2022-07-25,C3,,,53.2916017,-8.9920303,Buy,GALWAY_CITY,http://www.daft.ie/for-sale/apartment-tir-na-gcapall-ballybrit-co-galway/3805990
3805723,18696417,"Apartment 56, Té­ Chormaic, Gleann Na Ré­, Renmore, Co. Galway",260000.0,N/A,,3,1,Apartment,2022-08-10,B2,,,53.272323,-9.001541,Buy,GALWAY_CITY,http://www.daft.ie/for-sale/apartment-apartment-56-t-chormaic-gleann-na-r-renmore-co-galway/3805723
3800776,18650440,"8 Acres, Knocknacarra Road, Salthill, Co. Galway",265000.0,N/A,,2,1,Apartment,2022-08-07,D2,114667025,,53.258696,-9.101734,Buy,GALWAY_CITY,http://www.daft.ie/for-sale/apartment-8-acres-knocknacarra-road-salthill-co-galway/3800776
3796759,18619229,"Apartment 75, Gort Na Coiribe, Headford Road, Co. Galway",275000.0,N/A,,2,2,Apartment,2022-08-07,C2,101249803,,53.285565,-9.049583,Buy,GALWAY_CITY,http://www.daft.ie/for-sale/apartment-apartment-75-gort-na-coiribe-headford-road-co-galway/3796759
3789528,18564299,"Apartment 228, Tí Dhomhnaill, Gleann Na Rí, Co. Galway",200000.0,66,66 m²,2,1,Apartment,2022-08-10,C2,,,53.272152,-9.004737,Buy,GALWAY_CITY,http://www.daft.ie/for-sale/apartment-apartment-228-t-dhomhnaill-gleann-na-r-co-galway/3789528
3782856,18502941,"Apartment 117, An Fiodé¡n, Doughiska, Co. Galway",170000.0,65,65 m²,2,2,Apartment,2022-08-10,E1,,,53.279874,-8.983224,Buy,GALWAY_CITY,http://www.daft.ie/for-sale/apartment-apartment-117-an-fiod-n-doughiska-co-galway/3782856
3780011,18476019,"17 Gleann Na Tra, Sandy Road, Co. Galway",220000.0,67,67 m²,2,1,Apartment,2022-08-10,D1,102667664,249.94 kWh/m2/yr,53.284051,-9.04207,Buy,GALWAY_CITY,http://www.daft.ie/for-sale/apartment-17-gleann-na-tra-sandy-road-co-galway/3780011
3779365,18468419,"43 Sliabh Rioga, Letteragh Road, Rahoon, Co. Galway",210000.0,N/A,,1,1,Apartment,2022-08-08,B3,114554041,147.11 kWh/m2/yr,53.28038,-9.08907,Buy,GALWAY_CITY,http://www.daft.ie/for-sale/apartment-43-sliabh-rioga-letteragh-road-rahoon-co-galway/3779365
3729916,18036757,"37 Arasain Na Mara, Grattan Road, Salthill, Co. Galway",395000.0,62,62 m²,2,1,Apartment,2022-08-10,C3,109909945,202.4 kWh/m2/yr,53.2635,-9.070354,Buy,GALWAY_CITY,http://www.daft.ie/for-sale/apartment-37-arasain-na-mara-grattan-road-salthill-co-galway/3729916
3718521,17947684,"Apartment 26, Hynes Yard, Co. Galway",360000.0,85,85 m²,2,2,Apartment,2022-07-22,D2,100479278,232.38 kWh/m2/yr,53.271369,-9.050513,Buy,GALWAY_CITY,http://www.daft.ie/for-sale/apartment-apartment-26-hynes-yard-co-galway/3718521
3700566,17795927,"Apartment 7, Rosmeen Court, Salthill, Co. Galway",350000.0,73,73 m²,2,2,Apartment,2022-08-09,D1,101386100,,53.265837,-9.071037,Buy,GALWAY_CITY,http://www.daft.ie/for-sale/apartment-apartment-7-rosmeen-court-salthill-co-galway/3700566
3680506,17634197,"Apartment 6, Aran Court, Salthill, Co. Galway",195000.0,N/A,,1,1,Apartment,2022-08-07,F,107489569,,53.258583,-9.102105,Buy,GALWAY_CITY,http://www.daft.ie/for-sale/apartment-apartment-6-aran-court-salthill-co-galway/3680506
3629824,17070463,"Apartment 15, Coill Aoibhinn, Doughiska, Co. Galway",190000.0,46,46 m²,1,1,Apartment,2022-07-25,C1,,,53.282255,-8.978612,Buy,GALWAY_CITY,http://www.daft.ie/for-sale/apartment-apartment-15-coill-aoibhinn-doughiska-co-galway/3629824
3610409,16892168,"Apartment 21, Tí Luaghaidh, Gleann Na Rí, Co. Galway",200000.0,64,64 m²,2,1,Apartment,2022-08-10,C2,,,53.273146,-9.001582,Buy,GALWAY_CITY,http://www.daft.ie/for-sale/apartment-apartment-21-t-luaghaidh-gleann-na-r-co-galway/3610409
2892062,13656519,"Apartment 33, Larnach, Co. Galway",170000.0,33,33 m²,1,1,Apartment,2022-07-25,D1,,,53.279756,-9.043714,Buy,GALWAY_CITY,http://www.daft.ie/for-sale/apartment-apartment-33-larnach-co-galway/2892062
3918014,19117335,"105 Salthill, 105, Salthill, Co. Galway",Price on Application,N/A,,1,1,Apartment,2022-08-10,A2,,,53.26268,-9.072327,New Homes,GALWAY_CITY,http://www.daft.ie/new-home-for-sale/apartment-1-bedroom-apartments-105-salthill-1-bedroom-apartments-105-salthill-co-galway/3918014
3918015,19117336,"105 Salthill, 105, Salthill, Co. Galway",Price on Application,N/A,,2,2,Apartment,2022-08-10,A2,,,53.26268,-9.072327,New Homes,GALWAY_CITY,http://www.daft.ie/new-home-for-sale/apartment-2-bedroom-apartments-105-salthill-2-bedroom-apartments-105-salthill-co-galway/3918015
3918019,19117337,"105 Salthill, 105, Salthill, Co. Galway",Price on Application,N/A,,3,2,Apartment,2022-08-10,A2,,,53.26268,-9.072327,New Homes,GALWAY_CITY,http://www.daft.ie/new-home-for-sale/apartment-3-bedroom-apartments-105-salthill-3-bedroom-apartments-105-salthill-co-galway/3918019
3957515,19447738,"7 Tuckmill Court, Bowling Green, Co. Galway",320000.0,94,94 m²,2,2,Apartment,2022-08-10,D2,107928798,263.51 kWh/m2/yr,53.272866,-9.055122,Buy,GALWAY_CITY,http://www.daft.ie/for-sale/apartment-7-tuckmill-court-bowling-green-co-galway/3957515
3955750,19429071,"1 Beachmount House, 164 Upper Salthill Road, Salthill, Co. Galway",370000.0,73,73 m²,2,1,Apartment,2022-08-10,E1,109775965,301.02 kWh/m2/yr,53.262285,-9.073887,Buy,GALWAY_CITY,http://www.daft.ie/for-sale/apartment-1-beachmount-house-164-upper-salthill-road-salthill-co-galway/3955750
3719157,17955731,"6 Cuan Na Coille, Fort Lorenzo, Galway, Taylor's Hill, Co. Galway",320000.0,67,67 m²,2,2,Apartment,2022-08-10,D1,101626232,,53.26726,-9.088863,Buy,GALWAY_CITY,http://www.daft.ie/for-sale/apartment-6-cuan-na-coille-fort-lorenzo-galway-taylors-hill-co-galway/3719157
3937230,19299165,"120 Dun Na Coiribe, Headford Road, Headford Road, Co. Galway",265000.0,84,84 m²,2,2,Apartment,2022-08-10,C2,106364383,40.54 kWh/m2/yr,53.283437,-9.052951,Buy,GALWAY_CITY,http://www.daft.ie/for-sale/apartment-120-dun-na-coiribe-headford-road-headford-road-co-galway/3937230
3934927,19275446,"Apartment 11, Croit Na Mara, Quincentennial Drive, Salthill, Co. Galway",425000.0,70,70 m²,2,2,Apartment,2022-08-04,B2,106364144,117.97 kWh/m2/yr,53.26173,-9.073116,Buy,GALWAY_CITY,http://www.daft.ie/for-sale/apartment-apartment-11-croit-na-mara-quincentennial-drive-salthill-co-galway/3934927
3931909,19245342,"Apartment 6, Na Creaga, Ballybrit, Co. Galway",245000.0,100,100 m²,3,4,Apartment,2022-08-04,C2,114857253,179.59 kWh/m2/yr,53.291264,-8.991434,Buy,GALWAY_CITY,http://www.daft.ie/for-sale/apartment-apartment-6-na-creaga-ballybrit-co-galway/3931909
3929563,19224349,"58 Cé na Mara, Co. Galway",320000.0,66,66 m²,2,2,Apartment,2022-07-13,D2,,,53.2703068,-9.0484814,Buy,GALWAY_CITY,http://www.daft.ie/for-sale/apartment-58-c-na-mara-co-galway/3929563
3928985,19218995,"Apartment 7, Tobar Na Mban, Co. Galway",550000.0,96,96 m²,2,2,Apartment,2022-08-09,B3,102343159,,53.276914,-9.039816,Buy,GALWAY_CITY,http://www.daft.ie/for-sale/apartment-apartment-7-tobar-na-mban-co-galway/3928985
3927923,19207637,"Tí­r na gCapall, Ballybrit, Co. Galway",235000.0,59,59 m²,3,3,Apartment,2022-07-25,C3,,,53.29121130032948,-8.99189716453057,Buy,GALWAY_CITY,http://www.daft.ie/for-sale/apartment-t-r-na-gcapall-ballybrit-co-galway/3927923
3922115,19154951,"10 Ocean Towers, Salthill, Co. Galway",420000.0,79,79 m²,2,,Apartment,2022-08-10,C3,103136339,205.2 kWh/m2/yr,53.257571,-9.09136,Buy,GALWAY_CITY,http://www.daft.ie/for-sale/apartment-10-ocean-towers-salthill-co-galway/3922115
3921588,19150830,"Apartment 15, Coill Mhara, Co. Galway",225000.0,77,77 m²,2,2,Apartment,2022-08-10,D2,108228214,55.46 kWh/m2/yr,53.260574,-9.121976,Buy,GALWAY_CITY,http://www.daft.ie/for-sale/apartment-apartment-15-coill-mhara-co-galway/3921588
3921142,19147476,"55 Gort Na Glaise, Sandy Road, Co. Galway",190000.0,57,57 m²,2,1,Apartment,2022-07-25,E1,103262853,,53.283821,-9.037692,Buy,GALWAY_CITY,http://www.daft.ie/for-sale/apartment-55-gort-na-glaise-sandy-road-co-galway/3921142
3919906,19135691,"171 Glasan Village, Ballybane, Co. Galway",185000.0,60,60 m²,2,1,Apartment,2022-08-10,C2,101117513,194.37 kWh/m2/yr,53.280099,-9.008262,Buy,GALWAY_CITY,http://www.daft.ie/for-sale/apartment-171-glasan-village-ballybane-co-galway/3919906
3919230,19129016,"27 Altan Apartments, Knocknacarra, Galway, Knocknacarra, Co. Galway",225000.0,65,65 m²,2,2,Apartment,2022-08-10,C2,,,53.275194,-9.047865,Buy,GALWAY_CITY,http://www.daft.ie/for-sale/apartment-27-altan-apartments-knocknacarra-galway-knocknacarra-co-galway/3919230
3913467,19079171,"18 Kirwans Court, Kirwans Lane, Co. Galway",389000.0,66,66 m²,2,1,Apartment,2022-08-10,B3,114891351,137.83 kWh/m2/yr,53.27144,-9.054858,Buy,GALWAY_CITY,http://www.daft.ie/for-sale/apartment-18-kirwans-court-kirwans-lane-co-galway/3913467
3912086,19066185,"Apartment 30, Cúirt Seoige, Co. Galway",235000.0,63,63 m²,2,2,Apartment,2022-05-27,C3,,,53.282026,-9.041249,Buy,GALWAY_CITY,http://www.daft.ie/for-sale/apartment-apartment-30-c-irt-seoige-co-galway/3912086
3909106,19038333,"57 Castán, Doughiska, Co. Galway",215000.0,N/A,,2,1,Apartment,2022-08-07,C3,114691900,,53.281141,-8.978847,Buy,GALWAY_CITY,http://www.daft.ie/for-sale/apartment-57-cast-n-doughiska-co-galway/3909106
3890033,18860857,"11 Ocean Towers, Upper Salthill, Salthill, Co. Galway",390000.0,N/A,,2,2,Apartment,2022-08-07,D1,102486255,,53.257571,-9.09136,Buy,GALWAY_CITY,http://www.daft.ie/for-sale/apartment-11-ocean-towers-upper-salthill-salthill-co-galway/3890033
3819621,18813234,"Apartment 25, The Plaza, Co. Galway",295000.0,84,84 m²,3,2,Apartment,2022-08-08,B2,100545466,23.95 kWh/m2/yr,53.278513,-9.04954,Buy,GALWAY_CITY,http://www.daft.ie/for-sale/apartment-apartment-25-the-plaza-co-galway/3819621
3820446,18820016,"56 Baily Point, Upper Salthill, Salthill, Co. Galway",210000.0,36,36 m²,1,1,Apartment,2022-08-10,D1,101236206,242.65 kWh/m2/yr,53.259636,-9.077886,Buy,GALWAY_CITY,http://www.daft.ie/for-sale/apartment-56-baily-point-upper-salthill-salthill-co-galway/3820446
3819779,18814615,"12 Doughiska Road, 12E, 12F, 12G, 12H, Doughiska, Co. Galway","AMV: €450,000",N/A,,1,1,Apartment,2022-05-13,B3,114803919,146.4 kWh/m2/yr,53.281023,-8.977022,Buy,GALWAY_CITY,http://www.daft.ie/for-sale/apartment-12-doughiska-road-12e-12f-12g-12h-doughiska-co-galway/3819779
3814879,18769119,"Apartment 13, Rosmeen Court, Salthill, Co. Galway",278000.0,N/A,,2,2,Apartment,2022-08-07,D1,110238185,,53.265868,-9.070558,Buy,GALWAY_CITY,http://www.daft.ie/for-sale/apartment-apartment-13-rosmeen-court-salthill-co-galway/3814879
3805990,18701601,"Tir na gCapall, Ballybrit, Co. Galway",2350000.0,N/A,,3,3,Apartment,2022-07-25,C3,,,53.2916017,-8.9920303,Buy,GALWAY_CITY,http://www.daft.ie/for-sale/apartment-tir-na-gcapall-ballybrit-co-galway/3805990
3805723,18696417,"Apartment 56, Té­ Chormaic, Gleann Na Ré­, Renmore, Co. Galway",260000.0,N/A,,3,1,Apartment,2022-08-10,B2,,,53.272323,-9.001541,Buy,GALWAY_CITY,http://www.daft.ie/for-sale/apartment-apartment-56-t-chormaic-gleann-na-r-renmore-co-galway/3805723
3800776,18650440,"8 Acres, Knocknacarra Road, Salthill, Co. Galway",265000.0,N/A,,2,1,Apartment,2022-08-07,D2,114667025,,53.258696,-9.101734,Buy,GALWAY_CITY,http://www.daft.ie/for-sale/apartment-8-acres-knocknacarra-road-salthill-co-galway/3800776
3796759,18619229,"Apartment 75, Gort Na Coiribe, Headford Road, Co. Galway",275000.0,N/A,,2,2,Apartment,2022-08-07,C2,101249803,,53.285565,-9.049583,Buy,GALWAY_CITY,http://www.daft.ie/for-sale/apartment-apartment-75-gort-na-coiribe-headford-road-co-galway/3796759
3789528,18564299,"Apartment 228, Tí Dhomhnaill, Gleann Na Rí, Co. Galway",200000.0,66,66 m²,2,1,Apartment,2022-08-10,C2,,,53.272152,-9.004737,Buy,GALWAY_CITY,http://www.daft.ie/for-sale/apartment-apartment-228-t-dhomhnaill-gleann-na-r-co-galway/3789528
3782856,18502941,"Apartment 117, An Fiodé¡n, Doughiska, Co. Galway",170000.0,65,65 m²,2,2,Apartment,2022-08-10,E1,,,53.279874,-8.983224,Buy,GALWAY_CITY,http://www.daft.ie/for-sale/apartment-apartment-117-an-fiod-n-doughiska-co-galway/3782856
3780011,18476019,"17 Gleann Na Tra, Sandy Road, Co. Galway",220000.0,67,67 m²,2,1,Apartment,2022-08-10,D1,102667664,249.94 kWh/m2/yr,53.284051,-9.04207,Buy,GALWAY_CITY,http://www.daft.ie/for-sale/apartment-17-gleann-na-tra-sandy-road-co-galway/3780011
3779365,18468419,"43 Sliabh Rioga, Letteragh Road, Rahoon, Co. Galway",210000.0,N/A,,1,1,Apartment,2022-08-08,B3,114554041,147.11 kWh/m2/yr,53.28038,-9.08907,Buy,GALWAY_CITY,http://www.daft.ie/for-sale/apartment-43-sliabh-rioga-letteragh-road-rahoon-co-galway/3779365
3729916,18036757,"37 Arasain Na Mara, Grattan Road, Salthill, Co. Galway",395000.0,62,62 m²,2,1,Apartment,2022-08-10,C3,109909945,202.4 kWh/m2/yr,53.2635,-9.070354,Buy,GALWAY_CITY,http://www.daft.ie/for-sale/apartment-37-arasain-na-mara-grattan-road-salthill-co-galway/3729916
3718521,17947684,"Apartment 26, Hynes Yard, Co. Galway",360000.0,85,85 m²,2,2,Apartment,2022-07-22,D2,100479278,232.38 kWh/m2/yr,53.271369,-9.050513,Buy,GALWAY_CITY,http://www.daft.ie/for-sale/apartment-apartment-26-hynes-yard-co-galway/3718521
3700566,17795927,"Apartment 7, Rosmeen Court, Salthill, Co. Galway",350000.0,73,73 m²,2,2,Apartment,2022-08-09,D1,101386100,,53.265837,-9.071037,Buy,GALWAY_CITY,http://www.daft.ie/for-sale/apartment-apartment-7-rosmeen-court-salthill-co-galway/3700566
3680506,17634197,"Apartment 6, Aran Court, Salthill, Co. Galway",195000.0,N/A,,1,1,Apartment,2022-08-07,F,107489569,,53.258583,-9.102105,Buy,GALWAY_CITY,http://www.daft.ie/for-sale/apartment-apartment-6-aran-court-salthill-co-galway/3680506
3629824,17070463,"Apartment 15, Coill Aoibhinn, Doughiska, Co. Galway",190000.0,46,46 m²,1,1,Apartment,2022-07-25,C1,,,53.282255,-8.978612,Buy,GALWAY_CITY,http://www.daft.ie/for-sale/apartment-apartment-15-coill-aoibhinn-doughiska-co-galway/3629824
3610409,16892168,"Apartment 21, Tí Luaghaidh, Gleann Na Rí, Co. Galway",200000.0,64,64 m²,2,1,Apartment,2022-08-10,C2,,,53.273146,-9.001582,Buy,GALWAY_CITY,http://www.daft.ie/for-sale/apartment-apartment-21-t-luaghaidh-gleann-na-r-co-galway/3610409
2892062,13656519,"Apartment 33, Larnach, Co. Galway",170000.0,33,33 m²,1,1,Apartment,2022-07-25,D1,,,53.279756,-9.043714,Buy,GALWAY_CITY,http://www.daft.ie/for-sale/apartment-apartment-33-larnach-co-galway/2892062
3987055,19693140,"19 Leitir Burca, Ballymoneen Road, Knocknacarra, Co. Galway",495000.0,147,147 m²,4,3,Detached,2022-08-10,C2,103518288,197.95 kWh/m2/yr,53.268887,-9.114977,Buy,GALWAY_CITY,http://www.daft.ie/for-sale/detached-house-19-leitir-burca-ballymoneen-road-knocknacarra-co-galway/3987055
3652515,17315526,"20 Walsh's Terrace, Woodquay, Co. Galway",600000.0,310,310 m²,9,9,End of Terrace,2022-07-19,SI_666,,,53.277365,-9.051594,Buy,GALWAY_CITY,http://www.daft.ie/for-sale/end-of-terrace-house-20-walshs-terrace-woodquay-co-galway/3652515
3985204,19677091,"3 Riverside View, Riverside, Tuam Road, Co. Galway",400000.0,181,181 m²,5,2,Detached,2022-08-10,E1,114875164,303.99 kWh/m2/yr,53.288464,-9.032914,Buy,GALWAY_CITY,http://www.daft.ie/for-sale/detached-house-3-riverside-view-riverside-tuam-road-co-galway/3985204
3984971,19673237,"21 Fána Búrca, Knocknacarra, Knocknacarra, Co. Galway",290000.0,118,118 m²,3,2,End of Terrace,2022-07-25,D2,105418388,272.48 kWh/m2/yr,53.2685,-9.120833,Buy,GALWAY_CITY,http://www.daft.ie/for-sale/end-of-terrace-house-21-f-na-b-rca-knocknacarra-knocknacarra-co-galway/3984971
3984777,19672112,"2 Rahoon Road, Shantalla, Shantalla, Co. Galway",365000.0,N/A,,4,2,Terrace,2022-08-07,G,114631252,,53.272939,-9.075455,Buy,GALWAY_CITY,http://www.daft.ie/for-sale/terraced-house-2-rahoon-road-shantalla-shantalla-co-galway/3984777
3984009,19663118,"36 Rahoon Rd, Rahoon, Co. Galway",360000.0,N/A,,4,,Semi-D,2022-08-10,F,,,53.273411,-9.077481,Buy,GALWAY_CITY,http://www.daft.ie/for-sale/semi-detached-house-36-rahoon-rd-rahoon-co-galway/3984009
3982824,19648690,"Boleybeg East, Barna, Co. Galway",695000.0,N/A,,6,7,Detached,2022-08-10,,,,53.281217,-9.143112,Buy,GALWAY_CITY,http://www.daft.ie/for-sale/detached-house-boleybeg-east-barna-co-galway/3982824
3982632,19647426,"51 Binn Bhan, Western Distributor Road, Knocknacarra, Co. Galway",385000.0,111,111 m²,4,3,Semi-D,2022-08-10,D2,108445453,270.03 kWh/m2/yr,53.267743,-9.127159,Buy,GALWAY_CITY,http://www.daft.ie/for-sale/semi-detached-house-51-binn-bhan-western-distributor-road-knocknacarra-co-galway/3982632
3978679,19614398,"45 Binn Bhan, Western Distributor Road, Knocknacarra, Co. Galway",385000.0,112,112 m²,4,2,Semi-D,2022-08-09,C2,104976428,,53.268293,-9.127199,Buy,GALWAY_CITY,http://www.daft.ie/for-sale/semi-detached-house-45-binn-bhan-western-distributor-road-knocknacarra-co-galway/3978679
3981830,19635253,"Spring Lodge, 11 Salthill Road Lower, Salthill, Co. Galway",550000.0,103,103 m²,4,2,Semi-D,2022-08-10,D2,115169344,,53.26728,-9.067621,Buy,GALWAY_CITY,http://www.daft.ie/for-sale/semi-detached-house-spring-lodge-11-salthill-road-lower-salthill-co-galway/3981830
3981644,19634279,"168 Dun Na Coiribe, Headford Road, Co. Galway",450000.0,118,118 m²,4,3,Semi-D,2022-08-10,C3,115225468,222.77 kWh/m2/yr,53.283881,-9.05501,Buy,GALWAY_CITY,http://www.daft.ie/for-sale/semi-detached-house-168-dun-na-coiribe-headford-road-co-galway/3981644
3981246,19628470,"376 Boireann Bheag, Roscam, Co. Galway",340000.0,131,131 m²,4,3,Terrace,2022-08-10,B3,105522908,138.52 kWh/m2/yr,53.275732,-8.964818,Buy,GALWAY_CITY,http://www.daft.ie/for-sale/terraced-house-376-boireann-bheag-roscam-co-galway/3981246
3980967,19626451,"48 Cluain Mor, Clybuan Road, Knocknacarra, Co. Galway",375000.0,122,122 m²,4,2,Semi-D,2022-08-10,D2,115204521,274.15 kWh/m2/yr,53.27042,-9.110211,Buy,GALWAY_CITY,http://www.daft.ie/for-sale/semi-detached-house-48-cluain-mor-clybuan-road-knocknacarra-co-galway/3980967
3978819,19616741,"Duncairn, Duncairn, 19 Kingston Road, Kingston, Co. Galway",695000.0,180,180 m²,4,2,Detached,2022-08-10,F,113629919,399.56 kWh/m2/yr,53.26609,-9.096809,Buy,GALWAY_CITY,http://www.daft.ie/for-sale/detached-house-duncairn-duncairn-19-kingston-road-kingston-co-galway/3978819
3978450,19612067,"11 Costello Road, Shantalla, Co. Galway",375000.0,93,93 m²,3,2,Terrace,2022-08-10,C3,114680960,224.62 kWh/m2/yr,53.274932,-9.067945,Buy,GALWAY_CITY,http://www.daft.ie/for-sale/terraced-house-11-costello-road-shantalla-co-galway/3978450
3977337,19606687,"Pairc Na gCapaill, Ballagh, Bushypark, Co. Galway",Price on Application,526,526 m²,5,8,Detached,2022-08-10,C1,110219540,160.62 kWh/m2/yr,53.300358,-9.070654,Buy,GALWAY_CITY,http://www.daft.ie/for-sale/detached-house-pairc-na-gcapaill-ballagh-bushypark-co-galway/3977337
3975847,19600865,"59 Dun Na Mara, Renmore, Co. Galway",395000.0,189,189 m²,4,2,Semi-D,2022-08-10,C3,114776594,207.23 kWh/m2/yr,53.275218,-9.025138,Buy,GALWAY_CITY,http://www.daft.ie/for-sale/semi-detached-house-59-dun-na-mara-renmore-co-galway/3975847
3973964,19589701,"100 Tudor Lawn, Newcastle, Co. Galway",425000.0,N/A,,3,2,Semi-D,2022-07-25,C3,115206791,208.41 kWh/m2/yr,53.287842,-9.080036,Buy,GALWAY_CITY,http://www.daft.ie/for-sale/semi-detached-house-100-tudor-lawn-newcastle-co-galway/3973964
3973748,19588008,"61 Fionnuisce, Doughiska, Doughiska, Co. Galway",245000.0,72,72 m²,2,2,Semi-D,2022-08-10,C2,101070647,193.86 kWh/m2/yr,53.283856,-8.989694,Buy,GALWAY_CITY,http://www.daft.ie/for-sale/semi-detached-house-61-fionnuisce-doughiska-doughiska-co-galway/3973748
3972861,19580612,"119 Claremont Park, Circular Road, Rahoon, Co. Galway",320000.0,117,117 m²,5,3,Detached,2022-08-08,D2,115227126,292.37 kWh/m2/yr,53.276688,-9.084427,Buy,GALWAY_CITY,http://www.daft.ie/for-sale/detached-house-119-claremont-park-circular-road-rahoon-co-galway/3972861
3972725,19579773,"Duhallow, Duhallow, 12 Whitestrand Road, Co. Galway",625000.0,188,188 m²,6,6,Detached,2022-07-27,C3,115172728,223.96 kWh/m2/yr,53.266477,-9.062831,Buy,GALWAY_CITY,http://www.daft.ie/for-sale/detached-house-duhallow-duhallow-12-whitestrand-road-co-galway/3972725
3970864,19565173,"54 Castlelawn Heights, Headford Road, Co. Galway",305000.0,103,103 m²,3,2,Semi-D,2022-08-10,D1,114999899,259.5 kWh/m2/yr,53.287215,-9.050971,Buy,GALWAY_CITY,http://www.daft.ie/for-sale/semi-detached-house-54-castlelawn-heights-headford-road-co-galway/3970864
3970874,19565597,"9 Drom Oir, Western Dist Road, Knocknacarra, Co. Galway",360000.0,105,105 m²,3,2,Semi-D,2022-08-10,D1,115185332,251.74 kWh/m2/yr,53.269351,-9.111057,Buy,GALWAY_CITY,http://www.daft.ie/for-sale/semi-detached-house-9-drom-oir-western-dist-road-knocknacarra-co-galway/3970874
3969501,19553928,"39 Cluain Riocaird, Headford Road, Co. Galway",295000.0,149,149 m²,6,4,End of Terrace,2022-08-10,C1,102984846,159.69 kWh/m2/yr,53.297335,-9.028823,Buy,GALWAY_CITY,http://www.daft.ie/for-sale/end-of-terrace-house-39-cluain-riocaird-headford-road-co-galway/3969501
3969311,19553121,"271 Castle Park, Ballybane, Ballybane, Co. Galway",225000.0,N/A,,3,1,End of Terrace,2022-07-25,D1,103800991,259.92 kWh/m2/yr,53.283786,-9.004846,Buy,GALWAY_CITY,http://www.daft.ie/for-sale/end-of-terrace-house-271-castle-park-ballybane-ballybane-co-galway/3969311
3968669,19547178,"4 Beechmount Road, Highfield Park, Co. Galway",425000.0,140,140 m²,4,1,Semi-D,2022-08-10,E2,115232696,,53.270999,-9.076814,Buy,GALWAY_CITY,http://www.daft.ie/for-sale/semi-detached-house-4-beechmount-road-highfield-park-co-galway/3968669
3910816,19057426,"17 Drom Ard, Prospect Hill, Ard, Co. Galway",350000.0,97,97 m²,3,2,Townhouse,2022-08-10,C3,115008377,218.35 kWh/m2/yr,53.276796,-9.047973,Buy,GALWAY_CITY,http://www.daft.ie/for-sale/townhouse-17-drom-ard-prospect-hill-ard-co-galway/3910816
3967131,19531704,"118 Seacrest, Knocknacarra, Co. Galway",410000.0,139,139 m²,4,3,Detached,2022-07-26,D2,115181307,264.36 kWh/m2/yr,53.263917,-9.114616,Buy,GALWAY_CITY,http://www.daft.ie/for-sale/detached-house-118-seacrest-knocknacarra-co-galway/3967131
3966982,19530812,"22B Sandyvale Lawn, Headford Road, Co. Galway",300000.0,86,86 m²,3,2,Semi-D,2022-08-10,F,106386915,426.34 kWh/m2/yr,53.288897,-9.042831,Buy,GALWAY_CITY,http://www.daft.ie/for-sale/semi-detached-house-22b-sandyvale-lawn-headford-road-co-galway/3966982
3966981,19530811,"22A Sandyvale Lawn, Headford Road, Co. Galway",275000.0,86,86 m²,3,2,Semi-D,2022-08-10,E1,106386980,321.91 kWh/m2/yr,53.288851,-9.042862,Buy,GALWAY_CITY,http://www.daft.ie/for-sale/semi-detached-house-22a-sandyvale-lawn-headford-road-co-galway/3966981
3823280,18847028,"165 Boireann Bheag, Roscam, Co. Galway",320000.0,92,92 m²,3,2,Terrace,2022-08-10,C1,114823040,161.8 kWh/m2/yr,53.276812,-8.967383,Buy,GALWAY_CITY,http://www.daft.ie/for-sale/terraced-house-165-boireann-bheag-roscam-co-galway/3823280
3964811,19513110,"LETTERSHINNA, Cashel, Co. Galway",320000.0,N/A,15.52 ac,3,1,Detached,2022-08-09,,,,53.283257,-9.023907,Buy,GALWAY_CITY,http://www.daft.ie/for-sale/detached-house-lettershinna-cashel-co-galway/3964811
3964646,19512900,"151 Túr Uisce, Doughiska, Co. Galway",230000.0,67,67 m²,2,3,Terrace,2022-08-10,C3,,,53.28224,-8.983455,Buy,GALWAY_CITY,http://www.daft.ie/for-sale/terraced-house-151-t-r-uisce-doughiska-co-galway/3964646
3964362,19511198,"82 Inishannagh Park, Newcastle, Co. Galway",245000.0,75,75 m²,3,1,Terrace,2022-08-10,E1,,,53.278098,-9.080894,Buy,GALWAY_CITY,http://www.daft.ie/for-sale/terraced-house-82-inishannagh-park-newcastle-co-galway/3964362
3961467,19484841,"130 Fearann Rí, Doughiska, Co. Galway",245000.0,N/A,,3,3,Semi-D,2022-08-07,D1,100709732,,53.284013,-8.98801,Buy,GALWAY_CITY,http://www.daft.ie/for-sale/semi-detached-house-130-fearann-r-doughiska-co-galway/3961467
3961171,19482363,"148 Cluain Riocaird, Headford Road, Co. Galway",240000.0,95,95 m²,3,2,Terrace,2022-08-10,,,,53.298322,-9.025918,Buy,GALWAY_CITY,http://www.daft.ie/for-sale/terraced-house-148-cluain-riocaird-headford-road-co-galway/3961171
3938903,19313739,"188 Dun na Coiribe, Headford Road, Co. Galway",595000.0,155,155 m²,6,4,Detached,2022-08-10,C3,106998008,201.77 kWh/m2/yr,53.283344,-9.053566,Buy,GALWAY_CITY,http://www.daft.ie/for-sale/detached-house-188-dun-na-coiribe-headford-road-co-galway/3938903
3957993,19451689,"7 Asca Beag, Mincloon, Rahoon Road, Rahoon, Co. Galway",525000.0,172,172 m²,4,4,Detached,2022-08-10,C1,100159771,162.34 kWh/m2/yr,53.27562,-9.092555,Buy,GALWAY_CITY,http://www.daft.ie/for-sale/detached-house-7-asca-beag-mincloon-rahoon-road-rahoon-co-galway/3957993
3960986,19479212,"137 Cluain Riocard, Headford Road, Co. Galway",280000.0,96,96 m²,3,2,Terrace,2022-08-10,C1,114650278,151.27 kWh/m2/yr,53.29854,-9.026294,Buy,GALWAY_CITY,http://www.daft.ie/for-sale/terraced-house-137-cluain-riocard-headford-road-co-galway/3960986
3901354,18968742,"92 Rosan Glas, Rahoon Road, Rahoon, Co. Galway",385000.0,133,133 m²,4,4,End of Terrace,2022-08-10,C2,115001356,198.32 kWh/m2/yr,53.277677,-9.092358,Buy,GALWAY_CITY,http://www.daft.ie/for-sale/end-of-terrace-house-92-rosan-glas-rahoon-road-rahoon-co-galway/3901354
3960098,19472750,"18 Tudor Lawn, Newcastle, Co. Galway",350000.0,95,95 m²,3,1,Semi-D,2022-07-27,D2,115202038,269.17 kWh/m2/yr,53.288478,-9.075708,Buy,GALWAY_CITY,http://www.daft.ie/for-sale/semi-detached-house-18-tudor-lawn-newcastle-co-galway/3960098
3957848,19450073,"76 Rahylin Glebe, Ballybane, Ballybane, Co. Galway",255000.0,N/A,,3,2,Terrace,2022-08-07,C2,104114483,,53.282929,-9.009636,Buy,GALWAY_CITY,http://www.daft.ie/for-sale/terraced-house-76-rahylin-glebe-ballybane-ballybane-co-galway/3957848
3959547,19467023,"10 Fuschia Drive, Renmore, Renmore, Co. Galway",335000.0,N/A,,3,1,Semi-D,2022-08-07,D1,115189334,,53.272862,-9.017274,Buy,GALWAY_CITY,http://www.daft.ie/for-sale/semi-detached-house-10-fuschia-drive-renmore-renmore-co-galway/3959547
3959126,19462106,"273 Corrib Park, Newcastle, Co. Galway",330000.0,82,82 m²,3,1,Terrace,2022-08-10,C2,115175382,,53.278743,-9.070964,Buy,GALWAY_CITY,http://www.daft.ie/for-sale/terraced-house-273-corrib-park-newcastle-co-galway/3959126
3956825,19441400,"438 Tirellan Heights, Headford Road, Headford Road, Co. Galway",310000.0,120,120 m²,5,4,Semi-D,2022-08-08,D2,111525234,295.32 kWh/m2/yr,53.290534,-9.043515,Buy,GALWAY_CITY,http://www.daft.ie/for-sale/semi-detached-house-438-tirellan-heights-headford-road-headford-road-co-galway/3956825
3956521,19438560,"28 Linn Bhuí, Rahoon Road, Rahoon, Co. Galway",360000.0,130,130 m²,4,3,Semi-D,2022-08-09,C3,115171068,,53.276301,-9.099632,Buy,GALWAY_CITY,http://www.daft.ie/for-sale/semi-detached-house-28-linn-bhu-rahoon-road-rahoon-co-galway/3956521
3955831,19429134,"33 Fionnuisce, Doughiska, Doughiska, Co. Galway",245000.0,N/A,,3,3,Terrace,2022-07-25,C1,,,53.284691,-8.989778,Buy,GALWAY_CITY,http://www.daft.ie/for-sale/terraced-house-33-fionnuisce-doughiska-doughiska-co-galway/3955831
3955950,19430836,"59 Gleann Dara, Bishop O'Donnell Road, Rahoon, Co. Galway",275000.0,N/A,,4,2,Semi-D,2022-08-07,D1,105655351,,53.272237,-9.08348,Buy,GALWAY_CITY,http://www.daft.ie/for-sale/semi-detached-house-59-gleann-dara-bishop-odonnell-road-rahoon-co-galway/3955950
3949417,19416180,"82 Churchfields, Salthill, Salthill, Co. Galway",350000.0,100,100 m²,3,2,End of Terrace,2022-08-10,D1,100742972,,53.26652,-9.069904,Buy,GALWAY_CITY,http://www.daft.ie/for-sale/end-of-terrace-house-82-churchfields-salthill-salthill-co-galway/3949417
3949331,19414757,"22 Renmore Crescent, Renmore, Co. Galway",475000.0,133,133 m²,3,2,Semi-D,2022-08-10,D1,102613049,252.28 kWh/m2/yr,53.274051,-9.029808,Buy,GALWAY_CITY,http://www.daft.ie/for-sale/semi-detached-house-22-renmore-crescent-renmore-co-galway/3949331
3987055,19693140,"19 Leitir Burca, Ballymoneen Road, Knocknacarra, Co. Galway",495000.0,147,147 m²,4,3,Detached,2022-08-10,C2,103518288,197.95 kWh/m2/yr,53.268887,-9.114977,Buy,GALWAY_CITY,http://www.daft.ie/for-sale/detached-house-19-leitir-burca-ballymoneen-road-knocknacarra-co-galway/3987055
3652515,17315526,"20 Walsh's Terrace, Woodquay, Co. Galway",600000.0,310,310 m²,9,9,End of Terrace,2022-07-19,SI_666,,,53.277365,-9.051594,Buy,GALWAY_CITY,http://www.daft.ie/for-sale/end-of-terrace-house-20-walshs-terrace-woodquay-co-galway/3652515
3985204,19677091,"3 Riverside View, Riverside, Tuam Road, Co. Galway",400000.0,181,181 m²,5,2,Detached,2022-08-10,E1,114875164,303.99 kWh/m2/yr,53.288464,-9.032914,Buy,GALWAY_CITY,http://www.daft.ie/for-sale/detached-house-3-riverside-view-riverside-tuam-road-co-galway/3985204
3984971,19673237,"21 Fána Búrca, Knocknacarra, Knocknacarra, Co. Galway",290000.0,118,118 m²,3,2,End of Terrace,2022-07-25,D2,105418388,272.48 kWh/m2/yr,53.2685,-9.120833,Buy,GALWAY_CITY,http://www.daft.ie/for-sale/end-of-terrace-house-21-f-na-b-rca-knocknacarra-knocknacarra-co-galway/3984971
3984777,19672112,"2 Rahoon Road, Shantalla, Shantalla, Co. Galway",365000.0,N/A,,4,2,Terrace,2022-08-07,G,114631252,,53.272939,-9.075455,Buy,GALWAY_CITY,http://www.daft.ie/for-sale/terraced-house-2-rahoon-road-shantalla-shantalla-co-galway/3984777
3984009,19663118,"36 Rahoon Rd, Rahoon, Co. Galway",360000.0,N/A,,4,,Semi-D,2022-08-10,F,,,53.273411,-9.077481,Buy,GALWAY_CITY,http://www.daft.ie/for-sale/semi-detached-house-36-rahoon-rd-rahoon-co-galway/3984009
3982824,19648690,"Boleybeg East, Barna, Co. Galway",695000.0,N/A,,6,7,Detached,2022-08-10,,,,53.281217,-9.143112,Buy,GALWAY_CITY,http://www.daft.ie/for-sale/detached-house-boleybeg-east-barna-co-galway/3982824
3982632,19647426,"51 Binn Bhan, Western Distributor Road, Knocknacarra, Co. Galway",385000.0,111,111 m²,4,3,Semi-D,2022-08-10,D2,108445453,270.03 kWh/m2/yr,53.267743,-9.127159,Buy,GALWAY_CITY,http://www.daft.ie/for-sale/semi-detached-house-51-binn-bhan-western-distributor-road-knocknacarra-co-galway/3982632
3978679,19614398,"45 Binn Bhan, Western Distributor Road, Knocknacarra, Co. Galway",385000.0,112,112 m²,4,2,Semi-D,2022-08-09,C2,104976428,,53.268293,-9.127199,Buy,GALWAY_CITY,http://www.daft.ie/for-sale/semi-detached-house-45-binn-bhan-western-distributor-road-knocknacarra-co-galway/3978679
3981830,19635253,"Spring Lodge, 11 Salthill Road Lower, Salthill, Co. Galway",550000.0,103,103 m²,4,2,Semi-D,2022-08-10,D2,115169344,,53.26728,-9.067621,Buy,GALWAY_CITY,http://www.daft.ie/for-sale/semi-detached-house-spring-lodge-11-salthill-road-lower-salthill-co-galway/3981830
3981644,19634279,"168 Dun Na Coiribe, Headford Road, Co. Galway",450000.0,118,118 m²,4,3,Semi-D,2022-08-10,C3,115225468,222.77 kWh/m2/yr,53.283881,-9.05501,Buy,GALWAY_CITY,http://www.daft.ie/for-sale/semi-detached-house-168-dun-na-coiribe-headford-road-co-galway/3981644
3981246,19628470,"376 Boireann Bheag, Roscam, Co. Galway",340000.0,131,131 m²,4,3,Terrace,2022-08-10,B3,105522908,138.52 kWh/m2/yr,53.275732,-8.964818,Buy,GALWAY_CITY,http://www.daft.ie/for-sale/terraced-house-376-boireann-bheag-roscam-co-galway/3981246
3980967,19626451,"48 Cluain Mor, Clybuan Road, Knocknacarra, Co. Galway",375000.0,122,122 m²,4,2,Semi-D,2022-08-10,D2,115204521,274.15 kWh/m2/yr,53.27042,-9.110211,Buy,GALWAY_CITY,http://www.daft.ie/for-sale/semi-detached-house-48-cluain-mor-clybuan-road-knocknacarra-co-galway/3980967
3978819,19616741,"Duncairn, Duncairn, 19 Kingston Road, Kingston, Co. Galway",695000.0,180,180 m²,4,2,Detached,2022-08-10,F,113629919,399.56 kWh/m2/yr,53.26609,-9.096809,Buy,GALWAY_CITY,http://www.daft.ie/for-sale/detached-house-duncairn-duncairn-19-kingston-road-kingston-co-galway/3978819
3978450,19612067,"11 Costello Road, Shantalla, Co. Galway",375000.0,93,93 m²,3,2,Terrace,2022-08-10,C3,114680960,224.62 kWh/m2/yr,53.274932,-9.067945,Buy,GALWAY_CITY,http://www.daft.ie/for-sale/terraced-house-11-costello-road-shantalla-co-galway/3978450
3977337,19606687,"Pairc Na gCapaill, Ballagh, Bushypark, Co. Galway",Price on Application,526,526 m²,5,8,Detached,2022-08-10,C1,110219540,160.62 kWh/m2/yr,53.300358,-9.070654,Buy,GALWAY_CITY,http://www.daft.ie/for-sale/detached-house-pairc-na-gcapaill-ballagh-bushypark-co-galway/3977337
3975847,19600865,"59 Dun Na Mara, Renmore, Co. Galway",395000.0,189,189 m²,4,2,Semi-D,2022-08-10,C3,114776594,207.23 kWh/m2/yr,53.275218,-9.025138,Buy,GALWAY_CITY,http://www.daft.ie/for-sale/semi-detached-house-59-dun-na-mara-renmore-co-galway/3975847
3973964,19589701,"100 Tudor Lawn, Newcastle, Co. Galway",425000.0,N/A,,3,2,Semi-D,2022-07-25,C3,115206791,208.41 kWh/m2/yr,53.287842,-9.080036,Buy,GALWAY_CITY,http://www.daft.ie/for-sale/semi-detached-house-100-tudor-lawn-newcastle-co-galway/3973964
3973748,19588008,"61 Fionnuisce, Doughiska, Doughiska, Co. Galway",245000.0,72,72 m²,2,2,Semi-D,2022-08-10,C2,101070647,193.86 kWh/m2/yr,53.283856,-8.989694,Buy,GALWAY_CITY,http://www.daft.ie/for-sale/semi-detached-house-61-fionnuisce-doughiska-doughiska-co-galway/3973748
3972861,19580612,"119 Claremont Park, Circular Road, Rahoon, Co. Galway",320000.0,117,117 m²,5,3,Detached,2022-08-08,D2,115227126,292.37 kWh/m2/yr,53.276688,-9.084427,Buy,GALWAY_CITY,http://www.daft.ie/for-sale/detached-house-119-claremont-park-circular-road-rahoon-co-galway/3972861
3972725,19579773,"Duhallow, Duhallow, 12 Whitestrand Road, Co. Galway",625000.0,188,188 m²,6,6,Detached,2022-07-27,C3,115172728,223.96 kWh/m2/yr,53.266477,-9.062831,Buy,GALWAY_CITY,http://www.daft.ie/for-sale/detached-house-duhallow-duhallow-12-whitestrand-road-co-galway/3972725
3970864,19565173,"54 Castlelawn Heights, Headford Road, Co. Galway",305000.0,103,103 m²,3,2,Semi-D,2022-08-10,D1,114999899,259.5 kWh/m2/yr,53.287215,-9.050971,Buy,GALWAY_CITY,http://www.daft.ie/for-sale/semi-detached-house-54-castlelawn-heights-headford-road-co-galway/3970864
3970874,19565597,"9 Drom Oir, Western Dist Road, Knocknacarra, Co. Galway",360000.0,105,105 m²,3,2,Semi-D,2022-08-10,D1,115185332,251.74 kWh/m2/yr,53.269351,-9.111057,Buy,GALWAY_CITY,http://www.daft.ie/for-sale/semi-detached-house-9-drom-oir-western-dist-road-knocknacarra-co-galway/3970874
3969501,19553928,"39 Cluain Riocaird, Headford Road, Co. Galway",295000.0,149,149 m²,6,4,End of Terrace,2022-08-10,C1,102984846,159.69 kWh/m2/yr,53.297335,-9.028823,Buy,GALWAY_CITY,http://www.daft.ie/for-sale/end-of-terrace-house-39-cluain-riocaird-headford-road-co-galway/3969501
3969311,19553121,"271 Castle Park, Ballybane, Ballybane, Co. Galway",225000.0,N/A,,3,1,End of Terrace,2022-07-25,D1,103800991,259.92 kWh/m2/yr,53.283786,-9.004846,Buy,GALWAY_CITY,http://www.daft.ie/for-sale/end-of-terrace-house-271-castle-park-ballybane-ballybane-co-galway/3969311
3968669,19547178,"4 Beechmount Road, Highfield Park, Co. Galway",425000.0,140,140 m²,4,1,Semi-D,2022-08-10,E2,115232696,,53.270999,-9.076814,Buy,GALWAY_CITY,http://www.daft.ie/for-sale/semi-detached-house-4-beechmount-road-highfield-park-co-galway/3968669
3910816,19057426,"17 Drom Ard, Prospect Hill, Ard, Co. Galway",350000.0,97,97 m²,3,2,Townhouse,2022-08-10,C3,115008377,218.35 kWh/m2/yr,53.276796,-9.047973,Buy,GALWAY_CITY,http://www.daft.ie/for-sale/townhouse-17-drom-ard-prospect-hill-ard-co-galway/3910816
3967131,19531704,"118 Seacrest, Knocknacarra, Co. Galway",410000.0,139,139 m²,4,3,Detached,2022-07-26,D2,115181307,264.36 kWh/m2/yr,53.263917,-9.114616,Buy,GALWAY_CITY,http://www.daft.ie/for-sale/detached-house-118-seacrest-knocknacarra-co-galway/3967131
3966982,19530812,"22B Sandyvale Lawn, Headford Road, Co. Galway",300000.0,86,86 m²,3,2,Semi-D,2022-08-10,F,106386915,426.34 kWh/m2/yr,53.288897,-9.042831,Buy,GALWAY_CITY,http://www.daft.ie/for-sale/semi-detached-house-22b-sandyvale-lawn-headford-road-co-galway/3966982
3966981,19530811,"22A Sandyvale Lawn, Headford Road, Co. Galway",275000.0,86,86 m²,3,2,Semi-D,2022-08-10,E1,106386980,321.91 kWh/m2/yr,53.288851,-9.042862,Buy,GALWAY_CITY,http://www.daft.ie/for-sale/semi-detached-house-22a-sandyvale-lawn-headford-road-co-galway/3966981
3823280,18847028,"165 Boireann Bheag, Roscam, Co. Galway",320000.0,92,92 m²,3,2,Terrace,2022-08-10,C1,114823040,161.8 kWh/m2/yr,53.276812,-8.967383,Buy,GALWAY_CITY,http://www.daft.ie/for-sale/terraced-house-165-boireann-bheag-roscam-co-galway/3823280
3964811,19513110,"LETTERSHINNA, Cashel, Co. Galway",320000.0,N/A,15.52 ac,3,1,Detached,2022-08-09,,,,53.283257,-9.023907,Buy,GALWAY_CITY,http://www.daft.ie/for-sale/detached-house-lettershinna-cashel-co-galway/3964811
3964646,19512900,"151 Túr Uisce, Doughiska, Co. Galway",230000.0,67,67 m²,2,3,Terrace,2022-08-10,C3,,,53.28224,-8.983455,Buy,GALWAY_CITY,http://www.daft.ie/for-sale/terraced-house-151-t-r-uisce-doughiska-co-galway/3964646
3964362,19511198,"82 Inishannagh Park, Newcastle, Co. Galway",245000.0,75,75 m²,3,1,Terrace,2022-08-10,E1,,,53.278098,-9.080894,Buy,GALWAY_CITY,http://www.daft.ie/for-sale/terraced-house-82-inishannagh-park-newcastle-co-galway/3964362
3961467,19484841,"130 Fearann Rí, Doughiska, Co. Galway",245000.0,N/A,,3,3,Semi-D,2022-08-07,D1,100709732,,53.284013,-8.98801,Buy,GALWAY_CITY,http://www.daft.ie/for-sale/semi-detached-house-130-fearann-r-doughiska-co-galway/3961467
3961171,19482363,"148 Cluain Riocaird, Headford Road, Co. Galway",240000.0,95,95 m²,3,2,Terrace,2022-08-10,,,,53.298322,-9.025918,Buy,GALWAY_CITY,http://www.daft.ie/for-sale/terraced-house-148-cluain-riocaird-headford-road-co-galway/3961171
3938903,19313739,"188 Dun na Coiribe, Headford Road, Co. Galway",595000.0,155,155 m²,6,4,Detached,2022-08-10,C3,106998008,201.77 kWh/m2/yr,53.283344,-9.053566,Buy,GALWAY_CITY,http://www.daft.ie/for-sale/detached-house-188-dun-na-coiribe-headford-road-co-galway/3938903
3957993,19451689,"7 Asca Beag, Mincloon, Rahoon Road, Rahoon, Co. Galway",525000.0,172,172 m²,4,4,Detached,2022-08-10,C1,100159771,162.34 kWh/m2/yr,53.27562,-9.092555,Buy,GALWAY_CITY,http://www.daft.ie/for-sale/detached-house-7-asca-beag-mincloon-rahoon-road-rahoon-co-galway/3957993
3960986,19479212,"137 Cluain Riocard, Headford Road, Co. Galway",280000.0,96,96 m²,3,2,Terrace,2022-08-10,C1,114650278,151.27 kWh/m2/yr,53.29854,-9.026294,Buy,GALWAY_CITY,http://www.daft.ie/for-sale/terraced-house-137-cluain-riocard-headford-road-co-galway/3960986
3901354,18968742,"92 Rosan Glas, Rahoon Road, Rahoon, Co. Galway",385000.0,133,133 m²,4,4,End of Terrace,2022-08-10,C2,115001356,198.32 kWh/m2/yr,53.277677,-9.092358,Buy,GALWAY_CITY,http://www.daft.ie/for-sale/end-of-terrace-house-92-rosan-glas-rahoon-road-rahoon-co-galway/3901354
3960098,19472750,"18 Tudor Lawn, Newcastle, Co. Galway",350000.0,95,95 m²,3,1,Semi-D,2022-07-27,D2,115202038,269.17 kWh/m2/yr,53.288478,-9.075708,Buy,GALWAY_CITY,http://www.daft.ie/for-sale/semi-detached-house-18-tudor-lawn-newcastle-co-galway/3960098
3957848,19450073,"76 Rahylin Glebe, Ballybane, Ballybane, Co. Galway",255000.0,N/A,,3,2,Terrace,2022-08-07,C2,104114483,,53.282929,-9.009636,Buy,GALWAY_CITY,http://www.daft.ie/for-sale/terraced-house-76-rahylin-glebe-ballybane-ballybane-co-galway/3957848
3959547,19467023,"10 Fuschia Drive, Renmore, Renmore, Co. Galway",335000.0,N/A,,3,1,Semi-D,2022-08-07,D1,115189334,,53.272862,-9.017274,Buy,GALWAY_CITY,http://www.daft.ie/for-sale/semi-detached-house-10-fuschia-drive-renmore-renmore-co-galway/3959547
3959126,19462106,"273 Corrib Park, Newcastle, Co. Galway",330000.0,82,82 m²,3,1,Terrace,2022-08-10,C2,115175382,,53.278743,-9.070964,Buy,GALWAY_CITY,http://www.daft.ie/for-sale/terraced-house-273-corrib-park-newcastle-co-galway/3959126
3956825,19441400,"438 Tirellan Heights, Headford Road, Headford Road, Co. Galway",310000.0,120,120 m²,5,4,Semi-D,2022-08-08,D2,111525234,295.32 kWh/m2/yr,53.290534,-9.043515,Buy,GALWAY_CITY,http://www.daft.ie/for-sale/semi-detached-house-438-tirellan-heights-headford-road-headford-road-co-galway/3956825
3956521,19438560,"28 Linn Bhuí, Rahoon Road, Rahoon, Co. Galway",360000.0,130,130 m²,4,3,Semi-D,2022-08-09,C3,115171068,,53.276301,-9.099632,Buy,GALWAY_CITY,http://www.daft.ie/for-sale/semi-detached-house-28-linn-bhu-rahoon-road-rahoon-co-galway/3956521
3955831,19429134,"33 Fionnuisce, Doughiska, Doughiska, Co. Galway",245000.0,N/A,,3,3,Terrace,2022-07-25,C1,,,53.284691,-8.989778,Buy,GALWAY_CITY,http://www.daft.ie/for-sale/terraced-house-33-fionnuisce-doughiska-doughiska-co-galway/3955831
3955950,19430836,"59 Gleann Dara, Bishop O'Donnell Road, Rahoon, Co. Galway",275000.0,N/A,,4,2,Semi-D,2022-08-07,D1,105655351,,53.272237,-9.08348,Buy,GALWAY_CITY,http://www.daft.ie/for-sale/semi-detached-house-59-gleann-dara-bishop-odonnell-road-rahoon-co-galway/3955950
3949417,19416180,"82 Churchfields, Salthill, Salthill, Co. Galway",350000.0,100,100 m²,3,2,End of Terrace,2022-08-10,D1,100742972,,53.26652,-9.069904,Buy,GALWAY_CITY,http://www.daft.ie/for-sale/end-of-terrace-house-82-churchfields-salthill-salthill-co-galway/3949417
3949331,19414757,"22 Renmore Crescent, Renmore, Co. Galway",475000.0,133,133 m²,3,2,Semi-D,2022-08-10,D1,102613049,252.28 kWh/m2/yr,53.274051,-9.029808,Buy,GALWAY_CITY,http://www.daft.ie/for-sale/semi-detached-house-22-renmore-crescent-renmore-co-galway/3949331
3946866,19393160,"211 Laurel Park, Newcastle, Newcastle, Co. Galway",290000.0,N/A,,4,2,Semi-D,2022-08-07,E2,115181331,,53.281594,-9.076607,Buy,GALWAY_CITY,http://www.daft.ie/for-sale/semi-detached-house-211-laurel-park-newcastle-newcastle-co-galway/3946866
3948854,19408757,"72 Sceilg Ard, Headford Road, Headford Road, Co. Galway",310000.0,N/A,,4,3,Semi-D,2022-07-25,D2,112523022,,53.294232,-9.040068,Buy,GALWAY_CITY,http://www.daft.ie/for-sale/semi-detached-house-72-sceilg-ard-headford-road-headford-road-co-galway/3948854
3948674,19407530,"97 Boireann Bheag, Roscam, Co. Galway",295000.0,80,80 m²,3,1,Terrace,2022-07-26,C1,101302677,171.97 kWh/m2/yr,53.276806,-8.964262,Buy,GALWAY_CITY,http://www.daft.ie/for-sale/terraced-house-97-boireann-bheag-roscam-co-galway/3948674
3944114,19365027,"16 Sceilg Ard, Headford Road, Headford Road, Co. Galway",320000.0,N/A,,4,3,Detached,2022-08-09,D2,101037513,262.89 kWh/m2/yr,53.29296,-9.03889,Buy,GALWAY_CITY,http://www.daft.ie/for-sale/detached-house-16-sceilg-ard-headford-road-headford-road-co-galway/3944114
3946606,19389609,"59 Maigh Riocaird, Headford Road, Co. Galway",269000.0,99,99 m²,3,3,Terrace,2022-08-10,C1,,,53.297803,-9.024441,Buy,GALWAY_CITY,http://www.daft.ie/for-sale/terraced-house-59-maigh-riocaird-headford-road-co-galway/3946606
3946128,19382340,"Cuirt Bhoirne, Cuirt Bhoirne, Roscam, Co. Galway",440000.0,N/A,,4,3,Semi-D,2022-08-10,NA,,,53.274726,-8.964315,New Homes,GALWAY_CITY,http://www.daft.ie/new-home-for-sale/semi-detached-house-the-brianna-type-b-cuirt-bhoirne-the-brianna-type-b-cuirt-bhoirne-roscam-co-galway/3946128
3946135,19382742,"36 Sycamore Drive, Highfield Park, Rahoon Road, Rahoon, Co. Galway",475000.0,149,149 m²,4,2,Semi-D,2022-08-10,C1,114885338,164.97 kWh/m2/yr,53.27059,-9.078753,Buy,GALWAY_CITY,http://www.daft.ie/for-sale/semi-detached-house-36-sycamore-drive-highfield-park-rahoon-road-rahoon-co-galway/3946135
3943634,19359192,"439 Tirellan Heights, Headford Road, Headford Road, Co. Galway",295000.0,93,93 m²,3,2,Semi-D,2022-07-25,D2,100611607,291.2 kWh/m2/yr,53.290533,-9.043449,Buy,GALWAY_CITY,http://www.daft.ie/for-sale/semi-detached-house-439-tirellan-heights-headford-road-headford-road-co-galway/3943634
3943403,19356745,"12 College Rd, Co. Galway",650000.0,N/A,,,,Detached,2022-08-10,,,,53.275739,-9.042248,Buy,GALWAY_CITY,http://www.daft.ie/for-sale/detached-house-12-college-rd-co-galway/3943403
3942410,19344992,"5 Garran Ard, Doughiska, Co. Galway",295000.0,105,105 m²,4,2,End of Terrace,2022-08-10,C2,103636643,,53.280894,-8.975677,Buy,GALWAY_CITY,http://www.daft.ie/for-sale/end-of-terrace-house-5-garran-ard-doughiska-co-galway/3942410
3941999,19342645,"10 Avondale Road, Highfield Park, Co. Galway",315000.0,N/A,,4,2,Semi-D,2022-08-07,G,115169187,,53.272519,-9.078724,Buy,GALWAY_CITY,http://www.daft.ie/for-sale/semi-detached-house-10-avondale-road-highfield-park-co-galway/3941999
3940563,19330392,"25 Sceilg Ard, Headford Road, Headford Road, Co. Galway",295000.0,N/A,,4,3,Semi-D,2022-08-09,C3,115028656,224.69 kWh/m2/yr,53.293418,-9.038314,Buy,GALWAY_CITY,http://www.daft.ie/for-sale/semi-detached-house-25-sceilg-ard-headford-road-headford-road-co-galway/3940563
3940508,19328234,"Saint Kevin's, 33 McDara Road, Shantalla, Co. Galway",260000.0,N/A,,2,1,Terrace,2022-08-07,D2,115021032,,53.274314,-9.068502,Buy,GALWAY_CITY,http://www.daft.ie/for-sale/terraced-house-saint-kevins-33-mcdara-road-shantalla-co-galway/3940508
3938101,19306749,"55 An Fiodan, Doughiska, Co. Galway",295000.0,94,94 m²,3,3,Terrace,2022-08-10,C2,115167041,197.01 kWh/m2/yr,53.281494,-8.980909,Buy,GALWAY_CITY,http://www.daft.ie/for-sale/terraced-house-55-an-fiodan-doughiska-co-galway/3938101
3934451,19270549,"124 Fearann Rí, Doughiska, Doughiska, Co. Galway",262000.0,N/A,,4,3,Semi-D,2022-08-07,C2,114701733,,53.284308,-8.988176,Buy,GALWAY_CITY,http://www.daft.ie/for-sale/semi-detached-house-124-fearann-r-doughiska-doughiska-co-galway/3934451
3932713,19251034,"13 Rahylin Glebe, Ballybane, Ballybane, Co. Galway",255000.0,N/A,,3,2,Semi-D,2022-08-07,D2,104511506,,53.284724,-9.009429,Buy,GALWAY_CITY,http://www.daft.ie/for-sale/semi-detached-house-13-rahylin-glebe-ballybane-ballybane-co-galway/3932713
3932592,19249872,"61 Maoilin, Ballymoneen Road, Co. Galway",530000.0,130,130 m²,4,2,Detached,2022-08-10,A3,108638677,57.4 kWh/m2/yr,53.271521,-9.122797,Buy,GALWAY_CITY,http://www.daft.ie/for-sale/detached-house-61-maoilin-ballymoneen-road-co-galway/3932592
3930066,19230965,"1B Durabhan, Roscam, Co. Galway",395000.0,133,133 m²,4,3,Semi-D,2022-08-10,A3,112460092,,53.277485,-8.975224,Buy,GALWAY_CITY,http://www.daft.ie/for-sale/semi-detached-house-1b-durabhan-roscam-co-galway/3930066
3928229,19209575,"Leac Aimhreidh, Ballymoneen Road, Knocknacarra, Co. Galway",865000.0,274,274 m²,4,3,Detached,2022-08-10,B3,115022295,,53.271441,-9.11707,Buy,GALWAY_CITY,http://www.daft.ie/for-sale/detached-house-leac-aimhreidh-ballymoneen-road-knocknacarra-co-galway/3928229
3546910,16223183,"190 Fearann Rí, Doughiska, Co. Galway",230000.0,N/A,,3,2,Terrace,2022-06-10,C3,100265172,,53.285841,-8.98484,Buy,GALWAY_CITY,http://www.daft.ie/for-sale/terraced-house-190-fearann-r-doughiska-co-galway/3546910
3926997,19198764,"399 Tirellan Heights, Headford Road, Co. Galway",280000.0,88,88 m²,4,3,Semi-D,2022-08-10,C3,101492080,217.71 kWh/m2/yr,53.290778,-9.045317,Buy,GALWAY_CITY,http://www.daft.ie/for-sale/semi-detached-house-399-tirellan-heights-headford-road-co-galway/3926997
3926083,19189943,"70 Ballinfoile Park, Headford Road, Co. Galway","AMV: €160,000",N/A,,3,2,Terrace,2022-08-10,D2,,,53.292272,-9.04122,Buy,GALWAY_CITY,http://www.daft.ie/for-sale/terraced-house-70-ballinfoile-park-headford-road-co-galway/3926083
3925492,19179465,"9 Cluain Ard, Ballybrit, Ballybrit, Co. Galway",275000.0,90,90 m²,3,2,Semi-D,2022-07-25,D1,114144538,,53.287977,-9.001229,Buy,GALWAY_CITY,http://www.daft.ie/for-sale/semi-detached-house-9-cluain-ard-ballybrit-ballybrit-co-galway/3925492
3924897,19176211,"Townhouse 28, Eyre Square Centre, Co. Galway",Price on Application,93,93 m²,3,1,Townhouse,2022-08-10,D1,,,53.273626,-9.050153,Buy,GALWAY_CITY,http://www.daft.ie/for-sale/townhouse-townhouse-28-eyre-square-centre-co-galway/3924897
3921560,19150817,"Gleann Rua House, Taylors Hill Road, Salthill, Co. Galway",Price on Application,N/A,,4,2,Detached,2022-07-25,E1,115020851,,53.268619,-9.083545,Buy,GALWAY_CITY,http://www.daft.ie/for-sale/detached-house-gleann-rua-house-taylors-hill-road-salthill-co-galway/3921560
3915980,19098417,"46 Coille Tire, Doughiska, Co. Galway",275000.0,94,94 m²,3,2,Terrace,2022-08-10,B3,115008864,,53.280198,-8.986153,Buy,GALWAY_CITY,http://www.daft.ie/for-sale/terraced-house-46-coille-tire-doughiska-co-galway/3915980
3911821,19065342,"63 Moyola Park, Newcastle, Co. Galway",450000.0,110,110 m²,4,2,Semi-D,2022-08-10,F,114878531,384.15 kWh/m2/yr,53.282559,-9.070533,Buy,GALWAY_CITY,http://www.daft.ie/for-sale/semi-detached-house-63-moyola-park-newcastle-co-galway/3911821
3904722,19000184,"Carraig Villa, Cloonacauneen, Castlegar, Galway, Claregalway, Co. Galway",695000.0,335,335 m²,8,7,Detached,2022-08-10,C1,114167083,,53.315666,-8.994469,Buy,GALWAY_CITY,http://www.daft.ie/for-sale/detached-house-carraig-villa-cloonacauneen-castlegar-galway-claregalway-co-galway/3904722
3907712,19025659,"Doughiska Road, Doughiska, Co. Galway",495000.0,121,121 m²,4,4,Detached,2022-08-10,C2,114587298,178.08 kWh/m2/yr,53.282132,-8.978816,Buy,GALWAY_CITY,http://www.daft.ie/for-sale/detached-house-doughiska-road-doughiska-co-galway/3907712
3906342,19016991,"Ardawn, ARDAWN, 31 College Road, Co. Galway",1100000.0,350,350 m²,9,10,Detached,2022-08-10,C1,114842016,172.02 kWh/m2/yr,53.278214,-9.039673,Buy,GALWAY_CITY,http://www.daft.ie/for-sale/detached-house-ardawn-ardawn-31-college-road-co-galway/3906342
3898861,18940170,"Apt 5, Apt 5, 32 Newcastle Road, Newcastle, Co. Galway",180000.0,45,45 m²,1,1,Terrace,2022-08-10,D2,11608106,265.5 kWh/m2/yr,53.276208,-9.063363,Buy,GALWAY_CITY,http://www.daft.ie/for-sale/terraced-house-apt-5-apt-5-32-newcastle-road-newcastle-co-galway/3898861
3897873,18927849,"30 Laurel Park, Newcastle, Newcastle, Co. Galway",280000.0,N/A,,4,2,Semi-D,2022-08-07,C3,102720224,,53.283711,-9.076604,Buy,GALWAY_CITY,http://www.daft.ie/for-sale/semi-detached-house-30-laurel-park-newcastle-newcastle-co-galway/3897873
3891811,18878536,"2 Gortard Avenue, Rockbarton, Salthill, Co. Galway",780000.0,220,220 m²,4,4,Semi-D,2022-08-10,C3,114866056,,53.260695,-9.085888,Buy,GALWAY_CITY,http://www.daft.ie/for-sale/semi-detached-house-2-gortard-avenue-rockbarton-salthill-co-galway/3891811
3890458,18865717,"7 Dublin Road, Renmore, Co. Galway",575000.0,192,192 m²,5,2,Detached,2022-08-10,D2,113207542,268.33 kWh/m2/yr,53.279518,-9.013282,Buy,GALWAY_CITY,http://www.daft.ie/for-sale/detached-house-7-dublin-road-renmore-co-galway/3890458
3824825,18860227,"6 Doctor Mannix Avenue, Salthill, Co. Galway",750000.0,158,158 m²,4,3,Detached,2022-08-10,D1,114863608,235.73 kWh/m2/yr,53.264296,-9.078323,Buy,GALWAY_CITY,http://www.daft.ie/for-sale/detached-house-6-doctor-mannix-avenue-salthill-co-galway/3824825
3824121,18855759,"6 Dr Mannix Avenue, Salthill, Co. Galway",750000.0,158,158 m²,4,3,Detached,2022-08-10,D1,113876072,,53.264281,-9.078292,Buy,GALWAY_CITY,http://www.daft.ie/for-sale/detached-house-6-dr-mannix-avenue-salthill-co-galway/3824121
3821338,18828802,"163 Lurgan Park, Renmore, Renmore, Co. Galway",375000.0,N/A,,4,2,Semi-D,2022-08-07,C2,109634469,,53.274021,-9.007764,Buy,GALWAY_CITY,http://www.daft.ie/for-sale/semi-detached-house-163-lurgan-park-renmore-renmore-co-galway/3821338
3810835,18736995,"10 The Crescent, Co. Galway",1225000.0,179,179 m²,4,3,Terrace,2022-08-10,,,,53.269068,-9.065157,Buy,GALWAY_CITY,http://www.daft.ie/for-sale/terraced-house-10-the-crescent-co-galway/3810835
3805979,18701593,"12 Beech Park, Renmore, Renmore, Co. Galway",325000.0,N/A,,3,2,Semi-D,2022-08-07,D2,114755374,,53.274078,-9.021583,Buy,GALWAY_CITY,http://www.daft.ie/for-sale/semi-detached-house-12-beech-park-renmore-renmore-co-galway/3805979
3805660,18696384,"10 Cúl Aitinn, Clybaun Road, Co. Galway",525000.0,149,149 m²,4,3,Detached,2022-07-25,C3,,,53.27402,-9.110896,Buy,GALWAY_CITY,http://www.daft.ie/for-sale/detached-house-10-c-l-aitinn-clybaun-road-co-galway/3805660
3805115,18690170,"19 Sceilg Ard, Headford Road, Co. Galway",320000.0,105,105 m²,4,3,Semi-D,2022-08-10,C3,108743063,,53.293116,-9.038672,Buy,GALWAY_CITY,http://www.daft.ie/for-sale/semi-detached-house-19-sceilg-ard-headford-road-co-galway/3805115
3804631,18687064,"17 Caiseal Ur, Bothar Stiofan, Rahoon, Co. Galway","AMV: €295,000",101,101 m²,3,3,Semi-D,2022-05-18,C3,103488433,205.77 kWh/m2/yr,53.272648,-9.10236,Buy,GALWAY_CITY,http://www.daft.ie/for-sale/semi-detached-house-17-caiseal-ur-bothar-stiofan-rahoon-co-galway/3804631
3801092,18653581,"27 Saint Finbarrs Terrace, Bohermore, Bohermore, Co. Galway",235000.0,N/A,,3,2,Terrace,2022-08-07,C3,112403852,,53.280621,-9.045342,Buy,GALWAY_CITY,http://www.daft.ie/for-sale/terraced-house-27-saint-finbarrs-terrace-bohermore-bohermore-co-galway/3801092
3798562,18634178,"17 Shantalla Road, Shantalla, Co. Galway",475000.0,164,164 m²,6,4,Detached,2022-05-13,D2,112841150,270.48 kWh/m2/yr,53.272756,-9.065084,Buy,GALWAY_CITY,http://www.daft.ie/for-sale/detached-house-17-shantalla-road-shantalla-co-galway/3798562
3797961,18628345,"23 McBride Avenue, Mervue, Co. Galway",250000.0,94,94 m²,3,2,End of Terrace,2022-08-10,D2,106247216,297.6 kWh/m2/yr,53.285224,-9.014857,Buy,GALWAY_CITY,http://www.daft.ie/for-sale/end-of-terrace-house-23-mcbride-avenue-mervue-co-galway/3797961
3789898,18568061,"Tudor Lawns, Newcastle, Co. Galway",375000.0,N/A,,4,4,Semi-D,2022-08-10,D1,114768179,236.82 kWh/m2/yr,53.287678,-9.079525,Buy,GALWAY_CITY,http://www.daft.ie/for-sale/semi-detached-house-tudor-lawns-newcastle-co-galway/3789898
3780162,18477249,"39 Caireal Mor, Castlegar, Co. Galway",325000.0,N/A,,4,5,Terrace,2022-08-03,B3,102661972,141.96 kWh/m2/yr,53.297074495223086,-9.034861610369404,Buy,GALWAY_CITY,http://www.daft.ie/for-sale/terraced-house-39-caireal-mor-castlegar-co-galway/3780162
3783664,18510765,"6 Woodfield, Cappagh Road, Barna, Co. Galway",695000.0,217,217 m²,4,4,Detached,2022-08-10,D1,105569354,,53.260613,-9.124186,Buy,GALWAY_CITY,http://www.daft.ie/for-sale/detached-house-6-woodfield-cappagh-road-barna-co-galway/3783664
3779288,18468331,"5 Clarke Avenue, Mervue, Mervue, Co. Galway",285000.0,N/A,,3,1,Semi-D,2022-08-07,E2,107094989,,53.286191,-9.018925,Buy,GALWAY_CITY,http://www.daft.ie/for-sale/semi-detached-house-5-clarke-avenue-mervue-mervue-co-galway/3779288
3774164,18420875,"154 Gleann Dara, Bishop O'Donnell Road, Co. Galway",300000.0,92,92 m²,4,2,Semi-D,2022-08-10,D2,,,53.271555,-9.080554,Buy,GALWAY_CITY,http://www.daft.ie/for-sale/semi-detached-house-154-gleann-dara-bishop-odonnell-road-co-galway/3774164
3771011,18387366,"92 Garrán Ard, Doughiska, Co. Galway",295000.0,N/A,,4,2,End of Terrace,2022-07-25,D1,,,53.282662,-8.977061,Buy,GALWAY_CITY,http://www.daft.ie/for-sale/end-of-terrace-house-92-garr-n-ard-doughiska-co-galway/3771011
3770832,18385870,"69 Forster Court, Co. Galway",435000.0,111,111 m²,4,2,Semi-D,2022-08-10,D2,,,53.278,-9.0433677,Buy,GALWAY_CITY,http://www.daft.ie/for-sale/semi-detached-house-69-forster-court-co-galway/3770832
3756883,18287165,"43 Dublin Road, Renmore, Co. Galway",550000.0,N/A,,6,2,Detached,2022-08-08,C3,102283231,212.67 kWh/m2/yr,53.277702,-9.015932,Buy,GALWAY_CITY,http://www.daft.ie/for-sale/detached-house-43-dublin-road-renmore-co-galway/3756883
3751822,18254961,"Estrella, Taylors Hill, Galway, Taylor's Hill, Co. Galway",1100000.0,296,296 m²,4,4,Detached,2022-08-10,D2,114706799,,53.269299,-9.077429,Buy,GALWAY_CITY,http://www.daft.ie/for-sale/detached-house-estrella-taylors-hill-galway-taylors-hill-co-galway/3751822
3753337,18268644,"112 Renmore Park, Renmore, Renmore, Co. Galway",450000.0,150,150 m²,4,2,Semi-D,2022-07-14,C1,,,53.276073,-9.027612,Buy,GALWAY_CITY,http://www.daft.ie/for-sale/semi-detached-house-112-renmore-park-renmore-renmore-co-galway/3753337
3749913,18234396,"18 College Road, Co. Galway",Price on Application,N/A,,,,Detached,2022-08-10,,,,53.276007,-9.041697,Buy,GALWAY_CITY,http://www.daft.ie/for-sale/detached-house-18-college-road-co-galway/3749913
3749910,18234393,"No.1 The Staples, College Road, Co. Galway",Price on Application,N/A,,,,Detached,2022-08-10,,,,53.279879,-9.037009,Buy,GALWAY_CITY,http://www.daft.ie/for-sale/detached-house-no-1-the-staples-college-road-co-galway/3749910
3749914,18234399,"24 College Road, Co. Galway",Price on Application,N/A,,,,Detached,2022-08-10,,,,53.270668,-9.05679,Buy,GALWAY_CITY,http://www.daft.ie/for-sale/detached-house-24-college-road-co-galway/3749914
3745326,18192357,"85 Gleann Rua, Renmore, Renmore, Co. Galway",300000.0,119,119 m²,4,3,Detached,2022-07-13,C3,114718737,,53.272879,-9.009047,Buy,GALWAY_CITY,http://www.daft.ie/for-sale/detached-house-85-gleann-rua-renmore-renmore-co-galway/3745326
3743633,18172971,"50 Fionnuisce, Doughiska, Doughiska, Co. Galway",240000.0,N/A,,2,2,Townhouse,2022-08-04,C3,114719107,213.68 kWh/m2/yr,53.284331,-8.988757,Buy,GALWAY_CITY,http://www.daft.ie/for-sale/townhouse-50-fionnuisce-doughiska-doughiska-co-galway/3743633
3743095,18167320,"33 Saint Finbarrs Terrace, Bohermore, Co. Galway",245000.0,66,66 m²,3,2,Terrace,2022-06-24,G,109181925,,53.280678,-9.044819,Buy,GALWAY_CITY,http://www.daft.ie/for-sale/terraced-house-33-saint-finbarrs-terrace-bohermore-co-galway/3743095
3735969,18101686,"23 Ashleigh Grove, Knocknacarra, Knocknacarra, Co. Galway",Price on Application,N/A,,6,2,Semi-D,2022-08-08,C3,112609698,224.56 kWh/m2/yr,53.265607,-9.114414,Buy,GALWAY_CITY,http://www.daft.ie/for-sale/semi-detached-house-23-ashleigh-grove-knocknacarra-knocknacarra-co-galway/3735969
3735947,18101673,"64 The Rise, Knocknacarra, Knocknacarra, Co. Galway",Price on Application,N/A,,6,3,Semi-D,2022-08-08,B3,103128716,134.53 kWh/m2/yr,53.265319,-9.110436,Buy,GALWAY_CITY,http://www.daft.ie/for-sale/semi-detached-house-64-the-rise-knocknacarra-knocknacarra-co-galway/3735947
3710854,17864167,"19 College Road, Co. Galway",850000.0,N/A,,9,,Detached,2022-08-10,,,,53.277593,-9.040491,Buy,GALWAY_CITY,http://www.daft.ie/for-sale/detached-house-19-college-road-co-galway/3710854
3708434,17842965,"5 Saint Helen's Street, Co. Galway",395000.0,75,75 m²,4,1,Detached,2022-08-04,E2,114595960,343.52 kWh/m2/yr,53.272025,-9.062192,Buy,GALWAY_CITY,http://www.daft.ie/for-sale/detached-house-5-saint-helens-street-co-galway/3708434
3701485,17808362,"51 Fionnuisce, Doughiska, Doughiska, Co. Galway",240000.0,69,69 m²,2,2,Townhouse,2022-08-04,C3,105249858,214.79 kWh/m2/yr,53.284286,-8.988831,Buy,GALWAY_CITY,http://www.daft.ie/for-sale/townhouse-51-fionnuisce-doughiska-doughiska-co-galway/3701485
3585696,16613902,"Saint Johns, 17 Ardmore, Taylors Hill, Co. Galway",985000.0,185,185 m²,4,3,Detached,2022-08-10,E1,114443450,323.55 kWh/m2/yr,53.266969,-9.083978,Buy,GALWAY_CITY,http://www.daft.ie/for-sale/detached-house-saint-johns-17-ardmore-taylors-hill-co-galway/3585696
3608003,16871919,"3 Claremont Park, Circular Road, Rahoon, Co. Galway",395000.0,118,118 m²,4,2,Detached,2022-08-10,D2,10628969,298.84 kWh/m2/yr,53.276585,-9.084699,Buy,GALWAY_CITY,http://www.daft.ie/for-sale/detached-house-3-claremont-park-circular-road-rahoon-co-galway/3608003
3584887,16607067,"Rose Garden, Rose Garden, Old Doughiska Road, Doughiska, Co. Galway",330000.0,276,276 m²,6,3,Detached,2022-08-10,C3,107518961,,53.280793,-8.963922,Buy,GALWAY_CITY,http://www.daft.ie/for-sale/detached-house-rose-garden-rose-garden-old-doughiska-road-doughiska-co-galway/3584887
3436802,15490148,"Doughiska, Co. Galway",450000.0,177,177 m²,4,3,Detached,2022-07-30,F,113797773,393.42 kWh/m2/yr,53.280364,-8.969982,Buy,GALWAY_CITY,http://www.daft.ie/for-sale/detached-house-doughiska-co-galway/3436802
1172771,12132320,"Cloonacauneen, Claregalway, Co. Galway",375000.0,128,128 m²,4,1,Detached,2022-06-23,G,,,53.314212,-8.989522,Buy,GALWAY_CITY,http://www.daft.ie/for-sale/detached-house-cloonacauneen-claregalway-co-galway/1172771
2589096,12736373,"Glenard House, Castlegar Village, Castlegar, Co. Galway",895000.0,308,308 m²,7,7,Detached,2022-07-25,B3,106248883,149.09 kWh/m2/yr,53.299344,-9.020556,Buy,GALWAY_CITY,http://www.daft.ie/for-sale/detached-house-glenard-house-castlegar-village-castlegar-co-galway/2589096
2303292,12485479,"Amber Cottage, 4 Ballybane Cottages, Co. Galway",380000.0,N/A,,4,2,Terrace,2022-05-27,C1,,,53.288384,-9.002606,Buy,GALWAY_CITY,http://www.daft.ie/for-sale/terraced-house-amber-cottage-4-ballybane-cottages-co-galway/2303292
3934451,19270549,"124 Fearann Rí, Doughiska, Doughiska, Co. Galway",262000.0,N/A,,4,3,Semi-D,2022-08-07,C2,114701733,,53.284308,-8.988176,Buy,GALWAY_CITY,http://www.daft.ie/for-sale/semi-detached-house-124-fearann-r-doughiska-doughiska-co-galway/3934451
3932713,19251034,"13 Rahylin Glebe, Ballybane, Ballybane, Co. Galway",255000.0,N/A,,3,2,Semi-D,2022-08-07,D2,104511506,,53.284724,-9.009429,Buy,GALWAY_CITY,http://www.daft.ie/for-sale/semi-detached-house-13-rahylin-glebe-ballybane-ballybane-co-galway/3932713
3930066,19230965,"1B Durabhan, Roscam, Co. Galway",395000.0,133,133 m²,4,3,Semi-D,2022-08-10,A3,112460092,,53.277485,-8.975224,Buy,GALWAY_CITY,http://www.daft.ie/for-sale/semi-detached-house-1b-durabhan-roscam-co-galway/3930066
3926997,19198764,"399 Tirellan Heights, Headford Road, Co. Galway",280000.0,88,88 m²,4,3,Semi-D,2022-08-10,C3,101492080,217.71 kWh/m2/yr,53.290778,-9.045317,Buy,GALWAY_CITY,http://www.daft.ie/for-sale/semi-detached-house-399-tirellan-heights-headford-road-co-galway/3926997
3925492,19179465,"9 Cluain Ard, Ballybrit, Ballybrit, Co. Galway",275000.0,90,90 m²,3,2,Semi-D,2022-07-25,D1,114144538,,53.287977,-9.001229,Buy,GALWAY_CITY,http://www.daft.ie/for-sale/semi-detached-house-9-cluain-ard-ballybrit-ballybrit-co-galway/3925492
3911821,19065342,"63 Moyola Park, Newcastle, Co. Galway",450000.0,110,110 m²,4,2,Semi-D,2022-08-10,F,114878531,384.15 kWh/m2/yr,53.282559,-9.070533,Buy,GALWAY_CITY,http://www.daft.ie/for-sale/semi-detached-house-63-moyola-park-newcastle-co-galway/3911821
3897873,18927849,"30 Laurel Park, Newcastle, Newcastle, Co. Galway",280000.0,N/A,,4,2,Semi-D,2022-08-07,C3,102720224,,53.283711,-9.076604,Buy,GALWAY_CITY,http://www.daft.ie/for-sale/semi-detached-house-30-laurel-park-newcastle-newcastle-co-galway/3897873
3891811,18878536,"2 Gortard Avenue, Rockbarton, Salthill, Co. Galway",780000.0,220,220 m²,4,4,Semi-D,2022-08-10,C3,114866056,,53.260695,-9.085888,Buy,GALWAY_CITY,http://www.daft.ie/for-sale/semi-detached-house-2-gortard-avenue-rockbarton-salthill-co-galway/3891811
3821338,18828802,"163 Lurgan Park, Renmore, Renmore, Co. Galway",375000.0,N/A,,4,2,Semi-D,2022-08-07,C2,109634469,,53.274021,-9.007764,Buy,GALWAY_CITY,http://www.daft.ie/for-sale/semi-detached-house-163-lurgan-park-renmore-renmore-co-galway/3821338
3805979,18701593,"12 Beech Park, Renmore, Renmore, Co. Galway",325000.0,N/A,,3,2,Semi-D,2022-08-07,D2,114755374,,53.274078,-9.021583,Buy,GALWAY_CITY,http://www.daft.ie/for-sale/semi-detached-house-12-beech-park-renmore-renmore-co-galway/3805979
3805115,18690170,"19 Sceilg Ard, Headford Road, Co. Galway",320000.0,105,105 m²,4,3,Semi-D,2022-08-10,C3,108743063,,53.293116,-9.038672,Buy,GALWAY_CITY,http://www.daft.ie/for-sale/semi-detached-house-19-sceilg-ard-headford-road-co-galway/3805115
3804631,18687064,"17 Caiseal Ur, Bothar Stiofan, Rahoon, Co. Galway","AMV: €295,000",101,101 m²,3,3,Semi-D,2022-05-18,C3,103488433,205.77 kWh/m2/yr,53.272648,-9.10236,Buy,GALWAY_CITY,http://www.daft.ie/for-sale/semi-detached-house-17-caiseal-ur-bothar-stiofan-rahoon-co-galway/3804631
3789898,18568061,"Tudor Lawns, Newcastle, Co. Galway",375000.0,N/A,,4,4,Semi-D,2022-08-10,D1,114768179,236.82 kWh/m2/yr,53.287678,-9.079525,Buy,GALWAY_CITY,http://www.daft.ie/for-sale/semi-detached-house-tudor-lawns-newcastle-co-galway/3789898
3779288,18468331,"5 Clarke Avenue, Mervue, Mervue, Co. Galway",285000.0,N/A,,3,1,Semi-D,2022-08-07,E2,107094989,,53.286191,-9.018925,Buy,GALWAY_CITY,http://www.daft.ie/for-sale/semi-detached-house-5-clarke-avenue-mervue-mervue-co-galway/3779288
3774164,18420875,"154 Gleann Dara, Bishop O'Donnell Road, Co. Galway",300000.0,92,92 m²,4,2,Semi-D,2022-08-10,D2,,,53.271555,-9.080554,Buy,GALWAY_CITY,http://www.daft.ie/for-sale/semi-detached-house-154-gleann-dara-bishop-odonnell-road-co-galway/3774164
3770832,18385870,"69 Forster Court, Co. Galway",435000.0,111,111 m²,4,2,Semi-D,2022-08-10,D2,,,53.278,-9.0433677,Buy,GALWAY_CITY,http://www.daft.ie/for-sale/semi-detached-house-69-forster-court-co-galway/3770832
3753337,18268644,"112 Renmore Park, Renmore, Renmore, Co. Galway",450000.0,150,150 m²,4,2,Semi-D,2022-07-14,C1,,,53.276073,-9.027612,Buy,GALWAY_CITY,http://www.daft.ie/for-sale/semi-detached-house-112-renmore-park-renmore-renmore-co-galway/3753337
3735969,18101686,"23 Ashleigh Grove, Knocknacarra, Knocknacarra, Co. Galway",Price on Application,N/A,,6,2,Semi-D,2022-08-08,C3,112609698,224.56 kWh/m2/yr,53.265607,-9.114414,Buy,GALWAY_CITY,http://www.daft.ie/for-sale/semi-detached-house-23-ashleigh-grove-knocknacarra-knocknacarra-co-galway/3735969
3735947,18101673,"64 The Rise, Knocknacarra, Knocknacarra, Co. Galway",Price on Application,N/A,,6,3,Semi-D,2022-08-08,B3,103128716,134.53 kWh/m2/yr,53.265319,-9.110436,Buy,GALWAY_CITY,http://www.daft.ie/for-sale/semi-detached-house-64-the-rise-knocknacarra-knocknacarra-co-galway/3735947
