id,daftShortcode,title,price,size_meters_squared,propertySize,bedrooms,bathrooms,propertyType,publishDate,ber_rating,ber_code,ber_epi,latitude,longitude,category,location,url_link
3967278,19534839,"63 Galtymore Road, Drimnagh, Dublin 12",339950.0,N/A,,,2,Terrace,2022-08-10,D2,,,53.332019,-6.321884,Buy,INCHICORE_DUBLIN,http://www.daft.ie/for-sale/terraced-house-63-galtymore-road-drimnagh-dublin-12/3967278
3961469,19484842,"134 Mangerton road, Drimnagh, Dublin 12",299950.0,N/A,,3,1,End of Terrace,2022-08-10,,,,53.327965,-6.329497,Buy,INCHICORE_DUBLIN,http://www.daft.ie/for-sale/end-of-terrace-house-134-mangerton-road-drimnagh-dublin-12/3961469
3959289,19464387,"51 Jamestown Road, Inchicore, Inchicore, Dublin 8",495000.0,127,127 m²,3,3,Terrace,2022-08-10,B2,,,53.335089,-6.330627,Buy,INCHICORE_DUBLIN,http://www.daft.ie/for-sale/terraced-house-51-jamestown-road-inchicore-inchicore-dublin-8/3959289
3959735,19469744,"310 Galtymore Road, Drimnagh, Drimnagh, Dublin 12",299950.0,N/A,,2,1,Terrace,2022-06-30,SI_666,,,53.335068,-6.30984,Buy,INCHICORE_DUBLIN,http://www.daft.ie/for-sale/terraced-house-310-galtymore-road-drimnagh-drimnagh-dublin-12/3959735
3958064,19451783,"125 Kilworth Road, Drimnagh, Drimnagh, Dublin 12",295000.0,84,84 m²,2,2,Terrace,2022-08-09,G,,,53.329966,-6.326689,Buy,INCHICORE_DUBLIN,http://www.daft.ie/for-sale/terraced-house-125-kilworth-road-drimnagh-drimnagh-dublin-12/3958064
3956821,19441399,"274 Cooley Road, Drimnagh, Drimnagh, Dublin 12",240000.0,69,69 m²,2,2,Terrace,2022-08-09,F,,,53.332541,-6.325513,Buy,INCHICORE_DUBLIN,http://www.daft.ie/for-sale/terraced-house-274-cooley-road-drimnagh-drimnagh-dublin-12/3956821
3949803,19419779,"5 Inchicore Terrace South, Inchicore, Dublin 8",425000.0,86,86 m²,2,1,Terrace,2022-08-10,F,115188963,,53.33991,-6.323556,Buy,INCHICORE_DUBLIN,http://www.daft.ie/for-sale/terraced-house-5-inchicore-terrace-south-inchicore-dublin-8/3949803
3947369,19397310,"27 Rafters Road, Drimnagh, Drimnagh, Dublin 12",249950.0,N/A,,2,1,Terrace,2022-07-20,SI_666,,,53.329601,-6.314577,Buy,INCHICORE_DUBLIN,http://www.daft.ie/for-sale/terraced-house-27-rafters-road-drimnagh-drimnagh-dublin-12/3947369
3945278,19375197,"33 Ballyneety Road, Ballyfermot, Dublin 10",245000.0,72,72 m²,2,1,End of Terrace,2022-07-17,E2,114386436,342.23 kWh/m2/yr,53.3405996,-6.3343312,Buy,INCHICORE_DUBLIN,http://www.daft.ie/for-sale/end-of-terrace-house-33-ballyneety-road-ballyfermot-dublin-10/3945278
3944366,19366750,"55 Walkinstown Park, Walkinstown, Dublin 12",349950.0,86,86 m²,3,1,End of Terrace,2022-08-10,D1,,,53.31845,-6.338914,Buy,INCHICORE_DUBLIN,http://www.daft.ie/for-sale/end-of-terrace-house-55-walkinstown-park-walkinstown-dublin-12/3944366
3944116,19365028,"130 Walkinstown Road, Walkinstown, Dublin 12",449950.0,N/A,,3,2,End of Terrace,2022-07-21,C3,115360497,216.95 kWh/m2/yr,53.319563,-6.332357,Buy,INCHICORE_DUBLIN,http://www.daft.ie/for-sale/end-of-terrace-house-130-walkinstown-road-walkinstown-dublin-12/3944116
3944042,19364430,"127 Errigal Road, Drimnagh, Drimnagh, Dublin 12",399950.0,N/A,,3,3,End of Terrace,2022-07-11,D1,115226649,239.31 kWh/m2/yr,53.327116,-6.323243,Buy,INCHICORE_DUBLIN,http://www.daft.ie/for-sale/end-of-terrace-house-127-errigal-road-drimnagh-drimnagh-dublin-12/3944042
3942687,19350436,"41 Landen Road, Ballyfermot, Ballyfermot, Dublin 10",285000.0,77,77 m²,2,2,Terrace,2022-08-09,E1,,,53.340906,-6.33012,Buy,INCHICORE_DUBLIN,http://www.daft.ie/for-sale/terraced-house-41-landen-road-ballyfermot-ballyfermot-dublin-10/3942687
3940771,19332166,"214D Kilworth Road, Drimnagh, Drimnagh, Dublin 12",445000.0,91,91 m²,3,2,Semi-D,2022-08-08,D2,104581400,283.26 kWh/m2/yr,53.330628,-6.328221,Buy,INCHICORE_DUBLIN,http://www.daft.ie/for-sale/semi-detached-house-214d-kilworth-road-drimnagh-drimnagh-dublin-12/3940771
3940626,19330428,"3 Landsdowne Valley Crescent, Drimnagh, Dublin 12",380000.0,83,83 m²,3,1,Terrace,2022-08-10,C3,,,53.334201,-6.32507,Buy,INCHICORE_DUBLIN,http://www.daft.ie/for-sale/terraced-house-3-landsdowne-valley-crescent-drimnagh-dublin-12/3940626
3939433,19319481,"53 Thomas Moore Road, Walkinstown, Dublin 12",450000.0,94,94 m²,3,2,Terrace,2022-08-10,C1,,,53.319328,-6.333743,Buy,INCHICORE_DUBLIN,http://www.daft.ie/for-sale/terraced-house-53-thomas-moore-road-walkinstown-dublin-12/3939433
3938873,19312234,"16 Heuston Square, Inchicore Road, Kilmainham, Dublin 8",525000.0,121,121 m²,4,3,End of Terrace,2022-08-10,C1,110271129,163.74 kWh/m2/yr,53.342559,-6.312794,Buy,INCHICORE_DUBLIN,http://www.daft.ie/for-sale/end-of-terrace-house-16-heuston-square-inchicore-road-kilmainham-dublin-8/3938873
3934838,19274458,"8 Camac Court, Kilmainham, Dublin 8",325000.0,56,56 m²,2,1,Terrace,2022-08-10,C3,100902592,211.82 kWh/m2/yr,53.341845,-6.315107,Buy,INCHICORE_DUBLIN,http://www.daft.ie/for-sale/terraced-house-8-camac-court-kilmainham-dublin-8/3934838
3932693,19251025,"80 Curlew Road, Drimnagh, Drimnagh, Dublin 12",299950.0,N/A,,2,1,End of Terrace,2022-06-14,SI_666,,,53.328313,-6.318698,Buy,INCHICORE_DUBLIN,http://www.daft.ie/for-sale/end-of-terrace-house-80-curlew-road-drimnagh-drimnagh-dublin-12/3932693
3932680,19251018,"29 Galtymore Park, Drimnagh, Drimnagh, Dublin 12",299950.0,79,79 m²,3,1,Terrace,2022-07-04,D1,,,53.331368,-6.321403,Buy,INCHICORE_DUBLIN,http://www.daft.ie/for-sale/terraced-house-29-galtymore-park-drimnagh-drimnagh-dublin-12/3932680
3929701,19226549,"64 Curlew Road, Drimnagh, Drimnagh, Dublin 12",300000.0,61,61 m²,2,1,Terrace,2022-08-10,E1,,,53.328206,-6.31922,Buy,INCHICORE_DUBLIN,http://www.daft.ie/for-sale/terraced-house-64-curlew-road-drimnagh-drimnagh-dublin-12/3929701
3928130,19209504,"83 Carrow Road, Drimnagh, Drimnagh, Dublin 12",290000.0,70,70 m²,3,1,Semi-D,2022-07-27,E2,,,53.333071,-6.31985,Buy,INCHICORE_DUBLIN,http://www.daft.ie/for-sale/semi-detached-house-83-carrow-road-drimnagh-drimnagh-dublin-12/3928130
3927545,19203122,"306 Cooley Road, Drimnagh, Drimnagh, Dublin 12",349950.0,N/A,,2,1,End of Terrace,2022-06-09,SI_666,,,53.332604,-6.326497,Buy,INCHICORE_DUBLIN,http://www.daft.ie/for-sale/end-of-terrace-house-306-cooley-road-drimnagh-drimnagh-dublin-12/3927545
3925709,19183848,"380 Kildare Road, Crumlin, Dublin 12",295000.0,73,73 m²,2,1,End of Terrace,2022-08-10,E2,,,53.325044,-6.316494,Buy,INCHICORE_DUBLIN,http://www.daft.ie/for-sale/end-of-terrace-house-380-kildare-road-crumlin-dublin-12/3925709
3924812,19174953,"39 Brandon Road, Drimnagh, Drimnagh, Dublin 12",330000.0,72,72 m²,3,1,Terrace,2022-08-10,F,,,53.32577,-6.323883,Buy,INCHICORE_DUBLIN,http://www.daft.ie/for-sale/terraced-house-39-brandon-road-drimnagh-drimnagh-dublin-12/3924812
3920273,19138730,"216 Cooley Road, Drimnagh, Dublin 12",335000.0,114,114 m²,4,1,Semi-D,2022-08-10,E1,115025520,337.27 kWh/m2/yr,53.332197,-6.326595,Buy,INCHICORE_DUBLIN,http://www.daft.ie/for-sale/semi-detached-house-216-cooley-road-drimnagh-dublin-12/3920273
3919061,19127548,"Bar Na Coille, 36E Chapelizod Hill Road, Chapelizod, Dublin 20",575000.0,173,173 m²,4,2,Detached,2022-08-10,G,,,53.345895,-6.347579,Buy,INCHICORE_DUBLIN,http://www.daft.ie/for-sale/detached-house-bar-na-coille-36e-chapelizod-hill-road-chapelizod-dublin-20/3919061
3918800,19124618,"28 Curlew Road, Drimnagh, Drimnagh, Dublin 12",399950.0,N/A,,3,2,End of Terrace,2022-06-02,SI_666,,,53.328873,-6.320433,Buy,INCHICORE_DUBLIN,http://www.daft.ie/for-sale/end-of-terrace-house-28-curlew-road-drimnagh-drimnagh-dublin-12/3918800
3918073,19117364,"56 Knocknarea Avenue, Drimnagh, Drimnagh, Dublin 12",310000.0,67,67 m²,3,2,Terrace,2022-08-10,D1,,,53.330479,-6.311646,Buy,INCHICORE_DUBLIN,http://www.daft.ie/for-sale/terraced-house-56-knocknarea-avenue-drimnagh-drimnagh-dublin-12/3918073
3915977,19098412,"56 Benbulbin Road, Drimnagh, Dublin 12",325000.0,73,73 m²,3,2,Semi-D,2022-08-10,E1,,,53.333647,-6.311798,Buy,INCHICORE_DUBLIN,http://www.daft.ie/for-sale/semi-detached-house-56-benbulbin-road-drimnagh-dublin-12/3915977
3909610,19043560,"57 Jamestown Avenue, Inchicore, Inchicore, Dublin 8",374950.0,N/A,,2,1,End of Terrace,2022-06-14,G,115053464,641.41 kWh/m2/yr,53.335405,-6.330143,Buy,INCHICORE_DUBLIN,http://www.daft.ie/for-sale/end-of-terrace-house-57-jamestown-avenue-inchicore-inchicore-dublin-8/3909610
3909538,19043487,"87 Bunting Road, Walkinstown, Walkinstown, Dublin 12",374950.0,N/A,,3,1,Terrace,2022-06-13,E2,115049488,341.8 kWh/m2/yr,53.318891,-6.329412,Buy,INCHICORE_DUBLIN,http://www.daft.ie/for-sale/terraced-house-87-bunting-road-walkinstown-walkinstown-dublin-12/3909538
3900676,18960973,"75 Dromard Road, Drimnagh, Dublin 12",299950.0,N/A,,3,2,Terrace,2022-08-10,,,,53.327812,-6.320645,Buy,INCHICORE_DUBLIN,http://www.daft.ie/for-sale/terraced-house-75-dromard-road-drimnagh-dublin-12/3900676
3900068,18955890,"53 Lissadel Avenue, Drimnagh, Drimnagh, Dublin 12",324950.0,N/A,,2,1,Terrace,2022-05-19,D2,101643971,281.56 kWh/m2/yr,53.330607,-6.312311,Buy,INCHICORE_DUBLIN,http://www.daft.ie/for-sale/terraced-house-53-lissadel-avenue-drimnagh-drimnagh-dublin-12/3900068
3823341,18847066,"87 Kylemore Drive, Ballyfermot, Ballyfermot, Dublin 10",259950.0,72,72 m²,3,1,Terrace,2022-07-18,D2,,,53.336757,-6.351528,Buy,INCHICORE_DUBLIN,http://www.daft.ie/for-sale/terraced-house-87-kylemore-drive-ballyfermot-ballyfermot-dublin-10/3823341
3823244,18847012,"44 Galtymore Drive, Drimnagh, Drimnagh, Dublin 12",324950.0,N/A,,2,1,End of Terrace,2022-06-22,F,115175010,424.34 kWh/m2/yr,53.33426,-6.310834,Buy,INCHICORE_DUBLIN,http://www.daft.ie/for-sale/end-of-terrace-house-44-galtymore-drive-drimnagh-drimnagh-dublin-12/3823244
3819486,18811518,"124 Carrow Road, Drimnagh, Drimnagh, Dublin 12",349950.0,N/A,,2,1,End of Terrace,2022-05-19,D2,114886997,299.57 kWh/m2/yr,53.332239,-6.32044,Buy,INCHICORE_DUBLIN,http://www.daft.ie/for-sale/end-of-terrace-house-124-carrow-road-drimnagh-drimnagh-dublin-12/3819486
3812925,18752538,"25 Bluebell Road, Bluebell, Bluebell, Dublin 12",274950.0,N/A,,2,1,Terrace,2022-05-24,E2,113438204,377.07 kWh/m2/yr,53.330451,-6.336858,Buy,INCHICORE_DUBLIN,http://www.daft.ie/for-sale/terraced-house-25-bluebell-road-bluebell-bluebell-dublin-12/3812925
3807339,18715088,"125 Walkinstown Avenue, Walkinstown, Walkinstown, Dublin 12",324950.0,N/A,,2,2,Terrace,2022-05-17,C2,100742048,194.5 kWh/m2/yr,53.318354,-6.334551,Buy,INCHICORE_DUBLIN,http://www.daft.ie/for-sale/terraced-house-125-walkinstown-avenue-walkinstown-walkinstown-dublin-12/3807339
3804605,18685204,"44 Old, Kilmainham, Dublin 8",295000.0,70,70 m²,2,1,Terrace,2022-08-10,F,112433826,447.66 kWh/m2/yr,53.340776,-6.306495,Buy,INCHICORE_DUBLIN,http://www.daft.ie/for-sale/terraced-house-44-old-kilmainham-dublin-8/3804605
3804602,18685193,"299 Ballyfermot Road, Ballyfermot, Dublin 10",265000.0,76,76 m²,2,2,Semi-D,2022-08-09,F,,,53.342086,-6.35414,Buy,INCHICORE_DUBLIN,http://www.daft.ie/for-sale/semi-detached-house-299-ballyfermot-road-ballyfermot-dublin-10/3804602
3801417,18657065,"St Judes Spire, Kilmainham, Dublin 8",495000.0,206,206 m²,3,,Detached,2022-08-10,SI_666,,,53.341861,-6.315395,Buy,INCHICORE_DUBLIN,http://www.daft.ie/for-sale/detached-house-st-judes-spire-kilmainham-dublin-8/3801417
3796828,18619241,"223 Decies Road, Ballyfermot, Ballyfermot, Dublin 10",224950.0,N/A,,2,1,Terrace,2022-05-20,G,114882863,618.8 kWh/m2/yr,53.339028,-6.34555,Buy,INCHICORE_DUBLIN,http://www.daft.ie/for-sale/terraced-house-223-decies-road-ballyfermot-ballyfermot-dublin-10/3796828
3796113,18613147,"76 Brandon Road, Drimnagh, Dublin 12",349950.0,77,77 m²,3,1,Terrace,2022-08-10,D1,,,53.325748,-6.326258,Buy,INCHICORE_DUBLIN,http://www.daft.ie/for-sale/terraced-house-76-brandon-road-drimnagh-dublin-12/3796113
3789576,18564934,"77 Huband Road, Bluebell, Bluebell, Dublin 12",274950.0,N/A,,3,1,Terrace,2022-05-18,D2,114879919,263.45 kWh/m2/yr,53.332051,-6.331324,Buy,INCHICORE_DUBLIN,http://www.daft.ie/for-sale/terraced-house-77-huband-road-bluebell-bluebell-dublin-12/3789576
3783117,18505994,"9 Walkinstown Road, Walkinstown, Dublin 12",525000.0,110,110 m²,5,3,End of Terrace,2022-08-10,D1,114773864,255.66 kWh/m2/yr,53.323263,-6.328338,Buy,INCHICORE_DUBLIN,http://www.daft.ie/for-sale/end-of-terrace-house-9-walkinstown-road-walkinstown-dublin-12/3783117
3501746,16018584,"57 Old Kilmainham, Dublin 8",245000.0,60,60 m²,2,1,Terrace,2022-07-30,G,114557713,474.97 kWh/m2/yr,53.340627,-6.305678,Buy,INCHICORE_DUBLIN,http://www.daft.ie/for-sale/terraced-house-57-old-kilmainham-dublin-8/3501746
3742789,18161757,"109 Ballyfermot Road, Ballyfermot, Ballyfermot, Dublin 10",215000.0,N/A,,2,1,Terrace,2022-03-08,G,,,53.342127,-6.344161,Buy,INCHICORE_DUBLIN,http://www.daft.ie/for-sale/terraced-house-109-ballyfermot-road-ballyfermot-ballyfermot-dublin-10/3742789
3733927,18079111,"105 Comeragh Road, Drimnagh, Drimnagh, Dublin 12",320000.0,74,74 m²,3,1,Terrace,2022-08-10,D2,,,53.326786,-6.325991,Buy,INCHICORE_DUBLIN,http://www.daft.ie/for-sale/terraced-house-105-comeragh-road-drimnagh-drimnagh-dublin-12/3733927
3715403,17910709,"150 Mangerton Road, Drimnagh, Drimnagh, Dublin 12",365000.0,98,98 m²,3,3,Terrace,2022-08-10,B3,,,53.328334,-6.329455,Buy,INCHICORE_DUBLIN,http://www.daft.ie/for-sale/terraced-house-150-mangerton-road-drimnagh-drimnagh-dublin-12/3715403
3713627,17892855,"58 Clifden Road, Ballyfermot, Dublin 10",240000.0,72,72 m²,3,1,Terrace,2022-08-09,G,,,53.3393568,-6.361692,Buy,INCHICORE_DUBLIN,http://www.daft.ie/for-sale/terraced-house-58-clifden-road-ballyfermot-dublin-10/3713627
3693515,17739781,"16 Galtymore Close, Drimnagh, Drimnagh, Dublin 12",320000.0,78,78 m²,3,1,Terrace,2022-08-10,D2,,,53.330858,-6.32444,Buy,INCHICORE_DUBLIN,http://www.daft.ie/for-sale/terraced-house-16-galtymore-close-drimnagh-drimnagh-dublin-12/3693515
3685771,17674361,"151 Walkinstown Park, Walkinstown, Walkinstown, Dublin 12",330000.0,110,110 m²,3,1,Terrace,2022-08-10,E1,114608326,,53.320456,-6.339344,Buy,INCHICORE_DUBLIN,http://www.daft.ie/for-sale/terraced-house-151-walkinstown-park-walkinstown-walkinstown-dublin-12/3685771
3570562,16451640,"10 Walkinstown Road, Walkinstown, Dublin 12",425000.0,102,102 m²,3,2,Terrace,2022-08-10,F,,,53.323473,-6.328949,Buy,INCHICORE_DUBLIN,http://www.daft.ie/for-sale/terraced-house-10-walkinstown-road-walkinstown-dublin-12/3570562
3276407,15166946,"284 Cooley Road, Drimnagh, Drimnagh, Dublin 12",290000.0,56,56 m²,2,1,End of Terrace,2022-08-10,F,,,53.332702,-6.325769,Buy,INCHICORE_DUBLIN,http://www.daft.ie/for-sale/end-of-terrace-house-284-cooley-road-drimnagh-drimnagh-dublin-12/3276407
2932837,13908844,"28 Camac Park, Bluebell, Dublin 12",400000.0,76,76 m²,2,1,Semi-D,2022-08-02,F,,418.15 kWh/m2/yr,53.3295321,-6.347374,Buy,INCHICORE_DUBLIN,http://www.daft.ie/for-sale/semi-detached-house-28-camac-park-bluebell-dublin-12/2932837
2859371,13446176,"44 O'Moore Road, Ballyfermot, Ballyfermot, Dublin 10",269950.0,N/A,,3,1,Terrace,2022-06-21,C3,,,53.342014,-6.335671,Buy,INCHICORE_DUBLIN,http://www.daft.ie/for-sale/terraced-house-44-omoore-road-ballyfermot-ballyfermot-dublin-10/2859371
3812925,18752538,"25 Bluebell Road, Bluebell, Bluebell, Dublin 12",274950.0,N/A,,2,1,Terrace,2022-05-24,E2,113438204,377.07 kWh/m2/yr,53.330451,-6.336858,Buy,INCHICORE_DUBLIN,http://www.daft.ie/for-sale/terraced-house-25-bluebell-road-bluebell-bluebell-dublin-12/3812925
3807339,18715088,"125 Walkinstown Avenue, Walkinstown, Walkinstown, Dublin 12",324950.0,N/A,,2,2,Terrace,2022-05-17,C2,100742048,194.5 kWh/m2/yr,53.318354,-6.334551,Buy,INCHICORE_DUBLIN,http://www.daft.ie/for-sale/terraced-house-125-walkinstown-avenue-walkinstown-walkinstown-dublin-12/3807339
3804605,18685204,"44 Old, Kilmainham, Dublin 8",295000.0,70,70 m²,2,1,Terrace,2022-08-10,F,112433826,447.66 kWh/m2/yr,53.340776,-6.306495,Buy,INCHICORE_DUBLIN,http://www.daft.ie/for-sale/terraced-house-44-old-kilmainham-dublin-8/3804605
3796828,18619241,"223 Decies Road, Ballyfermot, Ballyfermot, Dublin 10",224950.0,N/A,,2,1,Terrace,2022-05-20,G,114882863,618.8 kWh/m2/yr,53.339028,-6.34555,Buy,INCHICORE_DUBLIN,http://www.daft.ie/for-sale/terraced-house-223-decies-road-ballyfermot-ballyfermot-dublin-10/3796828
3796113,18613147,"76 Brandon Road, Drimnagh, Dublin 12",349950.0,77,77 m²,3,1,Terrace,2022-08-10,D1,,,53.325748,-6.326258,Buy,INCHICORE_DUBLIN,http://www.daft.ie/for-sale/terraced-house-76-brandon-road-drimnagh-dublin-12/3796113
3789576,18564934,"77 Huband Road, Bluebell, Bluebell, Dublin 12",274950.0,N/A,,3,1,Terrace,2022-05-18,D2,114879919,263.45 kWh/m2/yr,53.332051,-6.331324,Buy,INCHICORE_DUBLIN,http://www.daft.ie/for-sale/terraced-house-77-huband-road-bluebell-bluebell-dublin-12/3789576
3501746,16018584,"57 Old Kilmainham, Dublin 8",245000.0,60,60 m²,2,1,Terrace,2022-07-30,G,114557713,474.97 kWh/m2/yr,53.340627,-6.305678,Buy,INCHICORE_DUBLIN,http://www.daft.ie/for-sale/terraced-house-57-old-kilmainham-dublin-8/3501746
3742789,18161757,"109 Ballyfermot Road, Ballyfermot, Ballyfermot, Dublin 10",215000.0,N/A,,2,1,Terrace,2022-03-08,G,,,53.342127,-6.344161,Buy,INCHICORE_DUBLIN,http://www.daft.ie/for-sale/terraced-house-109-ballyfermot-road-ballyfermot-ballyfermot-dublin-10/3742789
3733927,18079111,"105 Comeragh Road, Drimnagh, Drimnagh, Dublin 12",320000.0,74,74 m²,3,1,Terrace,2022-08-10,D2,,,53.326786,-6.325991,Buy,INCHICORE_DUBLIN,http://www.daft.ie/for-sale/terraced-house-105-comeragh-road-drimnagh-drimnagh-dublin-12/3733927
3715403,17910709,"150 Mangerton Road, Drimnagh, Drimnagh, Dublin 12",365000.0,98,98 m²,3,3,Terrace,2022-08-10,B3,,,53.328334,-6.329455,Buy,INCHICORE_DUBLIN,http://www.daft.ie/for-sale/terraced-house-150-mangerton-road-drimnagh-drimnagh-dublin-12/3715403
3713627,17892855,"58 Clifden Road, Ballyfermot, Dublin 10",240000.0,72,72 m²,3,1,Terrace,2022-08-09,G,,,53.3393568,-6.361692,Buy,INCHICORE_DUBLIN,http://www.daft.ie/for-sale/terraced-house-58-clifden-road-ballyfermot-dublin-10/3713627
3693515,17739781,"16 Galtymore Close, Drimnagh, Drimnagh, Dublin 12",320000.0,78,78 m²,3,1,Terrace,2022-08-10,D2,,,53.330858,-6.32444,Buy,INCHICORE_DUBLIN,http://www.daft.ie/for-sale/terraced-house-16-galtymore-close-drimnagh-drimnagh-dublin-12/3693515
3685771,17674361,"151 Walkinstown Park, Walkinstown, Walkinstown, Dublin 12",330000.0,110,110 m²,3,1,Terrace,2022-08-10,E1,114608326,,53.320456,-6.339344,Buy,INCHICORE_DUBLIN,http://www.daft.ie/for-sale/terraced-house-151-walkinstown-park-walkinstown-walkinstown-dublin-12/3685771
3570562,16451640,"10 Walkinstown Road, Walkinstown, Dublin 12",425000.0,102,102 m²,3,2,Terrace,2022-08-10,F,,,53.323473,-6.328949,Buy,INCHICORE_DUBLIN,http://www.daft.ie/for-sale/terraced-house-10-walkinstown-road-walkinstown-dublin-12/3570562
2859371,13446176,"44 O'Moore Road, Ballyfermot, Ballyfermot, Dublin 10",269950.0,N/A,,3,1,Terrace,2022-06-21,C3,,,53.342014,-6.335671,Buy,INCHICORE_DUBLIN,http://www.daft.ie/for-sale/terraced-house-44-omoore-road-ballyfermot-ballyfermot-dublin-10/2859371
