id,daftShortcode,title,price,size_meters_squared,propertySize,bedrooms,bathrooms,propertyType,publishDate,ber_rating,ber_code,ber_epi,latitude,longitude,category,location,url_link
3997868,112914317,"Rahoneen Cottage, Rahoneen, Ardfert, Co. Kerry",150000.0,40,40 m²,1,1,Detached,2022-08-01,G,,,52.318665,-9.814899,Buy,KERRY,http://www.daft.ie/for-sale/detached-house-rahoneen-cottage-rahoneen-ardfert-co-kerry/3997868
3997719,112911715,"Old Road, Shinnagh, Rathmore, Co. Kerry",Price on Application,167,167 m²,4,1,Detached,2022-07-27,D1,115367682,253.91 kWh/m2/yr,52.081202,-9.214882,Buy,KERRY,http://www.daft.ie/for-sale/detached-house-old-road-shinnagh-rathmore-co-kerry/3997719
3997257,112906548,"41 Oakwood Manor, Kenmare, Co. Kerry",925000.0,257,257 m²,4,5,Detached,2022-08-10,B3,105831994,131.83 kWh/m2/yr,51.886099,-9.574545,Buy,KERRY,http://www.daft.ie/for-sale/detached-house-41-oakwood-manor-kenmare-co-kerry/3997257
3997057,112905008,"Ballydonohoe, Listowel, Co. Kerry",325000.0,120,120 m²,3,2,Detached,2022-08-03,D2,,,52.478088,-9.559616,Buy,KERRY,http://www.daft.ie/for-sale/detached-house-ballydonohoe-listowel-co-kerry/3997057
3996011,112893134,"Greenville, Listowel, Co. Kerry",250000.0,1000,1000 m²,3,1,Detached,2022-08-01,E2,115209181,377.66 kWh/m2/yr,52.444508,-9.509967,Buy,KERRY,http://www.daft.ie/for-sale/detached-house-greenville-listowel-co-kerry/3996011
3995016,112880747,"Dooncaha, Tarbert, Co. Kerry",605000.0,130,130 m²,3,1,Detached,2022-07-26,D2,115188849,298.79 kWh/m2/yr,52.550322,-9.386847,Buy,KERRY,http://www.daft.ie/for-sale/detached-house-dooncaha-tarbert-co-kerry/3995016
3994126,112871647,"Faha, Glenbeigh, Co. Kerry",585000.0,225,225 m²,3,4,Detached,2022-07-29,C2,115358525,176.16 kWh/m2/yr,52.058061,-9.955689,Buy,KERRY,http://www.daft.ie/for-sale/detached-house-faha-glenbeigh-co-kerry/3994126
3937262,19299191,"Cloonts Court, Cloonts, Rathmore, Co. Kerry",210000.0,N/A,,3,1,Detached,2022-08-04,C3,,,52.08741307852162,-9.211177281352377,Buy,KERRY,http://www.daft.ie/for-sale/detached-house-cloonts-court-cloonts-rathmore-co-kerry/3937262
3769556,18372215,"The Old School House, Glencuttane, Beaufort, Co. Kerry",99500.0,102,102 m²,3,2,Detached,2022-08-02,SI_666,,,52.04248767040684,-9.775401810338423,Buy,KERRY,http://www.daft.ie/for-sale/detached-house-the-old-school-house-glencuttane-beaufort-co-kerry/3769556
3992077,19748903,"Tarmons West, Moyvane, Co. Kerry",259000.0,165,165 m²,5,2,Detached,2022-08-10,C3,115348625,217.25 kWh/m2/yr,52.53449,-9.384225,Buy,KERRY,http://www.daft.ie/for-sale/detached-house-tarmons-west-moyvane-co-kerry/3992077
3992018,19748878,"Cloonsharragh, Cloghane, Co. Kerry",420000.0,110,110 m²,3,2,Detached,2022-07-27,E2,,,52.243827,-10.176443,Buy,KERRY,http://www.daft.ie/for-sale/detached-house-cloonsharragh-cloghane-co-kerry/3992018
3991962,19748731,"Dreenagh, Ballyheigue, Co. Kerry",175000.0,N/A,,3,1,Detached,2022-08-04,D2,107471567,293.15 kWh/m2/yr,52.423015,-9.896748,Buy,KERRY,http://www.daft.ie/for-sale/detached-house-dreenagh-ballyheigue-co-kerry/3991962
3991745,19744649,"Dromickbane, Muckross, Killarney, Co. Kerry",575000.0,232,232 m²,5,3,Detached,2022-08-10,C2,115351348,189.43 kWh/m2/yr,52.026317,-9.457631,Buy,KERRY,http://www.daft.ie/for-sale/detached-house-dromickbane-muckross-killarney-co-kerry/3991745
3991452,19739306,"5 Dun Bui, Cullenagh Lower, Beaufort, Killarney, Co. Kerry",485000.0,232,232 m²,4,3,Detached,2022-08-10,C1,113507123,161.67 kWh/m2/yr,52.063294,-9.661713,Buy,KERRY,http://www.daft.ie/for-sale/detached-house-5-dun-bui-cullenagh-lower-beaufort-killarney-co-kerry/3991452
3985384,19678844,"Grove Lodge Country House, Killarney Road, Killorglin, Co. Kerry",1100000.0,576,576 m²,12,12,Detached,2022-08-08,C3,115337818,219.53 kWh/m2/yr,52.102762,-9.775841,Buy,KERRY,http://www.daft.ie/for-sale/detached-house-grove-lodge-country-house-killarney-road-killorglin-co-kerry/3985384
3989612,19720279,"The Old Presbytery, Milleens, Kenmare, Co. Kerry",575000.0,190,190 m²,4,3,Detached,2022-08-10,C3,106359425,221.27 kWh/m2/yr,51.815815,-9.538897,Buy,KERRY,http://www.daft.ie/for-sale/detached-house-the-old-presbytery-milleens-kenmare-co-kerry/3989612
3989426,19718914,"Gort Na Furteen, Farna, Castlemaine, Co. Kerry","AMV: €65,000",N/A,,1,,Detached,2022-08-10,SI_666,,,52.189672,-9.733731,Buy,KERRY,http://www.daft.ie/for-sale/detached-house-gort-na-furteen-farna-castlemaine-co-kerry/3989426
3489260,15893197,"Curragh Cottage, Curraheen, Tralee, Co. Kerry",200000.0,N/A,,3,1,Detached,2022-07-20,G,114354392,621.68 kWh/m2/yr,52.241764,-9.804494,Buy,KERRY,http://www.daft.ie/for-sale/detached-house-curragh-cottage-curraheen-tralee-co-kerry/3489260
3987030,19692278,"Renagowan (Folio KY53308F), Lyracrumpane, Listowel, Co. Kerry","AMV: €135,000",N/A,,4,2,Detached,2022-08-10,C3,114315062,224.97 kWh/m2/yr,52.308829,-9.508258,Buy,KERRY,http://www.daft.ie/for-sale/detached-house-renagowan-folio-ky53308f-lyracrumpane-listowel-co-kerry/3987030
3986339,19686399,"Fiddler's Cottage, Fiddler's Cottage, Gleesk, Sneem, Co. Kerry",165000.0,N/A,,3,,Detached,2022-08-10,F,115231037,428.74 kWh/m2/yr,51.808579,-9.94552,Buy,KERRY,http://www.daft.ie/for-sale/detached-house-fiddlers-cottage-fiddlers-cottage-gleesk-sneem-co-kerry/3986339
3986225,19685902,"3 Parkland Holiday Homes, Port Road, Killarney, Co. Kerry",320000.0,111,111 m²,3,3,Detached,2022-08-10,D1,,,52.067285,-9.521718,Buy,KERRY,http://www.daft.ie/for-sale/detached-house-3-parkland-holiday-homes-port-road-killarney-co-kerry/3986225
3986068,19684304,"Ballybrack, Killarney, Co. Kerry",290000.0,N/A,,4,2,Detached,2022-07-18,C3,,,52.0591912851534,-9.5038990849684,Buy,KERRY,http://www.daft.ie/for-sale/detached-house-ballybrack-killarney-co-kerry/3986068
3956795,19441387,"1 Woodlee, Monavalley, Tralee, Co. Kerry",325000.0,256,256 m²,5,2,Detached,2022-08-08,E1,115396491,301.06 kWh/m2/yr,52.278482,-9.701551,Buy,KERRY,http://www.daft.ie/for-sale/detached-house-1-woodlee-monavalley-tralee-co-kerry/3956795
3985297,19677310,"Ballybrack, Killarney, Co. Kerry",290000.0,175,175 m²,4,2,Detached,2022-08-10,C3,114496839,210.52 kWh/m2/yr,52.141605,-9.595633,Buy,KERRY,http://www.daft.ie/for-sale/detached-house-ballybrack-killarney-co-kerry/3985297
3984894,19673200,"Doon East, Ballybunion, Co. Kerry",495000.0,170,170 m²,4,5,Detached,2022-07-19,B3,103682522,146.1 kWh/m2/yr,52.525954,-9.667968,Buy,KERRY,http://www.daft.ie/for-sale/detached-house-doon-east-ballybunion-co-kerry/3984894
3984081,19665202,"Gortalassa, Firies, Co. Kerry",90000.0,85,85 m²,2,1,Detached,2022-07-20,E2,115351538,348.36 kWh/m2/yr,52.162093,-9.583781,Buy,KERRY,http://www.daft.ie/for-sale/detached-house-gortalassa-firies-co-kerry/3984081
3983634,19657948,"Listellick North, Tralee, Co. Kerry",130000.0,73,73 m²,3,1,Detached,2022-08-09,E2,,,52.298581,-9.695213,Buy,KERRY,http://www.daft.ie/for-sale/detached-house-listellick-north-tralee-co-kerry/3983634
3982152,19639272,"Ballinalouth, Tralee, Co. Kerry",470000.0,N/A,,4,4,Detached,2022-07-14,C2,115035222,194.31 kWh/m2/yr,52.295867,-9.710194,Buy,KERRY,http://www.daft.ie/for-sale/detached-house-ballinalouth-tralee-co-kerry/3982152
3981952,19637690,"26 Bluebells Drive, Countess Road, Killarney, Co. Kerry",Price on Application,N/A,,4,3,Detached,2022-08-10,A2,,,52.055173,-9.50402,Buy,KERRY,http://www.daft.ie/for-sale/detached-house-26-bluebells-drive-countess-road-killarney-co-kerry/3981952
3979182,19618356,"Ballyline, Ballylongford, Co. Kerry",105000.0,N/A,,2,1,Detached,2022-07-26,G,115029647,1151.84 kWh/m2/yr,52.520102,-9.496628,Buy,KERRY,http://www.daft.ie/for-sale/detached-house-ballyline-ballylongford-co-kerry/3979182
3970635,19563547,"5 Carrig Dun, Killorglin, Co. Kerry",375000.0,271,271 m²,5,4,Detached,2022-07-15,B2,,,52.115612577221896,-9.784097033728472,Buy,KERRY,http://www.daft.ie/for-sale/detached-house-5-carrig-dun-killorglin-co-kerry/3970635
3975500,19596974,"11 Carrigmore, Caherslee, Tralee, Co. Kerry",580000.0,269,269 m²,5,3,Detached,2022-08-10,B2,108177999,114.68 kWh/m2/yr,52.273608,-9.723227,Buy,KERRY,http://www.daft.ie/for-sale/detached-house-11-carrigmore-caherslee-tralee-co-kerry/3975500
3969845,19556177,"6 Carrig Dun, Killorglin, Co. Kerry",325000.0,177,177 m²,4,4,Detached,2022-07-15,B2,,,52.11548688999932,-9.783576633181355,Buy,KERRY,http://www.daft.ie/for-sale/detached-house-6-carrig-dun-killorglin-co-kerry/3969845
3971118,19567108,"Ballintemple, Dunquin, Co. Kerry","AMV: €159,000",N/A,,3,1,Detached,2022-08-10,G,,,52.133827,-10.451234,Buy,KERRY,http://www.daft.ie/for-sale/detached-house-ballintemple-dunquin-co-kerry/3971118
64813,11417304,"Spring Lodge, Ballyard, Tralee, Co. Kerry",290000.0,N/A,,5,2,Detached,2022-07-08,SI_666,,,52.26183416329983,-9.710015058517456,Buy,KERRY,http://www.daft.ie/for-sale/detached-house-spring-lodge-ballyard-tralee-co-kerry/64813
3969986,19557151,"EBB TIDES, Sandy Lane, Banna, Co. Kerry",197500.0,69,69 m²,3,2,Detached,2022-08-09,D2,,,52.345809,-9.829647,Buy,KERRY,http://www.daft.ie/for-sale/detached-house-ebb-tides-sandy-lane-banna-co-kerry/3969986
3969888,19556198,"Caherbarnagh, Waterville, Co. Kerry",360000.0,N/A,,3,2,Detached,2022-08-08,E1,104905278,300.7 kWh/m2/yr,51.847408,-10.130871,Buy,KERRY,http://www.daft.ie/for-sale/detached-house-caherbarnagh-waterville-co-kerry/3969888
3622300,16999042,"Dromkeare, Waterville, Co. Kerry",Price on Application,N/A,,2,2,Detached,2022-08-05,C2,110231156,197.66 kWh/m2/yr,51.85113,-10.114416,Buy,KERRY,http://www.daft.ie/for-sale/detached-house-dromkeare-waterville-co-kerry/3622300
3969614,19555274,"Abbeylands, Ardfert, Co. Kerry",Price on Application,277,277 m²,4,3,Detached,2022-07-07,B2,106523129,106.03 kWh/m2/yr,52.332014,-9.778743,Buy,KERRY,http://www.daft.ie/for-sale/detached-house-abbeylands-ardfert-co-kerry/3969614
3969552,19555242,"Reenrusheen Road, Cahersiveen, Co. Kerry",295000.0,N/A,,4,3,Detached,2022-08-05,B2,104448105,109.32 kWh/m2/yr,51.948931,-10.219411,Buy,KERRY,http://www.daft.ie/for-sale/detached-house-reenrusheen-road-cahersiveen-co-kerry/3969552
3481518,15828534,"Ballynakilly, Waterville, Co. Kerry",250000.0,259,259 m²,3,2,Detached,2022-07-14,C1,104758313,167.9 kWh/m2/yr,51.926466,-10.013485,Buy,KERRY,http://www.daft.ie/for-sale/detached-house-ballynakilly-waterville-co-kerry/3481518
3968201,19542928,"The Links, Doon East, Ballybunion, Co. Kerry",360000.0,174,174 m²,4,7,Detached,2022-08-09,C1,115155798,173.0 kWh/m2/yr,52.525889,-9.667246,Buy,KERRY,http://www.daft.ie/for-sale/detached-house-the-links-doon-east-ballybunion-co-kerry/3968201
3968077,19541279,"7 Lios Na Lohart, Ballyvelly, Tralee, Co. Kerry",360000.0,N/A,,5,4,Detached,2022-07-22,C3,103217030,217.22 kWh/m2/yr,52.265898,-9.727251,Buy,KERRY,http://www.daft.ie/for-sale/detached-house-7-lios-na-lohart-ballyvelly-tralee-co-kerry/3968077
3967857,19539511,"Upper Tullig Beg, Killorglin, Co. Kerry",230000.0,N/A,,2,1,Detached,2022-08-09,A2,,,52.096493,-9.853672,Buy,KERRY,http://www.daft.ie/for-sale/detached-house-upper-tullig-beg-killorglin-co-kerry/3967857
3967886,19539527,"Chapeltown, Valentia Island, Co. Kerry",225000.0,N/A,,2,1,Detached,2022-07-06,SI_666,,,51.907306,-10.335249,Buy,KERRY,http://www.daft.ie/for-sale/detached-house-chapeltown-valentia-island-co-kerry/3967886
3967804,19539483,"Gortnaskeha, Ballybunion, Co. Kerry",425000.0,229,229 m²,4,3,Detached,2022-07-06,C1,115183469,160.41 kWh/m2/yr,52.507092,-9.641493,Buy,KERRY,http://www.daft.ie/for-sale/detached-house-gortnaskeha-ballybunion-co-kerry/3967804
3967658,19537761,"Little Hollies, Caragh Village, Killorglin, Co. Kerry",320000.0,N/A,,3,2,Detached,2022-08-04,D2,,,52.072749,-9.829274,Buy,KERRY,http://www.daft.ie/for-sale/detached-house-little-hollies-caragh-village-killorglin-co-kerry/3967658
3966159,19523506,"Lake Road, Cromane Upper, Killorglin, Co. Kerry",200000.0,N/A,,3,1,Detached,2022-08-09,D2,,,52.103632,-9.887668,Buy,KERRY,http://www.daft.ie/for-sale/detached-house-lake-road-cromane-upper-killorglin-co-kerry/3966159
3966108,19523478,"Ballyduff, Knocknagoshel, Co. Kerry",410000.0,N/A,,4,2,Detached,2022-07-06,G,114831167,562.28 kWh/m2/yr,52.30565,-9.403511,Buy,KERRY,http://www.daft.ie/for-sale/detached-house-ballyduff-knocknagoshel-co-kerry/3966108
3966027,19523426,"8 Woodview, Cahirdown, Listowel, Co. Kerry",289000.0,150,150 m²,4,2,Detached,2022-07-05,D1,115216012,254.16 kWh/m2/yr,52.447741,-9.4655,Buy,KERRY,http://www.daft.ie/for-sale/detached-house-8-woodview-cahirdown-listowel-co-kerry/3966027
3997868,112914317,"Rahoneen Cottage, Rahoneen, Ardfert, Co. Kerry",150000.0,40,40 m²,1,1,Detached,2022-08-01,G,,,52.318665,-9.814899,Buy,KERRY,http://www.daft.ie/for-sale/detached-house-rahoneen-cottage-rahoneen-ardfert-co-kerry/3997868
3997719,112911715,"Old Road, Shinnagh, Rathmore, Co. Kerry",Price on Application,167,167 m²,4,1,Detached,2022-07-27,D1,115367682,253.91 kWh/m2/yr,52.081202,-9.214882,Buy,KERRY,http://www.daft.ie/for-sale/detached-house-old-road-shinnagh-rathmore-co-kerry/3997719
3997257,112906548,"41 Oakwood Manor, Kenmare, Co. Kerry",925000.0,257,257 m²,4,5,Detached,2022-08-10,B3,105831994,131.83 kWh/m2/yr,51.886099,-9.574545,Buy,KERRY,http://www.daft.ie/for-sale/detached-house-41-oakwood-manor-kenmare-co-kerry/3997257
3997057,112905008,"Ballydonohoe, Listowel, Co. Kerry",325000.0,120,120 m²,3,2,Detached,2022-08-03,D2,,,52.478088,-9.559616,Buy,KERRY,http://www.daft.ie/for-sale/detached-house-ballydonohoe-listowel-co-kerry/3997057
3996011,112893134,"Greenville, Listowel, Co. Kerry",250000.0,1000,1000 m²,3,1,Detached,2022-08-01,E2,115209181,377.66 kWh/m2/yr,52.444508,-9.509967,Buy,KERRY,http://www.daft.ie/for-sale/detached-house-greenville-listowel-co-kerry/3996011
3995016,112880747,"Dooncaha, Tarbert, Co. Kerry",605000.0,130,130 m²,3,1,Detached,2022-07-26,D2,115188849,298.79 kWh/m2/yr,52.550322,-9.386847,Buy,KERRY,http://www.daft.ie/for-sale/detached-house-dooncaha-tarbert-co-kerry/3995016
3994126,112871647,"Faha, Glenbeigh, Co. Kerry",585000.0,225,225 m²,3,4,Detached,2022-07-29,C2,115358525,176.16 kWh/m2/yr,52.058061,-9.955689,Buy,KERRY,http://www.daft.ie/for-sale/detached-house-faha-glenbeigh-co-kerry/3994126
3937262,19299191,"Cloonts Court, Cloonts, Rathmore, Co. Kerry",210000.0,N/A,,3,1,Detached,2022-08-04,C3,,,52.08741307852162,-9.211177281352377,Buy,KERRY,http://www.daft.ie/for-sale/detached-house-cloonts-court-cloonts-rathmore-co-kerry/3937262
3769556,18372215,"The Old School House, Glencuttane, Beaufort, Co. Kerry",99500.0,102,102 m²,3,2,Detached,2022-08-02,SI_666,,,52.04248767040684,-9.775401810338423,Buy,KERRY,http://www.daft.ie/for-sale/detached-house-the-old-school-house-glencuttane-beaufort-co-kerry/3769556
3992077,19748903,"Tarmons West, Moyvane, Co. Kerry",259000.0,165,165 m²,5,2,Detached,2022-08-10,C3,115348625,217.25 kWh/m2/yr,52.53449,-9.384225,Buy,KERRY,http://www.daft.ie/for-sale/detached-house-tarmons-west-moyvane-co-kerry/3992077
3992018,19748878,"Cloonsharragh, Cloghane, Co. Kerry",420000.0,110,110 m²,3,2,Detached,2022-07-27,E2,,,52.243827,-10.176443,Buy,KERRY,http://www.daft.ie/for-sale/detached-house-cloonsharragh-cloghane-co-kerry/3992018
3991962,19748731,"Dreenagh, Ballyheigue, Co. Kerry",175000.0,N/A,,3,1,Detached,2022-08-04,D2,107471567,293.15 kWh/m2/yr,52.423015,-9.896748,Buy,KERRY,http://www.daft.ie/for-sale/detached-house-dreenagh-ballyheigue-co-kerry/3991962
3991745,19744649,"Dromickbane, Muckross, Killarney, Co. Kerry",575000.0,232,232 m²,5,3,Detached,2022-08-10,C2,115351348,189.43 kWh/m2/yr,52.026317,-9.457631,Buy,KERRY,http://www.daft.ie/for-sale/detached-house-dromickbane-muckross-killarney-co-kerry/3991745
3991452,19739306,"5 Dun Bui, Cullenagh Lower, Beaufort, Killarney, Co. Kerry",485000.0,232,232 m²,4,3,Detached,2022-08-10,C1,113507123,161.67 kWh/m2/yr,52.063294,-9.661713,Buy,KERRY,http://www.daft.ie/for-sale/detached-house-5-dun-bui-cullenagh-lower-beaufort-killarney-co-kerry/3991452
3985384,19678844,"Grove Lodge Country House, Killarney Road, Killorglin, Co. Kerry",1100000.0,576,576 m²,12,12,Detached,2022-08-08,C3,115337818,219.53 kWh/m2/yr,52.102762,-9.775841,Buy,KERRY,http://www.daft.ie/for-sale/detached-house-grove-lodge-country-house-killarney-road-killorglin-co-kerry/3985384
3989612,19720279,"The Old Presbytery, Milleens, Kenmare, Co. Kerry",575000.0,190,190 m²,4,3,Detached,2022-08-10,C3,106359425,221.27 kWh/m2/yr,51.815815,-9.538897,Buy,KERRY,http://www.daft.ie/for-sale/detached-house-the-old-presbytery-milleens-kenmare-co-kerry/3989612
3989426,19718914,"Gort Na Furteen, Farna, Castlemaine, Co. Kerry","AMV: €65,000",N/A,,1,,Detached,2022-08-10,SI_666,,,52.189672,-9.733731,Buy,KERRY,http://www.daft.ie/for-sale/detached-house-gort-na-furteen-farna-castlemaine-co-kerry/3989426
3489260,15893197,"Curragh Cottage, Curraheen, Tralee, Co. Kerry",200000.0,N/A,,3,1,Detached,2022-07-20,G,114354392,621.68 kWh/m2/yr,52.241764,-9.804494,Buy,KERRY,http://www.daft.ie/for-sale/detached-house-curragh-cottage-curraheen-tralee-co-kerry/3489260
3987030,19692278,"Renagowan (Folio KY53308F), Lyracrumpane, Listowel, Co. Kerry","AMV: €135,000",N/A,,4,2,Detached,2022-08-10,C3,114315062,224.97 kWh/m2/yr,52.308829,-9.508258,Buy,KERRY,http://www.daft.ie/for-sale/detached-house-renagowan-folio-ky53308f-lyracrumpane-listowel-co-kerry/3987030
3986339,19686399,"Fiddler's Cottage, Fiddler's Cottage, Gleesk, Sneem, Co. Kerry",165000.0,N/A,,3,,Detached,2022-08-10,F,115231037,428.74 kWh/m2/yr,51.808579,-9.94552,Buy,KERRY,http://www.daft.ie/for-sale/detached-house-fiddlers-cottage-fiddlers-cottage-gleesk-sneem-co-kerry/3986339
3986225,19685902,"3 Parkland Holiday Homes, Port Road, Killarney, Co. Kerry",320000.0,111,111 m²,3,3,Detached,2022-08-10,D1,,,52.067285,-9.521718,Buy,KERRY,http://www.daft.ie/for-sale/detached-house-3-parkland-holiday-homes-port-road-killarney-co-kerry/3986225
3986068,19684304,"Ballybrack, Killarney, Co. Kerry",290000.0,N/A,,4,2,Detached,2022-07-18,C3,,,52.0591912851534,-9.5038990849684,Buy,KERRY,http://www.daft.ie/for-sale/detached-house-ballybrack-killarney-co-kerry/3986068
3956795,19441387,"1 Woodlee, Monavalley, Tralee, Co. Kerry",325000.0,256,256 m²,5,2,Detached,2022-08-08,E1,115396491,301.06 kWh/m2/yr,52.278482,-9.701551,Buy,KERRY,http://www.daft.ie/for-sale/detached-house-1-woodlee-monavalley-tralee-co-kerry/3956795
3985297,19677310,"Ballybrack, Killarney, Co. Kerry",290000.0,175,175 m²,4,2,Detached,2022-08-10,C3,114496839,210.52 kWh/m2/yr,52.141605,-9.595633,Buy,KERRY,http://www.daft.ie/for-sale/detached-house-ballybrack-killarney-co-kerry/3985297
3984894,19673200,"Doon East, Ballybunion, Co. Kerry",495000.0,170,170 m²,4,5,Detached,2022-07-19,B3,103682522,146.1 kWh/m2/yr,52.525954,-9.667968,Buy,KERRY,http://www.daft.ie/for-sale/detached-house-doon-east-ballybunion-co-kerry/3984894
3984081,19665202,"Gortalassa, Firies, Co. Kerry",90000.0,85,85 m²,2,1,Detached,2022-07-20,E2,115351538,348.36 kWh/m2/yr,52.162093,-9.583781,Buy,KERRY,http://www.daft.ie/for-sale/detached-house-gortalassa-firies-co-kerry/3984081
3983634,19657948,"Listellick North, Tralee, Co. Kerry",130000.0,73,73 m²,3,1,Detached,2022-08-09,E2,,,52.298581,-9.695213,Buy,KERRY,http://www.daft.ie/for-sale/detached-house-listellick-north-tralee-co-kerry/3983634
3982152,19639272,"Ballinalouth, Tralee, Co. Kerry",470000.0,N/A,,4,4,Detached,2022-07-14,C2,115035222,194.31 kWh/m2/yr,52.295867,-9.710194,Buy,KERRY,http://www.daft.ie/for-sale/detached-house-ballinalouth-tralee-co-kerry/3982152
3981952,19637690,"26 Bluebells Drive, Countess Road, Killarney, Co. Kerry",Price on Application,N/A,,4,3,Detached,2022-08-10,A2,,,52.055173,-9.50402,Buy,KERRY,http://www.daft.ie/for-sale/detached-house-26-bluebells-drive-countess-road-killarney-co-kerry/3981952
3979182,19618356,"Ballyline, Ballylongford, Co. Kerry",105000.0,N/A,,2,1,Detached,2022-07-26,G,115029647,1151.84 kWh/m2/yr,52.520102,-9.496628,Buy,KERRY,http://www.daft.ie/for-sale/detached-house-ballyline-ballylongford-co-kerry/3979182
3970635,19563547,"5 Carrig Dun, Killorglin, Co. Kerry",375000.0,271,271 m²,5,4,Detached,2022-07-15,B2,,,52.115612577221896,-9.784097033728472,Buy,KERRY,http://www.daft.ie/for-sale/detached-house-5-carrig-dun-killorglin-co-kerry/3970635
3975500,19596974,"11 Carrigmore, Caherslee, Tralee, Co. Kerry",580000.0,269,269 m²,5,3,Detached,2022-08-10,B2,108177999,114.68 kWh/m2/yr,52.273608,-9.723227,Buy,KERRY,http://www.daft.ie/for-sale/detached-house-11-carrigmore-caherslee-tralee-co-kerry/3975500
3969845,19556177,"6 Carrig Dun, Killorglin, Co. Kerry",325000.0,177,177 m²,4,4,Detached,2022-07-15,B2,,,52.11548688999932,-9.783576633181355,Buy,KERRY,http://www.daft.ie/for-sale/detached-house-6-carrig-dun-killorglin-co-kerry/3969845
3971118,19567108,"Ballintemple, Dunquin, Co. Kerry","AMV: €159,000",N/A,,3,1,Detached,2022-08-10,G,,,52.133827,-10.451234,Buy,KERRY,http://www.daft.ie/for-sale/detached-house-ballintemple-dunquin-co-kerry/3971118
64813,11417304,"Spring Lodge, Ballyard, Tralee, Co. Kerry",290000.0,N/A,,5,2,Detached,2022-07-08,SI_666,,,52.26183416329983,-9.710015058517456,Buy,KERRY,http://www.daft.ie/for-sale/detached-house-spring-lodge-ballyard-tralee-co-kerry/64813
3969986,19557151,"EBB TIDES, Sandy Lane, Banna, Co. Kerry",197500.0,69,69 m²,3,2,Detached,2022-08-09,D2,,,52.345809,-9.829647,Buy,KERRY,http://www.daft.ie/for-sale/detached-house-ebb-tides-sandy-lane-banna-co-kerry/3969986
3969888,19556198,"Caherbarnagh, Waterville, Co. Kerry",360000.0,N/A,,3,2,Detached,2022-08-08,E1,104905278,300.7 kWh/m2/yr,51.847408,-10.130871,Buy,KERRY,http://www.daft.ie/for-sale/detached-house-caherbarnagh-waterville-co-kerry/3969888
3622300,16999042,"Dromkeare, Waterville, Co. Kerry",Price on Application,N/A,,2,2,Detached,2022-08-05,C2,110231156,197.66 kWh/m2/yr,51.85113,-10.114416,Buy,KERRY,http://www.daft.ie/for-sale/detached-house-dromkeare-waterville-co-kerry/3622300
3969614,19555274,"Abbeylands, Ardfert, Co. Kerry",Price on Application,277,277 m²,4,3,Detached,2022-07-07,B2,106523129,106.03 kWh/m2/yr,52.332014,-9.778743,Buy,KERRY,http://www.daft.ie/for-sale/detached-house-abbeylands-ardfert-co-kerry/3969614
3969552,19555242,"Reenrusheen Road, Cahersiveen, Co. Kerry",295000.0,N/A,,4,3,Detached,2022-08-05,B2,104448105,109.32 kWh/m2/yr,51.948931,-10.219411,Buy,KERRY,http://www.daft.ie/for-sale/detached-house-reenrusheen-road-cahersiveen-co-kerry/3969552
3481518,15828534,"Ballynakilly, Waterville, Co. Kerry",250000.0,259,259 m²,3,2,Detached,2022-07-14,C1,104758313,167.9 kWh/m2/yr,51.926466,-10.013485,Buy,KERRY,http://www.daft.ie/for-sale/detached-house-ballynakilly-waterville-co-kerry/3481518
3968201,19542928,"The Links, Doon East, Ballybunion, Co. Kerry",360000.0,174,174 m²,4,7,Detached,2022-08-09,C1,115155798,173.0 kWh/m2/yr,52.525889,-9.667246,Buy,KERRY,http://www.daft.ie/for-sale/detached-house-the-links-doon-east-ballybunion-co-kerry/3968201
3968077,19541279,"7 Lios Na Lohart, Ballyvelly, Tralee, Co. Kerry",360000.0,N/A,,5,4,Detached,2022-07-22,C3,103217030,217.22 kWh/m2/yr,52.265898,-9.727251,Buy,KERRY,http://www.daft.ie/for-sale/detached-house-7-lios-na-lohart-ballyvelly-tralee-co-kerry/3968077
3967857,19539511,"Upper Tullig Beg, Killorglin, Co. Kerry",230000.0,N/A,,2,1,Detached,2022-08-09,A2,,,52.096493,-9.853672,Buy,KERRY,http://www.daft.ie/for-sale/detached-house-upper-tullig-beg-killorglin-co-kerry/3967857
3967886,19539527,"Chapeltown, Valentia Island, Co. Kerry",225000.0,N/A,,2,1,Detached,2022-07-06,SI_666,,,51.907306,-10.335249,Buy,KERRY,http://www.daft.ie/for-sale/detached-house-chapeltown-valentia-island-co-kerry/3967886
3967804,19539483,"Gortnaskeha, Ballybunion, Co. Kerry",425000.0,229,229 m²,4,3,Detached,2022-07-06,C1,115183469,160.41 kWh/m2/yr,52.507092,-9.641493,Buy,KERRY,http://www.daft.ie/for-sale/detached-house-gortnaskeha-ballybunion-co-kerry/3967804
3967658,19537761,"Little Hollies, Caragh Village, Killorglin, Co. Kerry",320000.0,N/A,,3,2,Detached,2022-08-04,D2,,,52.072749,-9.829274,Buy,KERRY,http://www.daft.ie/for-sale/detached-house-little-hollies-caragh-village-killorglin-co-kerry/3967658
3966159,19523506,"Lake Road, Cromane Upper, Killorglin, Co. Kerry",200000.0,N/A,,3,1,Detached,2022-08-09,D2,,,52.103632,-9.887668,Buy,KERRY,http://www.daft.ie/for-sale/detached-house-lake-road-cromane-upper-killorglin-co-kerry/3966159
3966108,19523478,"Ballyduff, Knocknagoshel, Co. Kerry",410000.0,N/A,,4,2,Detached,2022-07-06,G,114831167,562.28 kWh/m2/yr,52.30565,-9.403511,Buy,KERRY,http://www.daft.ie/for-sale/detached-house-ballyduff-knocknagoshel-co-kerry/3966108
3966027,19523426,"8 Woodview, Cahirdown, Listowel, Co. Kerry",289000.0,150,150 m²,4,2,Detached,2022-07-05,D1,115216012,254.16 kWh/m2/yr,52.447741,-9.4655,Buy,KERRY,http://www.daft.ie/for-sale/detached-house-8-woodview-cahirdown-listowel-co-kerry/3966027
3965090,19515179,"Tullacrimmin, Abbeydorney, Co. Kerry",365000.0,190,190 m²,4,3,Detached,2022-07-05,B3,111172607,137.88 kWh/m2/yr,52.361815,-9.653659,Buy,KERRY,http://www.daft.ie/for-sale/detached-house-tullacrimmin-abbeydorney-co-kerry/3965090
3964462,19511250,"2 The Row, Southview Terrace, Waterville, Co. Kerry",275000.0,N/A,,4,2,Detached,2022-07-05,SI_666,,,51.825405,-10.167506,Buy,KERRY,http://www.daft.ie/for-sale/detached-house-2-the-row-southview-terrace-waterville-co-kerry/3964462
3964292,19509900,"Atlanta Cottage, Lismongane, Killarney, Co. Kerry",320000.0,100,100 m²,3,2,Detached,2022-07-07,G,115222838,770.7 kWh/m2/yr,52.068573,-9.602636,Buy,KERRY,http://www.daft.ie/for-sale/detached-house-atlanta-cottage-lismongane-killarney-co-kerry/3964292
3964002,19507770,"Churchground, Kilgarvan, Co. Kerry",225000.0,138,138 m²,5,1,Detached,2022-08-10,D1,101780476,236.59 kWh/m2/yr,51.906506,-9.421768,Buy,KERRY,http://www.daft.ie/for-sale/detached-house-churchground-kilgarvan-co-kerry/3964002
3608274,16874952,"Caher East, Kenmare, Co. Kerry",375000.0,139,139 m²,3,3,Detached,2022-07-04,B3,104026984,144.1 kWh/m2/yr,51.897272,-9.515322,Buy,KERRY,http://www.daft.ie/for-sale/detached-house-caher-east-kenmare-co-kerry/3608274
3963239,19500269,"Cromane Lower, Killorglin, Co. Kerry",Price on Application,N/A,,6,5,Detached,2022-08-09,B3,,,52.115897,-9.899592,Buy,KERRY,http://www.daft.ie/for-sale/detached-house-cromane-lower-killorglin-co-kerry/3963239
3963230,19500262,"Ownagarry, Killorglin, Co. Kerry",425000.0,N/A,,4,2,Detached,2022-08-09,C3,,,52.084462,-9.775828,Buy,KERRY,http://www.daft.ie/for-sale/detached-house-ownagarry-killorglin-co-kerry/3963230
3962101,19494359,"Shinnagh, Rathmore, Co. Kerry",190000.0,102,102 m²,3,1,Detached,2022-07-06,E1,113172969,305.6 kWh/m2/yr,52.081738,-9.199995,Buy,KERRY,http://www.daft.ie/for-sale/detached-house-shinnagh-rathmore-co-kerry/3962101
3961891,19492618,"Cahir Airde, Ballygarron, Tralee, Co. Kerry",397500.0,N/A,,5,4,Detached,2022-07-21,B2,115155616,107.56 kWh/m2/yr,52.290033,-9.794379,Buy,KERRY,http://www.daft.ie/for-sale/detached-house-cahir-airde-ballygarron-tralee-co-kerry/3961891
3959936,19471722,"Scariff, Waterville, Co. Kerry",368950.0,N/A,,4,4,Detached,2022-08-05,SI_666,,,51.85612,-10.155822,Buy,KERRY,http://www.daft.ie/for-sale/detached-house-scariff-waterville-co-kerry/3959936
3957982,19451152,"Ballydowney, Killarney, Co. Kerry",450000.0,125,125 m²,3,3,Detached,2022-08-10,C3,,,52.0684171,-9.5280429,Buy,KERRY,http://www.daft.ie/for-sale/detached-house-ballydowney-killarney-co-kerry/3957982
3957939,19450122,"Cappanacush East, Kenmare, Co. Kerry",395000.0,130,130 m²,3,2,Detached,2022-08-10,C2,111968780,189.66 kWh/m2/yr,51.874558,-9.700468,Buy,KERRY,http://www.daft.ie/for-sale/detached-house-cappanacush-east-kenmare-co-kerry/3957939
3957744,19449004,"Dromerin, Listowel, Co. Kerry",265000.0,N/A,,4,2,Detached,2022-07-06,C2,113807036,309.78 kWh/m2/yr,52.452067,-9.564388,Buy,KERRY,http://www.daft.ie/for-sale/detached-house-dromerin-listowel-co-kerry/3957744
3956810,19441394,"Dromatoor, Ballyheigue, Co. Kerry",225000.0,69,69 m²,3,1,Detached,2022-08-05,G,113459820,,52.392711,-9.863469,Buy,KERRY,http://www.daft.ie/for-sale/detached-house-dromatoor-ballyheigue-co-kerry/3956810
3949740,19419744,"9 Slé­ Na Spéire, Clieveragh, Listowel, Co. Kerry",225000.0,140,140 m²,4,2,Detached,2022-06-27,C2,114441520,195.89 kWh/m2/yr,52.460149,-9.490276,Buy,KERRY,http://www.daft.ie/for-sale/detached-house-9-sl-na-sp-ire-clieveragh-listowel-co-kerry/3949740
3949644,19417840,"The Presbytery, Knocknagoshel, Co. Kerry",185000.0,N/A,,5,2,Detached,2022-08-10,G,,1.0E8 kWh/m2/yr,52.331575,-9.379533,Buy,KERRY,http://www.daft.ie/for-sale/detached-house-the-presbytery-knocknagoshel-co-kerry/3949644
3949591,19417810,"4 Heather Close, Cummeen, Killarney, Co. Kerry",265000.0,110,110 m²,3,3,Detached,2022-08-10,C3,111852265,224.93 kWh/m2/yr,52.069241,-9.417498,Buy,KERRY,http://www.daft.ie/for-sale/detached-house-4-heather-close-cummeen-killarney-co-kerry/3949591
3949453,19416201,"The Presbytery House, Knocknagoshel, Tralee, Co. Kerry",185000.0,200,200 m²,5,2,Detached,2022-08-02,G,112480066,466.86 kWh/m2/yr,52.331808,-9.378798,Buy,KERRY,http://www.daft.ie/for-sale/detached-house-the-presbytery-house-knocknagoshel-tralee-co-kerry/3949453
3949082,19411327,"Brewsterfield, Killarney, Co. Kerry",250000.0,290,290 m²,4,4,Detached,2022-07-04,B1,113915797,97.5 kWh/m2/yr,52.03381154158072,-9.386629082503447,Buy,KERRY,http://www.daft.ie/for-sale/detached-house-brewsterfield-killarney-co-kerry/3949082
3948556,19407326,"7 An Gleantáin Holiday Homes, Glounthaune, Caherdaniel, Co. Kerry",430000.0,N/A,,4,3,Detached,2022-06-27,B3,115055394,146.31 kWh/m2/yr,51.771657,-10.101737,Buy,KERRY,http://www.daft.ie/for-sale/detached-house-7-an-gleant-in-holiday-homes-glounthaune-caherdaniel-co-kerry/3948556
3947618,19399567,"Shannon, 35 Ashfield, Greenville, Listowel, Co. Kerry",400000.0,N/A,,4,3,Detached,2022-08-10,D1,109786863,228.03 kWh/m2/yr,52.44783,-9.500224,Buy,KERRY,http://www.daft.ie/for-sale/detached-house-shannon-35-ashfield-greenville-listowel-co-kerry/3947618
3946943,19393207,"Shannera, Killorglin, Co. Kerry",330000.0,195,195 m²,6,4,Detached,2022-08-09,B2,,,52.047421,-9.764952,Buy,KERRY,http://www.daft.ie/for-sale/detached-house-shannera-killorglin-co-kerry/3946943
3946666,19389641,"Garrahadoo, Killorglin, Co. Kerry",270000.0,115,115 m²,3,2,Detached,2022-08-04,SI_666,,,52.095039,-9.790536,Buy,KERRY,http://www.daft.ie/for-sale/detached-house-garrahadoo-killorglin-co-kerry/3946666
3682479,17651763,"8 Spring Well Gardens, Ballyard, Tralee, Co. Kerry",630000.0,N/A,,5,3,Detached,2022-07-07,B1,,,52.261394,-9.709136,Buy,KERRY,http://www.daft.ie/for-sale/detached-house-8-spring-well-gardens-ballyard-tralee-co-kerry/3682479
3945858,19380200,"The Gold Finches, Dunmaniheen, Killorglin, Co. Kerry",300000.0,N/A,,3,2,Detached,2022-08-04,SI_666,,,52.101097,-9.770777,Buy,KERRY,http://www.daft.ie/for-sale/detached-house-the-gold-finches-dunmaniheen-killorglin-co-kerry/3945858
3945830,19380189,"Greenville, Listowel, Co. Kerry","AMV: €135,000",135,135 m²,4,2,Detached,2022-08-10,E2,,,52.44539068083907,-9.510600227838154,Buy,KERRY,http://www.daft.ie/for-sale/detached-house-greenville-listowel-co-kerry/3945830
3945224,19373518,"Killeentierna, Currow, Co. Kerry",375000.0,N/A,,5,4,Detached,2022-06-23,C3,114787294,219.79 kWh/m2/yr,52.182526,-9.481291,Buy,KERRY,http://www.daft.ie/for-sale/detached-house-killeentierna-currow-co-kerry/3945224
3944290,19366699,"21 The Writings, Listowel, Co. Kerry",239000.0,125,125 m²,3,2,Detached,2022-06-26,C2,115167389,193.58 kWh/m2/yr,52.45533,-9.468161,Buy,KERRY,http://www.daft.ie/for-sale/detached-house-21-the-writings-listowel-co-kerry/3944290
3944222,19366379,"Coologes, Kilgarvan, Co. Kerry",125000.0,N/A,,,,Detached,2022-08-10,,,,51.928121,-9.432961,Buy,KERRY,http://www.daft.ie/for-sale/detached-house-coologes-kilgarvan-co-kerry/3944222
3944059,19364444,"Brockham House, Derra East, Listowel, Co. Kerry",195000.0,N/A,,4,2,Detached,2022-08-10,E2,115034506,364.23 kWh/m2/yr,52.459561,-9.515228,Buy,KERRY,http://www.daft.ie/for-sale/detached-house-brockham-house-derra-east-listowel-co-kerry/3944059
3943669,19359213,"77 Rockwood Park, Tralee, Co. Kerry",260000.0,N/A,,4,3,Detached,2022-07-08,D2,114329501,,52.280376,-9.710651,Buy,KERRY,http://www.daft.ie/for-sale/detached-house-77-rockwood-park-tralee-co-kerry/3943669
3943617,19359185,"Fermoyle, Emlaghmore, Ballinskelligs, Co. Kerry",250000.0,N/A,,4,3,Detached,2022-08-04,SI_666,,,51.864429,-10.25634,Buy,KERRY,http://www.daft.ie/for-sale/detached-house-fermoyle-emlaghmore-ballinskelligs-co-kerry/3943617
3943131,19353409,"12 Woodview, Cahirdown, Listowel, Co. Kerry",289000.0,N/A,,4,2,Detached,2022-08-10,C3,111131108,217.88 kWh/m2/yr,52.447773,-9.464468,Buy,KERRY,http://www.daft.ie/for-sale/detached-house-12-woodview-cahirdown-listowel-co-kerry/3943131
3942654,19348236,"TRALEE CHIROPRACTIC CLINIC, Saint Brendan's Road, Tralee, Co. Kerry",250000.0,N/A,,3,1,Detached,2022-06-21,SI_666,,,52.276744,-9.703138,Buy,KERRY,http://www.daft.ie/for-sale/detached-house-tralee-chiropractic-clinic-saint-brendans-road-tralee-co-kerry/3942654
3942574,19348166,"Peace Farm, Poulawaddra, Tralee, Co. Kerry",95000.0,67,67 m²,2,2,Detached,2022-06-21,G,114346331,833.02 kWh/m2/yr,52.235393,-9.666831,Buy,KERRY,http://www.daft.ie/for-sale/detached-house-peace-farm-poulawaddra-tralee-co-kerry/3942574
3942327,19344903,"Droum Na Gaoithe, Droum, Rossbeigh, Glenbeigh, Co. Kerry",280000.0,N/A,,2,2,Detached,2022-08-04,SI_666,,,52.044564,-9.990688,Buy,KERRY,http://www.daft.ie/for-sale/detached-house-droum-na-gaoithe-droum-rossbeigh-glenbeigh-co-kerry/3942327
3530590,16146416,"Peace Farm, Poulawaddra, Tralee, Co. Kerry",95000.0,N/A,,2,1,Detached,2022-06-21,G,114346331,833.02 kWh/m2/yr,52.235393,-9.666831,Buy,KERRY,http://www.daft.ie/for-sale/detached-house-peace-farm-poulawaddra-tralee-co-kerry/3530590
3941327,19337403,"College Street, Castlegregory, Co. Kerry",330000.0,127,127 m²,3,2,Detached,2022-08-09,C2,,,52.25334,-10.021189,Buy,KERRY,http://www.daft.ie/for-sale/detached-house-college-street-castlegregory-co-kerry/3941327
3941308,19337323,"14 Lighthouse Village, Fenit, Co. Kerry",Price on Application,N/A,,4,2,Detached,2022-07-18,C1,115334690,172.72 kWh/m2/yr,52.284916,-9.853282,Buy,KERRY,http://www.daft.ie/for-sale/detached-house-14-lighthouse-village-fenit-co-kerry/3941308
3941209,19335313,"Reenard South, Cahersiveen, Co. Kerry",389000.0,N/A,,5,3,Detached,2022-08-05,C1,115034670,154.63 kWh/m2/yr,51.921391,-10.246367,Buy,KERRY,http://www.daft.ie/for-sale/detached-house-reenard-south-cahersiveen-co-kerry/3941209
3940961,19333268,"Alderwood Road, Tralee, Co. Kerry",425000.0,N/A,,5,5,Detached,2022-07-07,C3,,,52.294515,-9.663624,Buy,KERRY,http://www.daft.ie/for-sale/detached-house-alderwood-road-tralee-co-kerry/3940961
3939615,19321014,"Reennanallagane, Glenbeigh, Co. Kerry",450000.0,N/A,,4,3,Detached,2022-08-09,C2,,,52.064181,-9.927675,Buy,KERRY,http://www.daft.ie/for-sale/detached-house-reennanallagane-glenbeigh-co-kerry/3939615
3939812,19321592,"Tullahennel North, Ballybunion, Co. Kerry",285000.0,200,200 m²,5,3,Detached,2022-08-01,B3,114397425,133.12 kWh/m2/yr,52.533551,-9.546588,Buy,KERRY,http://www.daft.ie/for-sale/detached-house-tullahennel-north-ballybunion-co-kerry/3939812
3939789,19321577,"5 Gurtcreen, Listowel, Co. Kerry",345000.0,235,235 m²,5,3,Detached,2022-08-01,C1,115165052,174.92 kWh/m2/yr,52.440188,-9.528781,Buy,KERRY,http://www.daft.ie/for-sale/detached-house-5-gurtcreen-listowel-co-kerry/3939789
3939598,19321004,"Gullane East, Gneeveguilla, Rathmore, Killarney, Co. Kerry",95000.0,N/A,,1,1,Detached,2022-08-10,SI_666,,,52.0623763,-9.5075091,Buy,KERRY,http://www.daft.ie/for-sale/detached-house-gullane-east-gneeveguilla-rathmore-killarney-co-kerry/3939598
3939587,19320994,"Killorglin, Co. Kerry",375000.0,N/A,,4,3,Detached,2022-08-10,C3,,,52.09484462,-9.79436336,Buy,KERRY,http://www.daft.ie/for-sale/detached-house-killorglin-co-kerry/3939587
3939065,19315496,"Castlelawn, Ballyheigue, Co. Kerry",350000.0,N/A,,4,3,Detached,2022-07-26,G,115370751,544.36 kWh/m2/yr,52.392536,-9.839777,Buy,KERRY,http://www.daft.ie/for-sale/detached-house-castlelawn-ballyheigue-co-kerry/3939065
3938918,19313842,"Abbey Road House, 18 An Toileé¡n, Valentia Island, Co. Kerry",350000.0,195,195 m²,4,4,Detached,2022-08-04,C1,115035206,150.51 kWh/m2/yr,51.920861,-10.297322,Buy,KERRY,http://www.daft.ie/for-sale/detached-house-abbey-road-house-18-an-toile-n-valentia-island-co-kerry/3938918
3938069,19305587,"Tullahinell North, Ballylongford, Co. Kerry",135000.0,N/A,1.21 ac,3,1,Detached,2022-08-10,D2,115045957,276.7 kWh/m2/yr,52.532059,-9.533749,Buy,KERRY,http://www.daft.ie/for-sale/detached-house-tullahinell-north-ballylongford-co-kerry/3938069
3936804,19295354,"Dawros, Kenmare, Co. Kerry",700000.0,418,418 m²,4,4,Detached,2022-06-16,SI_666,,,51.850389,-9.634318,Buy,KERRY,http://www.daft.ie/for-sale/detached-house-dawros-kenmare-co-kerry/3936804
3936362,19288106,"Leith East, Tralee, Co. Kerry",450000.0,N/A,,4,4,Detached,2022-06-20,B3,115042301,128.2 kWh/m2/yr,52.319069,-9.635564,Buy,KERRY,http://www.daft.ie/for-sale/detached-house-leith-east-tralee-co-kerry/3936362
3936347,19288100,"Ardoughter, Ballyduff, Co. Kerry",175000.0,85,85 m²,3,1,Detached,2022-08-01,G,115051526,705.5 kWh/m2/yr,52.472552,-9.706619,Buy,KERRY,http://www.daft.ie/for-sale/detached-house-ardoughter-ballyduff-co-kerry/3936347
3936171,19285823,"14 Oakfield Square, Tralee, Co. Kerry",440000.0,204,204 m²,4,4,Detached,2022-08-09,C1,115048894,168.12 kWh/m2/yr,52.28007,-9.690515,Buy,KERRY,http://www.daft.ie/for-sale/detached-house-14-oakfield-square-tralee-co-kerry/3936171
3670812,17535292,"Callinafercy West, Milltown, Co. Kerry",380000.0,201,201 m²,4,3,Detached,2022-08-04,C2,,,52.130743,-9.784079,Buy,KERRY,http://www.daft.ie/for-sale/detached-house-callinafercy-west-milltown-co-kerry/3670812
3935661,19281176,"Ballydonohoe, Listowel, Co. Kerry",250000.0,N/A,,5,3,Detached,2022-06-28,C3,115020653,221.69 kWh/m2/yr,52.46880342986907,-9.541743388198114,Buy,KERRY,http://www.daft.ie/for-sale/detached-house-ballydonohoe-listowel-co-kerry/3935661
3935002,19276541,"Coolnalaght, Listowel, Co. Kerry",295000.0,257,257 m²,4,5,Detached,2022-07-14,B1,115054363,93.91 kWh/m2/yr,52.456582,-9.507414,Buy,KERRY,http://www.daft.ie/for-sale/detached-house-coolnalaght-listowel-co-kerry/3935002
3934633,19272787,"Bunnow House, Derreenauliff, Sneem, Co. Kerry",1650000.0,224,224 m²,3,3,Detached,2022-08-10,B2,101923514,116.21 kWh/m2/yr,51.790772,-9.97697,Buy,KERRY,http://www.daft.ie/for-sale/detached-house-bunnow-house-derreenauliff-sneem-co-kerry/3934633
3934473,19270562,"Muing East, Tralee, Co. Kerry",Price on Application,N/A,,2,1,Detached,2022-06-15,SI_666,,,52.278086,-9.678691,Buy,KERRY,http://www.daft.ie/for-sale/detached-house-muing-east-tralee-co-kerry/3934473
3934157,19266899,"Inchinapoagh, Brosna, Co. Kerry",45000.0,N/A,,1,,Detached,2022-06-15,SI_666,,,52.3310738972564,-9.291405640860347,Buy,KERRY,http://www.daft.ie/for-sale/detached-house-inchinapoagh-brosna-co-kerry/3934157
3933977,19264217,"Bunnow House, Derreenauliff, Sneem, Co. Kerry",1650000.0,225,225 m²,3,3,Detached,2022-08-10,B2,101923514,116.21 kWh/m2/yr,51.790772,-9.97697,Buy,KERRY,http://www.daft.ie/for-sale/detached-house-bunnow-house-derreenauliff-sneem-co-kerry/3933977
3933176,19256222,"Maulyarkane, Kilcummin, Killarney, Co. Kerry","AMV: €285,000",N/A,,3,1,Detached,2022-08-10,D1,,,52.107766,-9.384154,Buy,KERRY,http://www.daft.ie/for-sale/detached-house-maulyarkane-kilcummin-killarney-co-kerry/3933176
3933033,19255025,"Scartlea, Muckross, Killarney, Co. Kerry",795000.0,N/A,,6,6,Detached,2022-08-02,B3,,,52.033506,-9.474126,Buy,KERRY,http://www.daft.ie/for-sale/detached-house-scartlea-muckross-killarney-co-kerry/3933033
2738838,13174580,"Farrantoreen, Killorglin, Co. Kerry",350000.0,N/A,,3,2,Detached,2022-08-04,SI_666,,,52.097092,-9.78913,Buy,KERRY,http://www.daft.ie/for-sale/detached-house-farrantoreen-killorglin-co-kerry/2738838
3932793,19251755,"Lonart, Killorglin, Co. Kerry",360000.0,N/A,,6,4,Detached,2022-08-09,C3,,,52.109359,-9.883384,Buy,KERRY,http://www.daft.ie/for-sale/detached-house-lonart-killorglin-co-kerry/3932793
3932772,19251745,"25 Kenny Heights, Listowel, Co. Kerry",379000.0,169,169 m²,5,3,Detached,2022-06-26,B2,115018293,122.57 kWh/m2/yr,52.446122,-9.465536,Buy,KERRY,http://www.daft.ie/for-sale/detached-house-25-kenny-heights-listowel-co-kerry/3932772
3931692,19243242,"8 Ashgrove, Killarney, Co. Kerry",275000.0,N/A,,4,3,Detached,2022-06-13,SI_666,,,52.172199,-9.598086,Buy,KERRY,http://www.daft.ie/for-sale/detached-house-8-ashgrove-killarney-co-kerry/3931692
3931489,19239651,"Teeraha, Cahersiveen, Co. Kerry",360000.0,N/A,,4,2,Detached,2022-06-13,SI_666,,,51.965969,-10.143354,Buy,KERRY,http://www.daft.ie/for-sale/detached-house-teeraha-cahersiveen-co-kerry/3931489
2632672,13150803,"Bawnard, Gneeveguilla, Gneevguilla, Co. Kerry",180000.0,186,186 m²,4,2,Detached,2022-08-04,E1,,,52.121227,-9.242976,Buy,KERRY,http://www.daft.ie/for-sale/detached-house-bawnard-gneeveguilla-gneevguilla-co-kerry/2632672
3929837,19228630,"1 Castle Cove, Castletown, Kilflynn, Co. Kerry",290000.0,204,204 m²,4,3,Detached,2022-06-10,B3,,,52.354604,-9.628287,Buy,KERRY,http://www.daft.ie/for-sale/detached-house-1-castle-cove-castletown-kilflynn-co-kerry/3929837
3929219,19222087,"Lismore, Tralee, Co. Kerry",280000.0,N/A,,2,1,Detached,2022-08-10,F,107900581,390.74 kWh/m2/yr,52.300454,-9.669225,Buy,KERRY,http://www.daft.ie/for-sale/detached-house-lismore-tralee-co-kerry/3929219
3929007,19219007,"2 Ring of Kerry Holiday Cottages, Kenmare, Co. Kerry",250000.0,149,149 m²,3,4,Detached,2022-08-05,B2,115043630,,51.878865,-9.670482,Buy,KERRY,http://www.daft.ie/for-sale/detached-house-2-ring-of-kerry-holiday-cottages-kenmare-co-kerry/3929007
3928110,19209279,"Shanahill East, Castlemaine, Co. Kerry",395000.0,N/A,,4,4,Detached,2022-08-10,C2,114894413,195.19 kWh/m2/yr,52.174933,-9.800074,Buy,KERRY,http://www.daft.ie/for-sale/detached-house-shanahill-east-castlemaine-co-kerry/3928110
3926677,19194818,"Farrantoreen, Killorglin, Co. Kerry",350000.0,N/A,,3,2,Detached,2022-08-09,SI_666,,,52.097092,-9.78913,Buy,KERRY,http://www.daft.ie/for-sale/detached-house-farrantoreen-killorglin-co-kerry/3926677
3927233,19200345,"Sandhills Road, Ballyheigue, Co. Kerry",265000.0,N/A,,2,2,Detached,2022-07-07,D1,115021388,228.52 kWh/m2/yr,52.38768,-9.833888,Buy,KERRY,http://www.daft.ie/for-sale/detached-house-sandhills-road-ballyheigue-co-kerry/3927233
3926387,19191515,"Knocktaggert, Glannagilliagh, Caragh Lake, Killorglin, Co. Kerry",900000.0,315,315 m²,5,5,Detached,2022-08-10,D1,114627029,256.79 kWh/m2/yr,52.07167,-9.844765,Buy,KERRY,http://www.daft.ie/for-sale/detached-house-knocktaggert-glannagilliagh-caragh-lake-killorglin-co-kerry/3926387
3925433,19179337,"Ballinaboula, Dingle, Co. Kerry",575000.0,204,204 m²,8,7,Detached,2022-08-02,C2,,,52.153337,-10.288855,Buy,KERRY,http://www.daft.ie/for-sale/detached-house-ballinaboula-dingle-co-kerry/3925433
3923942,19166614,"Laharan, Killorglin, Co. Kerry",295000.0,N/A,,4,1,Detached,2022-08-04,D2,,,52.109772,-9.801924,Buy,KERRY,http://www.daft.ie/for-sale/detached-house-laharan-killorglin-co-kerry/3923942
3923877,19164540,"68 Ashfield, Greenville, Listowel, Co. Kerry",329000.0,154,154 m²,4,3,Detached,2022-06-26,B3,104467808,147.13 kWh/m2/yr,52.449181,-9.501207,Buy,KERRY,http://www.daft.ie/for-sale/detached-house-68-ashfield-greenville-listowel-co-kerry/3923877
3921999,19154499,"Leampreaghane, Kilflynn, Co. Kerry",99000.0,50,50 m²,2,,Detached,2022-08-10,SI_666,,,52.363944,-9.577548,Buy,KERRY,http://www.daft.ie/for-sale/detached-house-leampreaghane-kilflynn-co-kerry/3921999
3921988,19154491,"Collorus, Lauragh, Co. Kerry",95000.0,75,75 m²,2,,Detached,2022-08-10,SI_666,,,51.761537,-9.844379,Buy,KERRY,http://www.daft.ie/for-sale/detached-house-collorus-lauragh-co-kerry/3921988
3921984,19154489,"4 Mountain View, Killeen, Tralee, Co. Kerry",Price on Application,N/A,,5,3,Detached,2022-08-10,C3,,,52.283223,-9.688411,Buy,KERRY,http://www.daft.ie/for-sale/detached-house-4-mountain-view-killeen-tralee-co-kerry/3921984
3917494,19110843,"Brackhill, Castlemaine, Co. Kerry",475000.0,280,280 m²,5,6,Detached,2022-07-06,C1,,,52.159513,-9.683356,Buy,KERRY,http://www.daft.ie/for-sale/detached-house-brackhill-castlemaine-co-kerry/3917494
3921438,19149190,"34 Beenoskee, Ballyard, Tralee, Co. Kerry",520000.0,N/A,,5,4,Detached,2022-07-07,B3,114773708,140.25 kWh/m2/yr,52.256411,-9.700281,Buy,KERRY,http://www.daft.ie/for-sale/detached-house-34-beenoskee-ballyard-tralee-co-kerry/3921438
3921239,19147530,"Railway Cottage, Dooneen, Cahersiveen, Co. Kerry",259500.0,N/A,,4,2,Detached,2022-08-05,SI_666,,,51.977335,-10.16826,Buy,KERRY,http://www.daft.ie/for-sale/detached-house-railway-cottage-dooneen-cahersiveen-co-kerry/3921239
3921207,19147510,"Oysterbed Road, Sneem, Co. Kerry",800000.0,204,204 m²,4,4,Detached,2022-06-03,C3,,,51.815513,-9.895414,Buy,KERRY,http://www.daft.ie/for-sale/detached-house-oysterbed-road-sneem-co-kerry/3921207
3919771,19135555,"Sandville, Castleisland, Co. Kerry",350000.0,227,227 m²,4,3,Detached,2022-06-16,D2,114534555,298.95 kWh/m2/yr,52.219166,-9.480944,Buy,KERRY,http://www.daft.ie/for-sale/detached-house-sandville-castleisland-co-kerry/3919771
3919316,19130333,"Cahercuttera, Inch, Co. Kerry",270000.0,251,251 m²,2,3,Detached,2022-08-04,SI_666,,,52.150156583361166,-9.933894017750447,Buy,KERRY,http://www.daft.ie/for-sale/detached-house-cahercuttera-inch-co-kerry/3919316
3917902,19115149,"LEANNES HAIR ROOM & STYLE BOUTIQUE, East End, Ballybunion, Co. Kerry",400000.0,N/A,,5,2,Detached,2022-08-05,E2,115016388,345.78 kWh/m2/yr,52.509987,-9.666884,Buy,KERRY,http://www.daft.ie/for-sale/detached-house-leannes-hair-room-style-boutique-east-end-ballybunion-co-kerry/3917902
3918151,19119283,"Dooks, Dooks, Co. Kerry",750000.0,232,232 m²,5,5,Detached,2022-06-01,SI_666,,,52.075951,-9.929217,Buy,KERRY,http://www.daft.ie/for-sale/detached-house-dooks-dooks-co-kerry/3918151
3917948,19116267,"72 Ashgrove, Ballyvelly, Tralee, Co. Kerry",215000.0,N/A,,4,1,Detached,2022-08-10,D2,108094467,272.77 kWh/m2/yr,52.265224,-9.731085,Buy,KERRY,http://www.daft.ie/for-sale/detached-house-72-ashgrove-ballyvelly-tralee-co-kerry/3917948
3917882,19115138,"Gowlanes, Caherdaniel, Co. Kerry",450000.0,215,215 m²,4,3,Detached,2022-08-10,C2,115000499,185.92 kWh/m2/yr,51.790699,-10.0472,Buy,KERRY,http://www.daft.ie/for-sale/detached-house-gowlanes-caherdaniel-co-kerry/3917882
3917134,19107163,"Drimnamore, Sneem, Co. Kerry",70000.0,N/A,,1,1,Detached,2022-06-01,SI_666,,,51.82562200749291,-9.884337795744813,Buy,KERRY,http://www.daft.ie/for-sale/detached-house-drimnamore-sneem-co-kerry/3917134
3917087,19107134,"25 Kilcaragh, Lixnaw, Co. Kerry",225000.0,126,126 m²,3,2,Detached,2022-07-06,D1,105085989,236.96 kWh/m2/yr,52.403383,-9.617865,Buy,KERRY,http://www.daft.ie/for-sale/detached-house-25-kilcaragh-lixnaw-co-kerry/3917087
3917085,19107133,"Tobermaing, Castleisland, Co. Kerry",135000.0,51,51 m²,2,1,Detached,2022-08-02,G,,,52.228535,-9.428484,Buy,KERRY,http://www.daft.ie/for-sale/detached-house-tobermaing-castleisland-co-kerry/3917085
3531924,16151593,"38 Banna Beach Holiday Homes, Ardfert, Co. Kerry",110000.0,N/A,,3,1,Detached,2022-07-07,E1,114355969,323.74 kWh/m2/yr,52.338704,-9.817349,Buy,KERRY,http://www.daft.ie/for-sale/detached-house-38-banna-beach-holiday-homes-ardfert-co-kerry/3531924
3915849,19097522,"Agoya, Gortacoosh, Killarney, Co. Kerry",295000.0,110,110 m²,3,2,Detached,2022-07-25,C1,,,52.0599353,-9.5044265,Buy,KERRY,http://www.daft.ie/for-sale/detached-house-agoya-gortacoosh-killarney-co-kerry/3915849
3914894,19085781,"Ballintaggart House, Ballintaggart, Dingle, Co. Kerry",5200000.0,1440,1440 m²,28,28,Detached,2022-08-02,SI_666,,,52.130812,-10.247509,Buy,KERRY,http://www.daft.ie/for-sale/detached-house-ballintaggart-house-ballintaggart-dingle-co-kerry/3914894
3914358,19083356,"Meenyvoghane, Brosna, Co. Kerry",Price on Application,N/A,,3,2,Detached,2022-05-30,C3,114850472,224.02 kWh/m2/yr,52.316388,-9.320231,Buy,KERRY,http://www.daft.ie/for-sale/detached-house-meenyvoghane-brosna-co-kerry/3914358
3911280,19063049,"2 Caragh Lake Cottages, Caragh Lake, Killorglin, Co. Kerry",280000.0,N/A,,3,2,Detached,2022-08-09,D1,,,52.069241,-9.838806,Buy,KERRY,http://www.daft.ie/for-sale/detached-house-2-caragh-lake-cottages-caragh-lake-killorglin-co-kerry/3911280
3913069,19072120,"Glenderry, Ballyheigue, Co. Kerry",275000.0,N/A,,4,3,Detached,2022-08-10,C1,105067185,173.47 kWh/m2/yr,52.401381,-9.893863,Buy,KERRY,http://www.daft.ie/for-sale/detached-house-glenderry-ballyheigue-co-kerry/3913069
3913007,19072046,"Toornanaunagh, Gneevguilla, Co. Kerry",250000.0,154,154 m²,4,2,Detached,2022-05-30,SI_666,,,52.135332,-9.35666,Buy,KERRY,http://www.daft.ie/for-sale/detached-house-toornanaunagh-gneevguilla-co-kerry/3913007
3898063,18929053,"Caragh River House, Glencar, Co. Kerry",475000.0,251,251 m²,5,6,Detached,2022-08-09,C3,,,51.98734784741899,-9.819773514079998,Buy,KERRY,http://www.daft.ie/for-sale/detached-house-caragh-river-house-glencar-co-kerry/3898063
3896758,18918926,"2 Glencastle, Kilnabrack Upper, Glenbeigh, Co. Kerry",320000.0,N/A,,3,2,Detached,2022-08-09,C3,,,52.053017,-9.944408,Buy,KERRY,http://www.daft.ie/for-sale/detached-house-2-glencastle-kilnabrack-upper-glenbeigh-co-kerry/3896758
3896576,18916762,"Tullig Beg, Killorglin, Co. Kerry",150000.0,N/A,,3,2,Detached,2022-08-09,SI_666,,,52.110255,-9.852295,Buy,KERRY,http://www.daft.ie/for-sale/detached-house-tullig-beg-killorglin-co-kerry/3896576
3911580,19063729,"Murreagh, Waterville, Co. Kerry",300000.0,N/A,,4,1,Detached,2022-08-05,SI_666,,,51.845615,-10.182604,Buy,KERRY,http://www.daft.ie/for-sale/detached-house-murreagh-waterville-co-kerry/3911580
3911443,19063472,"Racomane East, Ballyhar, Killarney, Co. Kerry",150000.0,102,102 m²,4,2,Detached,2022-08-10,,,,52.1086469,-9.5730499,Buy,KERRY,http://www.daft.ie/for-sale/detached-house-racomane-east-ballyhar-killarney-co-kerry/3911443
3911361,19063088,"Coolbane, Ballyhar (Brennans Glen), Killarney, Co. Kerry",100000.0,115,115 m²,3,1,Detached,2022-06-10,SI_666,,,52.12270855750202,-9.529401692726935,Buy,KERRY,http://www.daft.ie/for-sale/detached-house-coolbane-ballyhar-brennans-glen-killarney-co-kerry/3911361
3911098,19060495,"Carhan Lower, Cahersiveen, Co. Kerry",398500.0,N/A,,7,5,Detached,2022-08-05,C1,115009490,,51.949102,-10.206667,Buy,KERRY,http://www.daft.ie/for-sale/detached-house-carhan-lower-cahersiveen-co-kerry/3911098
3910648,19056490,"Knockanure, Moyvane, Co. Kerry",149000.0,130,130 m²,3,2,Detached,2022-07-14,E2,103127841,349.12 kWh/m2/yr,52.462692,-9.370646,Buy,KERRY,http://www.daft.ie/for-sale/detached-house-knockanure-moyvane-co-kerry/3910648
3909986,19047941,"Camp, Ballyseedy, Tralee, Co. Kerry",470000.0,181,181 m²,4,3,Detached,2022-08-09,C2,114452733,191.35 kWh/m2/yr,52.254969,-9.688462,Buy,KERRY,http://www.daft.ie/for-sale/detached-house-camp-ballyseedy-tralee-co-kerry/3909986
3909124,19038343,"Clogher, Ballymacelligott, Co. Kerry",395000.0,N/A,,4,3,Detached,2022-08-02,C1,,,52.259219,-9.561944,Buy,KERRY,http://www.daft.ie/for-sale/detached-house-clogher-ballymacelligott-co-kerry/3909124
3907645,19024632,"Rathkieran, Emlaghmore, Ballinskelligs, Co. Kerry",330000.0,N/A,,4,2,Detached,2022-05-25,SI_666,,,51.851749,-10.338306,Buy,KERRY,http://www.daft.ie/for-sale/detached-house-rathkieran-emlaghmore-ballinskelligs-co-kerry/3907645
3907634,19024625,"15 Woodlawn, Listowel, Co. Kerry",429000.0,154,154 m²,5,3,Detached,2022-07-14,C3,102268158,206.9 kWh/m2/yr,52.445286,-9.482075,Buy,KERRY,http://www.daft.ie/for-sale/detached-house-15-woodlawn-listowel-co-kerry/3907634
3906898,19022651,"18 College Lawn, Listowel, Co. Kerry",325000.0,130,130 m²,4,2,Detached,2022-08-01,D2,114746258,289.74 kWh/m2/yr,52.448345,-9.475009,Buy,KERRY,http://www.daft.ie/for-sale/detached-house-18-college-lawn-listowel-co-kerry/3906898
3905494,19007271,"Burnham East, Dingle, Co. Kerry",670000.0,180,180 m²,5,4,Detached,2022-07-18,C3,,,52.123877,-10.308601,Buy,KERRY,http://www.daft.ie/for-sale/detached-house-burnham-east-dingle-co-kerry/3905494
3901716,18971504,"East, Palmgrove Lodge, Kenmare, Co. Kerry",330000.0,204,204 m²,4,4,Detached,2022-05-20,D2,106413313,261.13 kWh/m2/yr,51.890513,-9.587292,Buy,KERRY,http://www.daft.ie/for-sale/detached-house-east-palmgrove-lodge-kenmare-co-kerry/3901716
3899696,18950867,"8 Bothar An Mhuileann, Ballyard, Tralee, Co. Kerry",550000.0,N/A,,4,4,Detached,2022-07-12,B2,115173957,132.21 kWh/m2/yr,52.256661,-9.711667,Buy,KERRY,http://www.daft.ie/for-sale/detached-house-8-bothar-an-mhuileann-ballyard-tralee-co-kerry/3899696
3899684,18950862,"Island View, Fenit, Co. Kerry",230000.0,N/A,,3,1,Detached,2022-07-07,G,115026643,672.48 kWh/m2/yr,52.279971,-9.860147,Buy,KERRY,http://www.daft.ie/for-sale/detached-house-island-view-fenit-co-kerry/3899684
3899353,18947577,"Beenbane, Waterville, Co. Kerry",350000.0,N/A,,3,2,Detached,2022-07-04,C3,115210338,212.61 kWh/m2/yr,51.829878,-10.167408,Buy,KERRY,http://www.daft.ie/for-sale/detached-house-beenbane-waterville-co-kerry/3899353
3898666,18935881,"PETER'S PLACE, Peter's Place, Waterville, Co. Kerry",750000.0,N/A,,6,4,Detached,2022-08-02,E1,,,51.823874,-10.171652,Buy,KERRY,http://www.daft.ie/for-sale/detached-house-peters-place-peters-place-waterville-co-kerry/3898666
3898523,18934326,"18 College Lawn, Listowel, Co. Kerry",325000.0,130,130 m²,4,2,Detached,2022-07-14,D2,114746258,289.74 kWh/m2/yr,52.448345,-9.475009,Buy,KERRY,http://www.daft.ie/for-sale/detached-house-18-college-lawn-listowel-co-kerry/3898523
3894647,18898962,"41 Knocklyne Valley, Killorglin, Co. Kerry",250000.0,139,139 m²,3,2,Detached,2022-05-16,SI_666,,,52.113074,-9.800954,Buy,KERRY,http://www.daft.ie/for-sale/detached-house-41-knocklyne-valley-killorglin-co-kerry/3894647
3893971,18894189,"Lis Na Gréine, Dooks Mountain, Glenbeigh, Co. Kerry",425000.0,301,301 m²,6,4,Detached,2022-08-04,C1,,,52.083916,-9.898148,Buy,KERRY,http://www.daft.ie/for-sale/detached-house-lis-na-gr-ine-dooks-mountain-glenbeigh-co-kerry/3893971
3892249,18882484,"7 Cois Clydagh, Brosna, Co. Kerry",205000.0,N/A,,4,3,Detached,2022-08-10,C1,114804917,157.69 kWh/m2/yr,52.311923,-9.262882,Buy,KERRY,http://www.daft.ie/for-sale/detached-house-7-cois-clydagh-brosna-co-kerry/3892249
3891827,18878543,"Fybagh, Castlemaine, Co. Kerry",275000.0,N/A,,4,2,Detached,2022-05-13,SI_666,,,52.172649,-9.823975,Buy,KERRY,http://www.daft.ie/for-sale/detached-house-fybagh-castlemaine-co-kerry/3891827
3891447,18874215,"Lative, Portmagee, Co. Kerry",295000.0,N/A,,3,2,Detached,2022-08-05,SI_666,,,51.876369,-10.351936,Buy,KERRY,http://www.daft.ie/for-sale/detached-house-lative-portmagee-co-kerry/3891447
3891315,18872879,"Main Street, Anascaul, Co. Kerry",180000.0,N/A,,9,2,Detached,2022-07-07,SI_666,,,52.151576,-10.054032,Buy,KERRY,http://www.daft.ie/for-sale/detached-house-main-street-anascaul-co-kerry/3891315
3891274,18872853,"Ard Na Mara, Ballymeentrant, Dingle, Co. Kerry",440000.0,N/A,,6,6,Detached,2022-08-02,C3,,,52.122223,-10.324313,Buy,KERRY,http://www.daft.ie/for-sale/detached-house-ard-na-mara-ballymeentrant-dingle-co-kerry/3891274
3824786,18858655,"ARD NA MARA, Ard Na Mara, Ventry, Co. Kerry",440000.0,200,200 m²,6,6,Detached,2022-08-05,C3,114850456,,52.122223,-10.324313,Buy,KERRY,http://www.daft.ie/for-sale/detached-house-ard-na-mara-ard-na-mara-ventry-co-kerry/3824786
3824477,18856953,"Coolnaharragill Lower, Glenbeigh, Co. Kerry",330000.0,284,284 m²,4,3,Detached,2022-08-04,D1,,,52.036056,-9.999218,Buy,KERRY,http://www.daft.ie/for-sale/detached-house-coolnaharragill-lower-glenbeigh-co-kerry/3824477
3823853,18853709,"Glanbeg, Caherdaniel, Co. Kerry",325000.0,N/A,,2,1,Detached,2022-08-03,SI_666,,,51.760479,-10.082958,Buy,KERRY,http://www.daft.ie/for-sale/detached-house-glanbeg-caherdaniel-co-kerry/3823853
3816916,18790002,"Carhan Road, Cahersiveen, Co. Kerry",Price on Application,235,235 m²,4,4,Detached,2022-08-05,C1,115009235,150.08 kWh/m2/yr,51.949701,-10.216177,Buy,KERRY,http://www.daft.ie/for-sale/detached-house-carhan-road-cahersiveen-co-kerry/3816916
3818378,18802256,"Spout House, Spout Lane, Castleisland, Co. Kerry",260000.0,N/A,,3,2,Detached,2022-05-30,C1,114664311,169.11 kWh/m2/yr,52.232828,-9.461056,Buy,KERRY,http://www.daft.ie/for-sale/detached-house-spout-house-spout-lane-castleisland-co-kerry/3818378
3817101,18791558,"Milleen, Kilcummin, Killarney, Co. Kerry",350000.0,158,158 m²,3,2,Detached,2022-08-02,D1,,,52.114996,-9.404395,Buy,KERRY,http://www.daft.ie/for-sale/detached-house-milleen-kilcummin-killarney-co-kerry/3817101
3816779,18787798,"Curraheen, Glenbeigh, Co. Kerry",350000.0,N/A,,4,3,Detached,2022-08-04,D2,,,52.061492,-9.920652,Buy,KERRY,http://www.daft.ie/for-sale/detached-house-curraheen-glenbeigh-co-kerry/3816779
3812788,18752322,"Killomeerhoe, Lisselton, Co. Kerry",239000.0,150,150 m²,3,3,Detached,2022-06-26,E1,114775703,306.03 kWh/m2/yr,52.512462,-9.580364,Buy,KERRY,http://www.daft.ie/for-sale/detached-house-killomeerhoe-lisselton-co-kerry/3812788
3811145,18738380,"Ferry Cottage, Tarbert Island, Tarbert, Co. Kerry",165000.0,47,47 m²,2,1,Detached,2022-08-10,E2,,368.8 kWh/m2/yr,52.587021,-9.364575,Buy,KERRY,http://www.daft.ie/for-sale/detached-house-ferry-cottage-tarbert-island-tarbert-co-kerry/3811145
3808066,18723733,"None Go By, Dooks Mountain, Glenbeigh, Co. Kerry",395000.0,201,201 m²,4,2,Detached,2022-07-08,E2,,,52.084238,-9.897646,Buy,KERRY,http://www.daft.ie/for-sale/detached-house-none-go-by-dooks-mountain-glenbeigh-co-kerry/3808066
3807566,18718785,"Rossacoosane, Greenane, Reen, Co. Kerry",645000.0,110,110 m²,3,2,Detached,2022-08-10,E1,114769540,324.49 kWh/m2/yr,51.869696,-9.659489,Buy,KERRY,http://www.daft.ie/for-sale/detached-house-rossacoosane-greenane-reen-co-kerry/3807566
3785674,18528115,"Minnies Cottage, Drom West, Glenbeigh, Co. Kerry",330000.0,N/A,,3,2,Detached,2022-08-08,SI_666,,,52.040802,-10.000156,Buy,KERRY,http://www.daft.ie/for-sale/detached-house-minnies-cottage-drom-west-glenbeigh-co-kerry/3785674
3806275,18705281,"Teach An Cullin, Caragh Lake, Killorglin, Co. Kerry",975000.0,293,293 m²,5,4,Detached,2022-08-09,C2,114834310,196.35 kWh/m2/yr,52.072081,-9.844931,Buy,KERRY,http://www.daft.ie/for-sale/detached-house-teach-an-cullin-caragh-lake-killorglin-co-kerry/3806275
3805741,18696425,"Spunkane, Waterville, Co. Kerry",398500.0,174,174 m²,4,3,Detached,2022-08-05,C2,114894322,190.69 kWh/m2/yr,51.840569,-10.171987,Buy,KERRY,http://www.daft.ie/for-sale/detached-house-spunkane-waterville-co-kerry/3805741
3805634,18696369,"Shrone More, Rathmore, Co. Kerry",200000.0,N/A,,2,2,Detached,2022-08-03,D2,,,52.040198,-9.244461,Buy,KERRY,http://www.daft.ie/for-sale/detached-house-shrone-more-rathmore-co-kerry/3805634
3802895,18669875,"Gearha South, Kenmare, Co. Kerry",280000.0,195,195 m²,5,4,Detached,2022-05-11,C3,101469831,202.15 kWh/m2/yr,51.890674,-9.76628,Buy,KERRY,http://www.daft.ie/for-sale/detached-house-gearha-south-kenmare-co-kerry/3802895
3802782,18668708,"Meenyvoghane, Brosna, Co. Kerry",60000.0,N/A,,1,,Detached,2022-04-26,SI_666,,,52.316816,-9.32047,Buy,KERRY,http://www.daft.ie/for-sale/detached-house-meenyvoghane-brosna-co-kerry/3802782
3802551,18667914,"9 Pier Cove, Ballykissane, Killorglin, Co. Kerry",365000.0,185,185 m²,4,4,Detached,2022-08-08,D1,109061333,234.92 kWh/m2/yr,52.115308,-9.785996,Buy,KERRY,http://www.daft.ie/for-sale/detached-house-9-pier-cove-ballykissane-killorglin-co-kerry/3802551
3802372,18665588,"Durling Lodge, Curraheen, Glenbeigh, Co. Kerry",395000.0,264,264 m²,5,3,Detached,2022-08-08,C1,114313083,163.11 kWh/m2/yr,52.064075,-9.912163,Buy,KERRY,http://www.daft.ie/for-sale/detached-house-durling-lodge-curraheen-glenbeigh-co-kerry/3802372
3798763,18635869,"47 Derrylea, Oakpark, Tralee, Co. Kerry",290000.0,N/A,,4,1,Detached,2022-08-09,D1,,,52.281611,-9.683437,Buy,KERRY,http://www.daft.ie/for-sale/detached-house-47-derrylea-oakpark-tralee-co-kerry/3798763
3798923,18636907,"Bawnaluska, Castleisland, Co. Kerry",310000.0,172,172 m²,4,3,Detached,2022-05-10,C2,104787833,182.05 kWh/m2/yr,52.235843,-9.457086,Buy,KERRY,http://www.daft.ie/for-sale/detached-house-bawnaluska-castleisland-co-kerry/3798923
3798349,18631362,"Ballybroman House, Ballybroman, Tralee, Co. Kerry",Price on Application,197,197 m²,5,2,Detached,2022-08-09,E1,114670623,338.37 kWh/m2/yr,52.33217,-9.734484,Buy,KERRY,http://www.daft.ie/for-sale/detached-house-ballybroman-house-ballybroman-tralee-co-kerry/3798349
3797967,18628355,"null, Knocknagoshel, Co. Kerry",125000.0,73,73 m²,2,2,Detached,2022-08-09,G,,,52.331439,-9.381811,Buy,KERRY,http://www.daft.ie/for-sale/detached-house-null-knocknagoshel-co-kerry/3797967
3788144,18549744,"Woodlands, Glannagilliagh, Caragh Lake, Co. Kerry",490000.0,204,204 m²,4,3,Detached,2022-08-08,B2,105312326,112.37 kWh/m2/yr,52.074046,-9.842315,Buy,KERRY,http://www.daft.ie/for-sale/detached-house-woodlands-glannagilliagh-caragh-lake-co-kerry/3788144
3795655,18609322,"Beechwood, Lover's Lane, Tralee, Co. Kerry",375000.0,125,125 m²,4,3,Detached,2022-06-28,G,115156002,531.4 kWh/m2/yr,52.2599,-9.710681,Buy,KERRY,http://www.daft.ie/for-sale/detached-house-beechwood-lovers-lane-tralee-co-kerry/3795655
3793229,18589914,"29 Quarryvale, Mounthawk, Tralee, Co. Kerry",420000.0,N/A,,4,4,Detached,2022-05-30,C1,,,52.285352,-9.723526,Buy,KERRY,http://www.daft.ie/for-sale/detached-house-29-quarryvale-mounthawk-tralee-co-kerry/3793229
3793271,18589937,"8 Hillview Drive, Caherslee, Tralee, Co. Kerry",150000.0,121,121 m²,3,1,Detached,2022-08-09,G,,,52.277081,-9.71709,Buy,KERRY,http://www.daft.ie/for-sale/detached-house-8-hillview-drive-caherslee-tralee-co-kerry/3793271
3791345,18578189,"24 Knocklyne, Sunhill, Killorglin, Co. Kerry",295000.0,136,136 m²,4,2,Detached,2022-08-04,C1,102293677,,52.110402,-9.791949,Buy,KERRY,http://www.daft.ie/for-sale/detached-house-24-knocklyne-sunhill-killorglin-co-kerry/3791345
3290369,15250621,"The Old Schoolhouse, Collorus, Kenmare, Co. Kerry",395000.0,220,220 m²,3,2,Detached,2022-08-10,SI_666,,,51.760398,-9.84321,Buy,KERRY,http://www.daft.ie/for-sale/detached-house-the-old-schoolhouse-collorus-kenmare-co-kerry/3290369
3791194,18577290,"Nan's Cottage, Tulligmore, Killorglin, Co. Kerry",Price on Application,93,93 m²,2,1,Detached,2022-08-08,SI_666,,,52.10874811101348,-9.840893422285319,Buy,KERRY,http://www.daft.ie/for-sale/detached-house-nans-cottage-tulligmore-killorglin-co-kerry/3791194
3790550,18570947,"40 Clogher Lé­, Tralee, Co. Kerry",299950.0,N/A,,4,3,Detached,2022-07-22,D2,114820475,262.22 kWh/m2/yr,52.25865,-9.694353,Buy,KERRY,http://www.daft.ie/for-sale/detached-house-40-clogher-l-tralee-co-kerry/3790550
3783705,18511419,"An Doirin, The Wood, Dingle, Co. Kerry",750000.0,160,160 m²,4,2,Detached,2022-08-02,E1,,,52.13965,-10.278117,Buy,KERRY,http://www.daft.ie/for-sale/detached-house-an-doirin-the-wood-dingle-co-kerry/3783705
3783531,18508420,"Ashwood, Dromadeesirt, Killarney, Co. Kerry",600000.0,383,383 m²,6,8,Detached,2022-06-10,C3,114400757,205.56 kWh/m2/yr,52.113329,-9.514119,Buy,KERRY,http://www.daft.ie/for-sale/detached-house-ashwood-dromadeesirt-killarney-co-kerry/3783531
3783501,18508407,"An Doirin, The Wood, Dingle, Co. Kerry",750000.0,160,160 m²,4,2,Detached,2022-07-06,E1,,,52.13965,-10.278117,Buy,KERRY,http://www.daft.ie/for-sale/detached-house-an-doirin-the-wood-dingle-co-kerry/3783501
3782381,18494789,"Doonties, Dingle, Co. Kerry",330000.0,N/A,,3,1,Detached,2022-08-02,E2,,,52.125258,-10.152851,Buy,KERRY,http://www.daft.ie/for-sale/detached-house-doonties-dingle-co-kerry/3782381
3779443,18469678,"Dromkeare, Waterville, Co. Kerry",Price on Application,179,179 m²,4,3,Detached,2022-08-05,B3,115021214,140.85 kWh/m2/yr,51.849179,-10.119432,Buy,KERRY,http://www.daft.ie/for-sale/detached-house-dromkeare-waterville-co-kerry/3779443
3779403,18469660,"9 Ross Avenue, Ross Road, Killarney, Co. Kerry",Price on Application,279,279 m²,4,4,Detached,2022-08-03,A1,,,52.049307,-9.518963,Buy,KERRY,http://www.daft.ie/for-sale/detached-house-9-ross-avenue-ross-road-killarney-co-kerry/3779403
3778471,18460179,"44 Knocklyne Valley, Killorglin, Co. Kerry",245000.0,125,125 m²,3,2,Detached,2022-08-04,D1,,,52.11275,-9.801529,Buy,KERRY,http://www.daft.ie/for-sale/detached-house-44-knocklyne-valley-killorglin-co-kerry/3778471
3778016,18455878,"Greenville, Listowel, Co. Kerry","AMV: €135,000",135,135 m²,4,2,Detached,2022-06-23,E2,114879190,364.82 kWh/m2/yr,52.445491,-9.510793,Buy,KERRY,http://www.daft.ie/for-sale/detached-house-greenville-listowel-co-kerry/3778016
3774274,18422434,"Coolclogher Lodge, Mill Road, Killarney, Co. Kerry",330000.0,85,85 m²,3,2,Detached,2022-06-10,G,114700339,750.06 kWh/m2/yr,52.048243,-9.492723,Buy,KERRY,http://www.daft.ie/for-sale/detached-house-coolclogher-lodge-mill-road-killarney-co-kerry/3774274
3772573,18402553,"Ballykissane, Killorglin, Co. Kerry",260000.0,N/A,,3,2,Detached,2022-08-04,C3,,,52.123068,-9.786502,Buy,KERRY,http://www.daft.ie/for-sale/detached-house-ballykissane-killorglin-co-kerry/3772573
3770153,18378539,"Dromaddamore, Lyre, Listowel, Co. Kerry","AMV: €40,000",N/A,,1,1,Detached,2022-08-10,SI_666,,,52.31950649513965,-9.520361835974683,Buy,KERRY,http://www.daft.ie/for-sale/detached-house-dromaddamore-lyre-listowel-co-kerry/3770153
3769787,18374471,"Greenmount, Knockeen, Dingle, Co. Kerry",775000.0,171,171 m²,7,3,Detached,2022-08-10,C2,114678667,177.27 kWh/m2/yr,52.138656,-10.258995,Buy,KERRY,http://www.daft.ie/for-sale/detached-house-greenmount-knockeen-dingle-co-kerry/3769787
2289800,12455194,"Cloghers, Lixnaw, Co. Kerry",225000.0,139,139 m²,4,4,Detached,2022-07-14,D2,110512878,,52.4058810372048,-9.62089511776992,Buy,KERRY,http://www.daft.ie/for-sale/detached-house-cloghers-lixnaw-co-kerry/2289800
3618492,16955077,"Gransha Lower, Castlemaine, Co. Kerry",320000.0,161,161 m²,3,4,Detached,2022-03-30,C3,,,52.168251,-9.699874,Buy,KERRY,http://www.daft.ie/for-sale/detached-house-gransha-lower-castlemaine-co-kerry/3618492
3761295,18316549,"Carhoo, Dingle, Co. Kerry",400000.0,N/A,,3,2,Detached,2022-08-02,E2,,,52.121539,-10.287228,Buy,KERRY,http://www.daft.ie/for-sale/detached-house-carhoo-dingle-co-kerry/3761295
3758351,18296244,"Coornagillagh, Kenmare, Co. Kerry",400000.0,235,235 m²,5,3,Detached,2022-03-22,B3,114358948,137.82 kWh/m2/yr,51.825251,-9.723486,Buy,KERRY,http://www.daft.ie/for-sale/detached-house-coornagillagh-kenmare-co-kerry/3758351
3751232,18243918,"Knockeenduff, Killarney, Co. Kerry",295000.0,N/A,,4,1,Detached,2022-06-24,D1,,,52.087424,-9.506444,Buy,KERRY,http://www.daft.ie/for-sale/detached-house-knockeenduff-killarney-co-kerry/3751232
3753585,18270136,"Naomh Brigid, Knockeens, Cahersiveen, Co. Kerry",398500.0,N/A,,5,3,Detached,2022-08-05,C1,103205092,162.78 kWh/m2/yr,51.924556,-10.240856,Buy,KERRY,http://www.daft.ie/for-sale/detached-house-naomh-brigid-knockeens-cahersiveen-co-kerry/3753585
3753149,18267300,"Tubrid More, Ardfert, Co. Kerry",235000.0,N/A,,3,2,Detached,2022-03-16,E1,106201106,323.15 kWh/m2/yr,52.321348,-9.74999,Buy,KERRY,http://www.daft.ie/for-sale/detached-house-tubrid-more-ardfert-co-kerry/3753149
3753056,18267184,"Knockeenawaddra, Portmagee, Co. Kerry",Price on Application,N/A,,3,2,Detached,2022-08-05,C1,114731052,163.34 kWh/m2/yr,51.892629,-10.31955,Buy,KERRY,http://www.daft.ie/for-sale/detached-house-knockeenawaddra-portmagee-co-kerry/3753056
3752695,18263868,"Glenheather, 1 Ard Charraig, Tralee, Co. Kerry",350000.0,N/A,,4,3,Detached,2022-07-07,F,104737804,419.08 kWh/m2/yr,52.2754,-9.716,Buy,KERRY,http://www.daft.ie/for-sale/detached-house-glenheather-1-ard-charraig-tralee-co-kerry/3752695
3748730,18224704,"Inchee, Waterville, Co. Kerry",245000.0,N/A,,3,1,Detached,2022-04-20,E1,114812829,326.19 kWh/m2/yr,51.802973,-10.142523,Buy,KERRY,http://www.daft.ie/for-sale/detached-house-inchee-waterville-co-kerry/3748730
3746253,18198495,"Murreagh, Waterville, Co. Kerry",545000.0,219,219 m²,4,4,Detached,2022-03-10,C3,109968875,207.42 kWh/m2/yr,51.841111,-10.183211,Buy,KERRY,http://www.daft.ie/for-sale/detached-house-murreagh-waterville-co-kerry/3746253
3745229,18191004,"Cappanacush East, Kenmare, Co. Kerry",795000.0,247,247 m²,4,3,Detached,2022-08-10,A1,114710007,,51.873618,-9.693623,Buy,KERRY,http://www.daft.ie/for-sale/detached-house-cappanacush-east-kenmare-co-kerry/3745229
3742941,18163843,"28 Dunkerron Woods Holiday Homes, Kenmare, Co. Kerry",315000.0,121,121 m²,3,3,Detached,2022-08-09,C1,,,51.878771,-9.620478,Buy,KERRY,http://www.daft.ie/for-sale/detached-house-28-dunkerron-woods-holiday-homes-kenmare-co-kerry/3742941
3725002,17999878,"2 Castlecove, Knockyline, Killorglin, Co. Kerry",290000.0,145,145 m²,4,4,Detached,2022-08-08,C3,114739709,200.87 kWh/m2/yr,52.115251,-9.787074,Buy,KERRY,http://www.daft.ie/for-sale/detached-house-2-castlecove-knockyline-killorglin-co-kerry/3725002
3728773,18024812,"Moll's Cottage, Cromane Upper, Cromane, Co. Kerry",165000.0,70,70 m²,2,1,Detached,2022-08-08,F,111232013,409.67 kWh/m2/yr,52.098567,-9.897982,Buy,KERRY,http://www.daft.ie/for-sale/detached-house-molls-cottage-cromane-upper-cromane-co-kerry/3728773
3737216,18114709,"Coomavoher, Waterville, Co. Kerry",250000.0,65,65 m²,2,2,Detached,2022-06-15,F,114581978,399.51 kWh/m2/yr,51.901865,-9.991918,Buy,KERRY,http://www.daft.ie/for-sale/detached-house-coomavoher-waterville-co-kerry/3737216
3899678,18950857,"Barraduff , Killarney, Co. Kerry",320000.0,N/A,,3,3,Detached,2022-08-05,A2,,,52.05408715355304,-9.464114008683936,New Homes,KERRY,http://www.daft.ie/new-home-for-sale/detached-house-house-type-j-barraduff-barraduff-killarney-co-kerry/3899678
3899677,18950859,"Barraduff , Killarney, Co. Kerry",320000.0,N/A,,3,3,Detached,2022-08-05,A2,,,52.05408715355304,-9.464114008683936,New Homes,KERRY,http://www.daft.ie/new-home-for-sale/detached-house-house-type-j1-barraduff-barraduff-killarney-co-kerry/3899677
3899679,18950860,"Barraduff , Killarney, Co. Kerry",345000.0,N/A,,4,3,Detached,2022-08-05,A2,,,52.05408715355304,-9.464114008683936,New Homes,KERRY,http://www.daft.ie/new-home-for-sale/detached-house-house-type-a-barraduff-barraduff-killarney-co-kerry/3899679
3730123,18038128,"Knockanure Village, Moyvane, Listowel, Co. Kerry",105000.0,N/A,,3,1,Detached,2022-08-10,G,114630007,555.8 kWh/m2/yr,52.461995,-9.371035,Buy,KERRY,http://www.daft.ie/for-sale/detached-house-knockanure-village-moyvane-listowel-co-kerry/3730123
3719267,17956675,"Dromville, Dromadeesirt, Killarney, Co. Kerry",600000.0,351,351 m²,8,8,Detached,2022-06-10,C3,114400781,213.87 kWh/m2/yr,52.11333,-9.513499,Buy,KERRY,http://www.daft.ie/for-sale/detached-house-dromville-dromadeesirt-killarney-co-kerry/3719267
3698021,17772354,"1 Castlecove Castletown Kilflynn, Kilflynn, Co. Kerry",290000.0,208,208 m²,4,3,Detached,2022-05-17,B3,114655764,136.08 kWh/m2/yr,52.35461226366661,-9.627991919271665,Buy,KERRY,http://www.daft.ie/for-sale/detached-house-1-castlecove-castletown-kilflynn-kilflynn-co-kerry/3698021
3715422,17910720,"Lakelands House, Lake Road, Waterville, Co. Kerry",795000.0,641,641 m²,12,13,Detached,2022-08-09,B2,110059961,117.82 kWh/m2/yr,51.815331,-10.143398,Buy,KERRY,http://www.daft.ie/for-sale/detached-house-lakelands-house-lake-road-waterville-co-kerry/3715422
3714003,17895906,"Tarmons East, Tarbert, Co. Kerry",170000.0,122,122 m²,4,1,Detached,2022-07-20,C3,107108540,220.11 kWh/m2/yr,52.53919,-9.378814,Buy,KERRY,http://www.daft.ie/for-sale/detached-house-tarmons-east-tarbert-co-kerry/3714003
3713067,17886108,"None Go By, Dooks Mountain, Dooks, Co. Kerry",395000.0,201,201 m²,4,2,Detached,2022-07-08,E2,114605355,369.81 kWh/m2/yr,52.084238,-9.897646,Buy,KERRY,http://www.daft.ie/for-sale/detached-house-none-go-by-dooks-mountain-dooks-co-kerry/3713067
3711389,17869648,"Dromod Lodge, Dromod, Waterville, Co. Kerry",138500.0,N/A,,3,1,Detached,2022-08-05,G,114710080,778.59 kWh/m2/yr,51.862688,-10.106032,Buy,KERRY,http://www.daft.ie/for-sale/detached-house-dromod-lodge-dromod-waterville-co-kerry/3711389
3711367,17869638,"Murreagh, Waterville, Co. Kerry",450000.0,N/A,,4,5,Detached,2022-05-23,C3,108548769,214.36 kWh/m2/yr,51.840945,-10.17878,Buy,KERRY,http://www.daft.ie/for-sale/detached-house-murreagh-waterville-co-kerry/3711367
3709596,17853734,"7 Kilcaragh, Lixnaw, Co. Kerry",290000.0,200,200 m²,4,3,Detached,2022-08-08,C2,114619406,192.0 kWh/m2/yr,52.403945,-9.61798,Buy,KERRY,http://www.daft.ie/for-sale/detached-house-7-kilcaragh-lixnaw-co-kerry/3709596
3709532,17853002,"Firies Village, Firies, Killarney, Co. Kerry",320000.0,139,139 m²,3,3,Detached,2022-08-02,A3,,,52.17049291258698,-9.598542502420031,Buy,KERRY,http://www.daft.ie/for-sale/detached-house-firies-village-firies-killarney-co-kerry/3709532
3707625,17833610,"8 The Paddocks, Langford Street, Killorglin, Co. Kerry",265000.0,108,108 m²,3,3,Detached,2022-07-06,D2,,,52.104485,-9.785538,Buy,KERRY,http://www.daft.ie/for-sale/detached-house-8-the-paddocks-langford-street-killorglin-co-kerry/3707625
3705313,17820260,"Pluckeen, Caherslee, Tralee, Co. Kerry",299000.0,N/A,,4,2,Detached,2022-08-05,G,114646581,457.05 kWh/m2/yr,52.274139,-9.715102,Buy,KERRY,http://www.daft.ie/for-sale/detached-house-pluckeen-caherslee-tralee-co-kerry/3705313
3696638,17759438,"Garrahies, Camp, Co. Kerry",475000.0,230,230 m²,6,4,Detached,2022-02-22,B3,,,52.226177,-9.912596,Buy,KERRY,http://www.daft.ie/for-sale/detached-house-garrahies-camp-co-kerry/3696638
3545993,16216332,"Farrannahow, Waterville, Co. Kerry",310000.0,N/A,,5,3,Detached,2022-08-05,C2,103544425,199.76 kWh/m2/yr,51.862413,-10.175905,Buy,KERRY,http://www.daft.ie/for-sale/detached-house-farrannahow-waterville-co-kerry/3545993
3682798,17651801,"Tylough, Kielduff, Tralee, Co. Kerry","AMV: €45,000",N/A,,1,,Detached,2022-08-10,SI_666,,,52.29254925,-9.60628456,Buy,KERRY,http://www.daft.ie/for-sale/detached-house-tylough-kielduff-tralee-co-kerry/3682798
3659845,17412339,"Benjamin Close, Ballybrack, Waterville, Co. Kerry",Price on Application,139,139 m²,3,4,Detached,2022-08-05,D1,113683932,254.15 kWh/m2/yr,51.815975,-10.161662,Buy,KERRY,http://www.daft.ie/for-sale/detached-house-benjamin-close-ballybrack-waterville-co-kerry/3659845
3659454,17406873,"Lakelands House, Lake Road, Waterville, Co. Kerry",795000.0,641,641 m²,12,13,Detached,2022-08-03,B2,110059961,117.82 kWh/m2/yr,51.815331,-10.143398,Buy,KERRY,http://www.daft.ie/for-sale/detached-house-lakelands-house-lake-road-waterville-co-kerry/3659454
10921,11590793,"Killarney Road, Gortamullen, Kenmare, Co. Kerry",395000.0,N/A,,4,2,Detached,2022-06-30,F,110391117,431.23 kWh/m2/yr,51.883057,-9.58611,Buy,KERRY,http://www.daft.ie/for-sale/detached-house-killarney-road-gortamullen-kenmare-co-kerry/10921
3515406,16081663,"Castlequin, Cahersiveen, Co. Kerry",695000.0,188,188 m²,5,5,Detached,2022-08-09,C1,,,51.951502,-10.226207,Buy,KERRY,http://www.daft.ie/for-sale/detached-house-castlequin-cahersiveen-co-kerry/3515406
3636026,17086032,"Tooreenyduneen, Waterville, Co. Kerry",338500.0,N/A,,5,4,Detached,2022-08-05,C2,113686604,193.55 kWh/m2/yr,51.821598,-10.040492,Buy,KERRY,http://www.daft.ie/for-sale/detached-house-tooreenyduneen-waterville-co-kerry/3636026
3648763,17262612,"Muingnaminnane, Castleisland, Co. Kerry",40000.0,N/A,,2,,Detached,2022-08-02,SI_666,,,52.29195,-9.525745,Buy,KERRY,http://www.daft.ie/for-sale/detached-house-muingnaminnane-castleisland-co-kerry/3648763
3648213,17255619,"Dromkeare, Waterville, Co. Kerry",350000.0,118,118 m²,3,3,Detached,2022-08-10,C3,114126188,220.9 kWh/m2/yr,51.850943,-10.109572,Buy,KERRY,http://www.daft.ie/for-sale/detached-house-dromkeare-waterville-co-kerry/3648213
3636418,17091170,"Slievegaura, Beaufort, Co. Kerry",225000.0,205,205 m²,5,5,Detached,2022-06-24,C3,,,52.097401,-9.67283,Buy,KERRY,http://www.daft.ie/for-sale/detached-house-slievegaura-beaufort-co-kerry/3636418
3621959,16995146,"Auchenblae House, Baslickane, Waterville, Co. Kerry",395000.0,N/A,,5,4,Detached,2022-07-26,C3,114584253,220.47 kWh/m2/yr,51.810182,-10.170279,Buy,KERRY,http://www.daft.ie/for-sale/detached-house-auchenblae-house-baslickane-waterville-co-kerry/3621959
3609046,16882795,"Aghort, Ballinskelligs, Co. Kerry",395000.0,200,200 m²,4,3,Detached,2022-08-10,B3,114555782,144.82 kWh/m2/yr,51.843235,-10.328136,Buy,KERRY,http://www.daft.ie/for-sale/detached-house-aghort-ballinskelligs-co-kerry/3609046
3603325,16814584,"Coolnaharragill Upper, Glenbeigh, Co. Kerry",225000.0,N/A,,3,2,Detached,2022-08-04,D2,,,52.034948,-10.007374,Buy,KERRY,http://www.daft.ie/for-sale/detached-house-coolnaharragill-upper-glenbeigh-co-kerry/3603325
3600888,16779573,"Ackareen House, Barrow, Ardfert, Co. Kerry",545000.0,209,209 m²,4,2,Detached,2022-08-10,D2,114481054,288.75 kWh/m2/yr,52.302906,-9.831112,Buy,KERRY,http://www.daft.ie/for-sale/detached-house-ackareen-house-barrow-ardfert-co-kerry/3600888
3595824,16734958,"Lub Na HAbhann, Castlecove, Co. Kerry",215000.0,85,85 m²,3,3,Detached,2022-08-10,A3,,,51.778937,-10.032527,Buy,KERRY,http://www.daft.ie/for-sale/detached-house-lub-na-habhann-castlecove-co-kerry/3595824
3580299,16564619,"Mastergeeha,  Kilcummin, Killarney, Co. Kerry",275000.0,N/A,,3,1,Detached,2022-08-10,D2,,,52.107766,-9.384154,Buy,KERRY,http://www.daft.ie/for-sale/detached-house-mastergeeha-kilcummin-killarney-co-kerry/3580299
3579087,16550666,"Lateeve More, Ballyferriter, Co. Kerry",650000.0,204,204 m²,4,3,Detached,2022-07-06,C1,,,52.161458,-10.350459,Buy,KERRY,http://www.daft.ie/for-sale/detached-house-lateeve-more-ballyferriter-co-kerry/3579087
3578000,16536528,"Feohanagh, Ballydavid, Co. Kerry",275000.0,N/A,,3,1,Detached,2022-05-05,C3,,,52.216305,-10.349838,Buy,KERRY,http://www.daft.ie/for-sale/detached-house-feohanagh-ballydavid-co-kerry/3578000
3574334,16495555,"Coornagillagh, Tuosist, Kenmare, Co. Kerry",315000.0,142,142 m²,4,4,Detached,2022-08-10,C1,114406143,174.93 kWh/m2/yr,51.825721,-9.731552,Buy,KERRY,http://www.daft.ie/for-sale/detached-house-coornagillagh-tuosist-kenmare-co-kerry/3574334
3561192,16347232,"Muingnaminnane, Castleisland, Co. Kerry","AMV: €135,000",N/A,,2,1,Detached,2022-08-10,G,114404213,,52.300243,-9.50909,Buy,KERRY,http://www.daft.ie/for-sale/detached-house-muingnaminnane-castleisland-co-kerry/3561192
3558700,16316059,"44 Banna Beach Holiday Homes, Tralee, Co. Kerry","AMV: €105,000",N/A,,2,1,Detached,2022-08-10,G,104179510,,52.339002,-9.816523,Buy,KERRY,http://www.daft.ie/for-sale/detached-house-44-banna-beach-holiday-homes-tralee-co-kerry/3558700
3558385,16310610,"Ballingarraun, Dingle, Co. Kerry",350000.0,N/A,,3,1,Detached,2021-10-07,D2,,,52.161555,-10.202924,Buy,KERRY,http://www.daft.ie/for-sale/detached-house-ballingarraun-dingle-co-kerry/3558385
3557133,16293655,"Ballyrishteen, Dingle, Co. Kerry",310000.0,N/A,,4,2,Detached,2022-08-02,SI_666,,,52.153575,-10.210472,Buy,KERRY,http://www.daft.ie/for-sale/detached-house-ballyrishteen-dingle-co-kerry/3557133
3556855,16290502,"Ballingarraun, Dingle, Co. Kerry",350000.0,N/A,,3,1,Detached,2022-08-02,D2,,,52.161555,-10.202924,Buy,KERRY,http://www.daft.ie/for-sale/detached-house-ballingarraun-dingle-co-kerry/3556855
3554568,16259291,"Ballyard, Tralee, Co. Kerry",695000.0,N/A,,5,6,Detached,2022-08-05,SI_666,,,52.2506265210815,-9.69600865346871,Buy,KERRY,http://www.daft.ie/for-sale/detached-house-ballyard-tralee-co-kerry/3554568
3524211,16118491,"Asdee East, Astee, Co. Kerry",245000.0,160,160 m²,4,1,Detached,2022-07-06,D1,114343973,258.81 kWh/m2/yr,52.552415,-9.532544,Buy,KERRY,http://www.daft.ie/for-sale/detached-house-asdee-east-astee-co-kerry/3524211
3519373,16098174,"Derreensillagh, Castlecove, Co. Kerry",150000.0,64,64 m²,2,1,Detached,2022-06-30,SI_666,,,51.77927,-10.003361,Buy,KERRY,http://www.daft.ie/for-sale/detached-house-derreensillagh-castlecove-co-kerry/3519373
3517562,16090537,"Iveragh Terrace Cable Station Waterville, Waterville, Co. Kerry",230000.0,225,225 m²,4,4,Detached,2022-05-10,SI_666,,,51.8325484040343,-10.173279545319872,Buy,KERRY,http://www.daft.ie/for-sale/detached-house-iveragh-terrace-cable-station-waterville-waterville-co-kerry/3517562
3491228,15915332,"The Presbytery, Beaufort, Killarney, Co. Kerry",Price on Application,N/A,,4,2,Detached,2022-06-24,D1,114297963,,52.0602693,-9.6513132,Buy,KERRY,http://www.daft.ie/for-sale/detached-house-the-presbytery-beaufort-killarney-co-kerry/3491228
3491323,15918080,"Bramble House, Ilaunstookagh (Dooks), Cromane, Co. Kerry",795000.0,241,241 m²,5,5,Detached,2022-08-09,C2,112194832,179.59 kWh/m2/yr,52.095542,-9.898032,Buy,KERRY,http://www.daft.ie/for-sale/detached-house-bramble-house-ilaunstookagh-dooks-cromane-co-kerry/3491323
3491148,15915275,"Kilquane, Ballydavid, Co. Kerry",Price on Application,N/A,,4,1,Detached,2021-09-27,F,114299019,,52.206272,-10.317472,Buy,KERRY,http://www.daft.ie/for-sale/detached-house-kilquane-ballydavid-co-kerry/3491148
3480187,15822380,"The Old School Residence, Behaghane, Caherdaniel, Co. Kerry",499500.0,251,251 m²,4,3,Detached,2022-08-02,D1,,,51.778641,-10.04184,Buy,KERRY,http://www.daft.ie/for-sale/detached-house-the-old-school-residence-behaghane-caherdaniel-co-kerry/3480187
3473605,15746489,"Churchfield, Dingle, Co. Kerry",299500.0,N/A,,4,3,Detached,2022-08-02,D1,,,52.140841,-10.167176,Buy,KERRY,http://www.daft.ie/for-sale/detached-house-churchfield-dingle-co-kerry/3473605
3454541,15601088,"Ardaneanig, Killarney, Co. Kerry",300000.0,165,165 m²,3,3,Detached,2022-08-10,,,,52.0527068,-9.4396915,Buy,KERRY,http://www.daft.ie/for-sale/detached-house-ardaneanig-killarney-co-kerry/3454541
3442243,15541878,"Serenity, Killarney Road, Kenmare, Co. Kerry",395000.0,157,157 m²,4,2,Detached,2022-06-30,F,110391117,431.23 kWh/m2/yr,51.883057,-9.58611,Buy,KERRY,http://www.daft.ie/for-sale/detached-house-serenity-killarney-road-kenmare-co-kerry/3442243
3434068,15462031,"Ref 949 - Old Farmhouse & Ruin, Coom, Ballinskelligs, Co. Kerry",Price on Application,N/A,,3,1,Detached,2022-08-05,SI_666,,,51.824325582101665,-10.30594786637522,Buy,KERRY,http://www.daft.ie/for-sale/detached-house-ref-949-old-farmhouse-ruin-coom-ballinskelligs-co-kerry/3434068
3430480,15428503,"Mount Rivers, Carhan Road, Cahersiveen, Co. Kerry",300000.0,296,296 m²,6,8,Detached,2022-08-04,F,114308075,102.31 kWh/m2/yr,51.947859,-10.218577,Buy,KERRY,http://www.daft.ie/for-sale/detached-house-mount-rivers-carhan-road-cahersiveen-co-kerry/3430480
3415405,15296573,"Ballyrishteen, Dingle, Co. Kerry",310000.0,173,173 m²,4,2,Detached,2022-08-05,SI_666,,,52.153575,-10.210472,Buy,KERRY,http://www.daft.ie/for-sale/detached-house-ballyrishteen-dingle-co-kerry/3415405
3285051,15228002,"Annalack, Dingle, Co. Kerry",260000.0,N/A,,5,1,Detached,2022-08-02,E1,,,52.145626,-10.102074,Buy,KERRY,http://www.daft.ie/for-sale/detached-house-annalack-dingle-co-kerry/3285051
3262376,15073806,"The Old Presbytery, Ardea, Ardea, Co. Kerry",575000.0,N/A,,5,2,Detached,2022-08-10,G,,,51.804276,-9.766667,Buy,KERRY,http://www.daft.ie/for-sale/detached-house-the-old-presbytery-ardea-ardea-co-kerry/3262376
3240855,14961632,"Coolagowan, Listowel, Co. Kerry",399000.0,220,220 m²,5,4,Detached,2022-08-01,C1,113689327,167.48 kWh/m2/yr,52.434409,-9.590238,Buy,KERRY,http://www.daft.ie/for-sale/detached-house-coolagowan-listowel-co-kerry/3240855
3240509,14958311,"Coolagowan, Listowel, Co. Kerry",399000.0,220,220 m²,5,4,Detached,2022-07-14,C1,113689327,167.48 kWh/m2/yr,52.434409,-9.590238,Buy,KERRY,http://www.daft.ie/for-sale/detached-house-coolagowan-listowel-co-kerry/3240509
3239913,14953834,"Clonlee, 29 Páirc Na Dún, Tralee, Co. Kerry",295000.0,N/A,,3,1,Detached,2022-06-28,D2,103244422,299.65 kWh/m2/yr,52.278668,-9.72239,Buy,KERRY,http://www.daft.ie/for-sale/detached-house-clonlee-29-p-irc-na-d-n-tralee-co-kerry/3239913
3221484,14810158,"Ballycarnahan, Caherdaniel, Co. Kerry",175000.0,102,102 m²,1,1,Detached,2022-06-24,SI_666,,,51.76381327507667,-10.10181551254962,Buy,KERRY,http://www.daft.ie/for-sale/detached-house-ballycarnahan-caherdaniel-co-kerry/3221484
3194191,14561883,"Curraheen, Tralee, Co. Kerry",275000.0,N/A,,6,3,Detached,2022-07-07,C1,113785901,160.69 kWh/m2/yr,52.243706,-9.784308,Buy,KERRY,http://www.daft.ie/for-sale/detached-house-curraheen-tralee-co-kerry/3194191
3185212,14475364,"Ballyganneen Mór, Ballydavid, Co. Kerry",320000.0,152,152 m²,5,2,Detached,2022-07-06,E2,,,52.216466,-10.330577,Buy,KERRY,http://www.daft.ie/for-sale/detached-house-ballyganneen-m-r-ballydavid-co-kerry/3185212
2922404,13855765,"Reenconnell, Dingle, Co. Kerry",450000.0,N/A,,3,1,Detached,2021-02-22,G,,,52.187365,-10.306479,Buy,KERRY,http://www.daft.ie/for-sale/detached-house-reenconnell-dingle-co-kerry/2922404
2622111,13106225,"Lower Bridge Street, Killorglin, Co. Kerry",280000.0,N/A,,3,2,Detached,2021-08-10,SI_666,,,52.106857,-9.784883,Buy,KERRY,http://www.daft.ie/for-sale/detached-house-lower-bridge-street-killorglin-co-kerry/2622111
2591050,12741265,"Ardraw, Beaufort, Co. Kerry",259500.0,N/A,,4,2,Detached,2022-08-02,C3,,,52.083951,-9.710237,Buy,KERRY,http://www.daft.ie/for-sale/detached-house-ardraw-beaufort-co-kerry/2591050
2572873,12707184,"Clieveragh, Listowel, Co. Kerry",449000.0,225,225 m²,4,3,Detached,2022-06-26,B2,113238232,122.11 kWh/m2/yr,52.456456,-9.49086,Buy,KERRY,http://www.daft.ie/for-sale/detached-house-clieveragh-listowel-co-kerry/2572873
2548733,12668926,"Dromkeare, Waterville, Co. Kerry",128500.0,N/A,,3,2,Detached,2022-08-05,SI_666,,,51.848522,-10.110931,Buy,KERRY,http://www.daft.ie/for-sale/detached-house-dromkeare-waterville-co-kerry/2548733
2515873,12601156,"Burnham East, Dingle, Co. Kerry",285000.0,N/A,,2,2,Detached,2022-01-06,C3,,,52.123726,-10.309773,Buy,KERRY,http://www.daft.ie/for-sale/detached-house-burnham-east-dingle-co-kerry/2515873
1336288,12177959,"Ahabeg West, Lixnaw, Co. Kerry",69000.0,N/A,,1,1,Detached,2022-07-06,SI_666,,,52.40846524188724,-9.69480048947139,Buy,KERRY,http://www.daft.ie/for-sale/detached-house-ahabeg-west-lixnaw-co-kerry/1336288
1524227,12416330,"Emlagh, Lispole, Co. Kerry",130000.0,N/A,,3,1,Detached,2022-08-02,SI_666,,,52.140542589161086,-10.192561066215335,Buy,KERRY,http://www.daft.ie/for-sale/detached-house-emlagh-lispole-co-kerry/1524227
1500703,12383047,"Ballyhea, Dingle, Co. Kerry",295000.0,334,334 m²,6,3,Detached,2022-07-06,C1,,,52.155607,-10.293522,Buy,KERRY,http://www.daft.ie/for-sale/detached-house-ballyhea-dingle-co-kerry/1500703
1465428,12346937,"Knockreagh, Milltown, Co. Kerry",450000.0,150,150 m²,2,1,Detached,2022-08-09,SI_666,,,52.12282,-9.696131,Buy,KERRY,http://www.daft.ie/for-sale/detached-house-knockreagh-milltown-co-kerry/1465428
1418093,12284086,"Clieveragh, Listowel, Listowel, Co. Kerry",Price on Application,N/A,,4,1,Detached,2022-06-26,,,,52.45078608680978,-9.487433262611034,Buy,KERRY,http://www.daft.ie/for-sale/detached-house-clieveragh-listowel-listowel-co-kerry/1418093
1401580,12263748,"Whortlewood, 12 Hazelwood Drive, Killarney, Co. Kerry",275000.0,N/A,,5,2,Detached,2022-08-02,,,,52.059661,-9.474468,Buy,KERRY,http://www.daft.ie/for-sale/detached-house-whortlewood-12-hazelwood-drive-killarney-co-kerry/1401580
1359702,12224415,"Illaucaum, Castlegregory, Co. Kerry",350000.0,N/A,,2,,Detached,2022-05-30,SI_666,,,52.23968004090256,-9.995480403699503,Buy,KERRY,http://www.daft.ie/for-sale/detached-house-illaucaum-castlegregory-co-kerry/1359702
1191195,12158335,"Ardagh, Causeway, Co. Kerry",100000.0,139,139 m²,3,1,Detached,2022-08-02,G,108111337,643.41 kWh/m2/yr,52.4504875176848,-9.728575835640868,Buy,KERRY,http://www.daft.ie/for-sale/detached-house-ardagh-causeway-co-kerry/1191195
1119436,12057014,"Rockfield Stud Farm, Firies, Killarney, Co. Kerry",1500000.0,390,390 m²,5,4,Detached,2022-08-10,C3,,,52.14114120156388,-9.602956358290385,Buy,KERRY,http://www.daft.ie/for-sale/detached-house-rockfield-stud-farm-firies-killarney-co-kerry/1119436
244740,12019737,"Groyne, Killorglin, Co. Kerry",65000.0,1,1 m²,2,1,Detached,2022-08-08,,,,52.091426063821245,-9.775669883115825,Buy,KERRY,http://www.daft.ie/for-sale/detached-house-groyne-killorglin-co-kerry/244740
216589,11969811,"Stone Cottage, Cloghaneleesh, Ballyheigue, Tralee, Co. Kerry",65000.0,138,138 m²,4,1,Detached,2022-06-13,G,111528527,553.03 kWh/m2/yr,52.428712,-9.816355,Buy,KERRY,http://www.daft.ie/for-sale/detached-house-stone-cottage-cloghaneleesh-ballyheigue-tralee-co-kerry/216589
40297,11404251,"Renard House, Cahersiveen, Co. Kerry",850000.0,464,464 m²,9,10,Detached,2022-08-04,C1,,,51.93360256609631,-10.24301290512085,Buy,KERRY,http://www.daft.ie/for-sale/detached-house-renard-house-cahersiveen-co-kerry/40297
10228,11344161,"Gneeveguilla Village, Killarney, Co. Kerry","AMV: €175,000",N/A,,4,1,Detached,2022-08-10,G,,,52.119955089480285,-9.273835203566705,Buy,KERRY,http://www.daft.ie/for-sale/detached-house-gneeveguilla-village-killarney-co-kerry/10228
3806275,18705281,"Teach An Cullin, Caragh Lake, Killorglin, Co. Kerry",975000.0,293,293 m²,5,4,Detached,2022-08-09,C2,114834310,196.35 kWh/m2/yr,52.072081,-9.844931,Buy,KERRY,http://www.daft.ie/for-sale/detached-house-teach-an-cullin-caragh-lake-killorglin-co-kerry/3806275
3806208,18703219,"Main Street, Milltown, Co. Kerry",260000.0,368,368 m²,6,2,Semi-D,2022-05-30,G,114155179,476.87 kWh/m2/yr,52.144712,-9.716902,Buy,KERRY,http://www.daft.ie/for-sale/semi-detached-house-main-street-milltown-co-kerry/3806208
3805741,18696425,"Spunkane, Waterville, Co. Kerry",398500.0,174,174 m²,4,3,Detached,2022-08-05,C2,114894322,190.69 kWh/m2/yr,51.840569,-10.171987,Buy,KERRY,http://www.daft.ie/for-sale/detached-house-spunkane-waterville-co-kerry/3805741
3805634,18696369,"Shrone More, Rathmore, Co. Kerry",200000.0,N/A,,2,2,Detached,2022-08-03,D2,,,52.040198,-9.244461,Buy,KERRY,http://www.daft.ie/for-sale/detached-house-shrone-more-rathmore-co-kerry/3805634
3804473,18684553,"Oakview Village, Oakview, Tralee, Co. Kerry",235000.0,109,109 m²,3,1,Semi-D,2022-08-10,C1,101394641,168.42 kWh/m2/yr,52.279027,-9.694767,Buy,KERRY,http://www.daft.ie/for-sale/semi-detached-house-oakview-village-oakview-tralee-co-kerry/3804473
3802895,18669875,"Gearha South, Kenmare, Co. Kerry",280000.0,195,195 m²,5,4,Detached,2022-05-11,C3,101469831,202.15 kWh/m2/yr,51.890674,-9.76628,Buy,KERRY,http://www.daft.ie/for-sale/detached-house-gearha-south-kenmare-co-kerry/3802895
3802782,18668708,"Meenyvoghane, Brosna, Co. Kerry",60000.0,N/A,,1,,Detached,2022-04-26,SI_666,,,52.316816,-9.32047,Buy,KERRY,http://www.daft.ie/for-sale/detached-house-meenyvoghane-brosna-co-kerry/3802782
3802551,18667914,"9 Pier Cove, Ballykissane, Killorglin, Co. Kerry",365000.0,185,185 m²,4,4,Detached,2022-08-08,D1,109061333,234.92 kWh/m2/yr,52.115308,-9.785996,Buy,KERRY,http://www.daft.ie/for-sale/detached-house-9-pier-cove-ballykissane-killorglin-co-kerry/3802551
3802372,18665588,"Durling Lodge, Curraheen, Glenbeigh, Co. Kerry",395000.0,264,264 m²,5,3,Detached,2022-08-08,C1,114313083,163.11 kWh/m2/yr,52.064075,-9.912163,Buy,KERRY,http://www.daft.ie/for-sale/detached-house-durling-lodge-curraheen-glenbeigh-co-kerry/3802372
3799103,18638055,"47 Rock Park Avenue, Tralee, Co. Kerry",200000.0,74,74 m²,3,1,Semi-D,2022-08-09,D2,,,52.276805,-9.710532,Buy,KERRY,http://www.daft.ie/for-sale/semi-detached-house-47-rock-park-avenue-tralee-co-kerry/3799103
3798763,18635869,"47 Derrylea, Oakpark, Tralee, Co. Kerry",290000.0,N/A,,4,1,Detached,2022-08-09,D1,,,52.281611,-9.683437,Buy,KERRY,http://www.daft.ie/for-sale/detached-house-47-derrylea-oakpark-tralee-co-kerry/3798763
3798923,18636907,"Bawnaluska, Castleisland, Co. Kerry",310000.0,172,172 m²,4,3,Detached,2022-05-10,C2,104787833,182.05 kWh/m2/yr,52.235843,-9.457086,Buy,KERRY,http://www.daft.ie/for-sale/detached-house-bawnaluska-castleisland-co-kerry/3798923
3798349,18631362,"Ballybroman House, Ballybroman, Tralee, Co. Kerry",Price on Application,197,197 m²,5,2,Detached,2022-08-09,E1,114670623,338.37 kWh/m2/yr,52.33217,-9.734484,Buy,KERRY,http://www.daft.ie/for-sale/detached-house-ballybroman-house-ballybroman-tralee-co-kerry/3798349
3797967,18628355,"null, Knocknagoshel, Co. Kerry",125000.0,73,73 m²,2,2,Detached,2022-08-09,G,,,52.331439,-9.381811,Buy,KERRY,http://www.daft.ie/for-sale/detached-house-null-knocknagoshel-co-kerry/3797967
3788144,18549744,"Woodlands, Glannagilliagh, Caragh Lake, Co. Kerry",490000.0,204,204 m²,4,3,Detached,2022-08-08,B2,105312326,112.37 kWh/m2/yr,52.074046,-9.842315,Buy,KERRY,http://www.daft.ie/for-sale/detached-house-woodlands-glannagilliagh-caragh-lake-co-kerry/3788144
3797052,18621360,"No 9 Barr na Sraide, Ballyheigue, Co. Kerry",Price on Application,N/A,,3,3,Semi-D,2022-04-21,B1,101394641,168.42 kWh/m2/yr,52.38959341,-9.83400162,Buy,KERRY,http://www.daft.ie/for-sale/semi-detached-house-no-9-barr-na-sraide-ballyheigue-co-kerry/3797052
3796611,18617667,"28 Deerpark Crescent, Killarney, Co. Kerry",240000.0,90,90 m²,3,1,Semi-D,2022-08-02,E1,,,52.064875,-9.493329,Buy,KERRY,http://www.daft.ie/for-sale/semi-detached-house-28-deerpark-crescent-killarney-co-kerry/3796611
3795655,18609322,"Beechwood, Lover's Lane, Tralee, Co. Kerry",375000.0,125,125 m²,4,3,Detached,2022-06-28,G,115156002,531.4 kWh/m2/yr,52.2599,-9.710681,Buy,KERRY,http://www.daft.ie/for-sale/detached-house-beechwood-lovers-lane-tralee-co-kerry/3795655
3795288,18605970,"10 Tubrid Park, Gortamullen, Kenmare, Co. Kerry",220000.0,113,113 m²,3,3,Terrace,2022-08-02,C3,105207344,222.8 kWh/m2/yr,51.881283,-9.600677,Buy,KERRY,http://www.daft.ie/for-sale/terraced-house-10-tubrid-park-gortamullen-kenmare-co-kerry/3795288
3794585,18600294,"19 Woodview Park, Killeen, Tralee, Co. Kerry",185000.0,82,82 m²,3,3,Semi-D,2022-08-05,C2,105119978,,52.285008,-9.692739,Buy,KERRY,http://www.daft.ie/for-sale/semi-detached-house-19-woodview-park-killeen-tralee-co-kerry/3794585
3793229,18589914,"29 Quarryvale, Mounthawk, Tralee, Co. Kerry",420000.0,N/A,,4,4,Detached,2022-05-30,C1,,,52.285352,-9.723526,Buy,KERRY,http://www.daft.ie/for-sale/detached-house-29-quarryvale-mounthawk-tralee-co-kerry/3793229
3793271,18589937,"8 Hillview Drive, Caherslee, Tralee, Co. Kerry",150000.0,121,121 m²,3,1,Detached,2022-08-09,G,,,52.277081,-9.71709,Buy,KERRY,http://www.daft.ie/for-sale/detached-house-8-hillview-drive-caherslee-tralee-co-kerry/3793271
3791345,18578189,"24 Knocklyne, Sunhill, Killorglin, Co. Kerry",295000.0,136,136 m²,4,2,Detached,2022-08-04,C1,102293677,,52.110402,-9.791949,Buy,KERRY,http://www.daft.ie/for-sale/detached-house-24-knocklyne-sunhill-killorglin-co-kerry/3791345
3290369,15250621,"The Old Schoolhouse, Collorus, Kenmare, Co. Kerry",395000.0,220,220 m²,3,2,Detached,2022-08-10,SI_666,,,51.760398,-9.84321,Buy,KERRY,http://www.daft.ie/for-sale/detached-house-the-old-schoolhouse-collorus-kenmare-co-kerry/3290369
3791194,18577290,"Nan's Cottage, Tulligmore, Killorglin, Co. Kerry",Price on Application,93,93 m²,2,1,Detached,2022-08-08,SI_666,,,52.10874811101348,-9.840893422285319,Buy,KERRY,http://www.daft.ie/for-sale/detached-house-nans-cottage-tulligmore-killorglin-co-kerry/3791194
3790550,18570947,"40 Clogher Lé­, Tralee, Co. Kerry",299950.0,N/A,,4,3,Detached,2022-07-22,D2,114820475,262.22 kWh/m2/yr,52.25865,-9.694353,Buy,KERRY,http://www.daft.ie/for-sale/detached-house-40-clogher-l-tralee-co-kerry/3790550
3785631,18528088,"8 Maple Road, Ard Na Greine, Milltown, Co. Kerry",240000.0,121,121 m²,4,3,Semi-D,2022-08-08,C1,,,52.141512,-9.722253,Buy,KERRY,http://www.daft.ie/for-sale/semi-detached-house-8-maple-road-ard-na-greine-milltown-co-kerry/3785631
3785956,18531109,"37 Cnoc An Cairn, Chapel Lane, Dingle, Co. Kerry",495000.0,N/A,,5,4,Semi-D,2022-08-02,B3,110537578,,52.144369,-10.269248,Buy,KERRY,http://www.daft.ie/for-sale/semi-detached-house-37-cnoc-an-cairn-chapel-lane-dingle-co-kerry/3785956
3783705,18511419,"An Doirin, The Wood, Dingle, Co. Kerry",750000.0,160,160 m²,4,2,Detached,2022-08-02,E1,,,52.13965,-10.278117,Buy,KERRY,http://www.daft.ie/for-sale/detached-house-an-doirin-the-wood-dingle-co-kerry/3783705
3783531,18508420,"Ashwood, Dromadeesirt, Killarney, Co. Kerry",600000.0,383,383 m²,6,8,Detached,2022-06-10,C3,114400757,205.56 kWh/m2/yr,52.113329,-9.514119,Buy,KERRY,http://www.daft.ie/for-sale/detached-house-ashwood-dromadeesirt-killarney-co-kerry/3783531
3783501,18508407,"An Doirin, The Wood, Dingle, Co. Kerry",750000.0,160,160 m²,4,2,Detached,2022-07-06,E1,,,52.13965,-10.278117,Buy,KERRY,http://www.daft.ie/for-sale/detached-house-an-doirin-the-wood-dingle-co-kerry/3783501
3782381,18494789,"Doonties, Dingle, Co. Kerry",330000.0,N/A,,3,1,Detached,2022-08-02,E2,,,52.125258,-10.152851,Buy,KERRY,http://www.daft.ie/for-sale/detached-house-doonties-dingle-co-kerry/3782381
3781482,18488674,"Old Post Office Street, Cahersiveen, Co. Kerry",159000.0,N/A,,2,1,Terrace,2022-08-04,C3,111342945,219.93 kWh/m2/yr,51.944951,-10.226825,Buy,KERRY,http://www.daft.ie/for-sale/terraced-house-old-post-office-street-cahersiveen-co-kerry/3781482
3779685,18472473,"6 CAHER PLACE, Castlegregory, Co. Kerry",275000.0,N/A,,4,3,Semi-D,2022-08-10,C1,,,52.25774873,-10.01880555,Buy,KERRY,http://www.daft.ie/for-sale/semi-detached-house-6-caher-place-castlegregory-co-kerry/3779685
3779443,18469678,"Dromkeare, Waterville, Co. Kerry",Price on Application,179,179 m²,4,3,Detached,2022-08-05,B3,115021214,140.85 kWh/m2/yr,51.849179,-10.119432,Buy,KERRY,http://www.daft.ie/for-sale/detached-house-dromkeare-waterville-co-kerry/3779443
3779403,18469660,"9 Ross Avenue, Ross Road, Killarney, Co. Kerry",Price on Application,279,279 m²,4,4,Detached,2022-08-03,A1,,,52.049307,-9.518963,Buy,KERRY,http://www.daft.ie/for-sale/detached-house-9-ross-avenue-ross-road-killarney-co-kerry/3779403
3777132,18446808,"2 Steeple Meadow Way, Milltown, Co. Kerry",250000.0,N/A,,4,3,Semi-D,2022-08-09,B3,,,52.142199,-9.713485,Buy,KERRY,http://www.daft.ie/for-sale/semi-detached-house-2-steeple-meadow-way-milltown-co-kerry/3777132
3778509,18460202,"4 Manor Drive, Manor Village, Tralee, Co. Kerry",200000.0,N/A,,3,1,Semi-D,2022-08-03,C3,105242515,203.24 kWh/m2/yr,52.258589,-9.683214,Buy,KERRY,http://www.daft.ie/for-sale/semi-detached-house-4-manor-drive-manor-village-tralee-co-kerry/3778509
3778471,18460179,"44 Knocklyne Valley, Killorglin, Co. Kerry",245000.0,125,125 m²,3,2,Detached,2022-08-04,D1,,,52.11275,-9.801529,Buy,KERRY,http://www.daft.ie/for-sale/detached-house-44-knocklyne-valley-killorglin-co-kerry/3778471
3778016,18455878,"Greenville, Listowel, Co. Kerry","AMV: €135,000",135,135 m²,4,2,Detached,2022-06-23,E2,114879190,364.82 kWh/m2/yr,52.445491,-9.510793,Buy,KERRY,http://www.daft.ie/for-sale/detached-house-greenville-listowel-co-kerry/3778016
3774192,18420890,"Teach Stirling, Cloonanorig, Tralee, Co. Kerry",190000.0,N/A,,4,2,Semi-D,2022-04-01,D1,103836862,235.16 kWh/m2/yr,52.279705,-9.703532,Buy,KERRY,http://www.daft.ie/for-sale/semi-detached-house-teach-stirling-cloonanorig-tralee-co-kerry/3774192
3515173,16080807,"10 Tralee Bay Holiday Village, Aughacasla South, Castlegregory, Co. Kerry",210000.0,N/A,,3,3,Semi-D,2022-04-01,D1,110015112,242.46 kWh/m2/yr,52.23516,-9.976001,Buy,KERRY,http://www.daft.ie/for-sale/semi-detached-house-10-tralee-bay-holiday-village-aughacasla-south-castlegregory-co-kerry/3515173
3774274,18422434,"Coolclogher Lodge, Mill Road, Killarney, Co. Kerry",330000.0,85,85 m²,3,2,Detached,2022-06-10,G,114700339,750.06 kWh/m2/yr,52.048243,-9.492723,Buy,KERRY,http://www.daft.ie/for-sale/detached-house-coolclogher-lodge-mill-road-killarney-co-kerry/3774274
3773317,18411059,"9 Castlecourt, Barrack Street, Castleisland, Co. Kerry",170000.0,N/A,,4,3,Terrace,2022-03-31,C2,112816590,199.07 kWh/m2/yr,52.229469,-9.465416,Buy,KERRY,http://www.daft.ie/for-sale/terraced-house-9-castlecourt-barrack-street-castleisland-co-kerry/3773317
3772573,18402553,"Ballykissane, Killorglin, Co. Kerry",260000.0,N/A,,3,2,Detached,2022-08-04,C3,,,52.123068,-9.786502,Buy,KERRY,http://www.daft.ie/for-sale/detached-house-ballykissane-killorglin-co-kerry/3772573
