id,daftShortcode,title,price,size_meters_squared,propertySize,bedrooms,bathrooms,propertyType,publishDate,ber_rating,ber_code,ber_epi,latitude,longitude,category,location,url_link
3961611,19487093,"Fontenoy, Canal Walk, Castle Road, Kilkenny, Co. Kilkenny",925000.0,269,269 m²,5,4,Detached,2022-08-10,D1,108614637,244.1 kWh/m2/yr,52.647196,-7.23819,Buy,KILKENNY_AND_SURROUNDS_KILKENNY,http://www.daft.ie/for-sale/detached-house-fontenoy-canal-walk-castle-road-kilkenny-co-kilkenny/3961611
3959242,19464277,"9 Springmount, Waterford Road, Kilkenny, Co. Kilkenny",479950.0,170,170 m²,5,3,Detached,2022-08-10,D2,,,52.633921,-7.250365,Buy,KILKENNY_AND_SURROUNDS_KILKENNY,http://www.daft.ie/for-sale/detached-house-9-springmount-waterford-road-kilkenny-co-kilkenny/3959242
3956282,19436778,"14 New Road, Kilkenny, Co. Kilkenny",375000.0,N/A,,2,1,Detached,2022-08-03,B3,115026106,,52.659359,-7.250273,Buy,KILKENNY_AND_SURROUNDS_KILKENNY,http://www.daft.ie/for-sale/detached-house-14-new-road-kilkenny-co-kilkenny/3956282
3946750,19391722,"41 Glendine Heights, Kilkenny, Co. Kilkenny",495000.0,122,122 m²,4,2,Detached,2022-08-05,D1,107298432,253.78 kWh/m2/yr,52.671803,-7.252521,Buy,KILKENNY_AND_SURROUNDS_KILKENNY,http://www.daft.ie/for-sale/detached-house-41-glendine-heights-kilkenny-co-kilkenny/3946750
3945866,19380203,"53 Rosewood, Johnswell Road, Kilkenny, Co. Kilkenny",185000.0,63,63 m²,2,1,Terrace,2022-08-10,C3,103839973,215.13 kWh/m2/yr,52.664301,-7.234545,Buy,KILKENNY_AND_SURROUNDS_KILKENNY,http://www.daft.ie/for-sale/terraced-house-53-rosewood-johnswell-road-kilkenny-co-kilkenny/3945866
3800796,18650451,"15 William Street, Kilkenny, Co. Kilkenny",265000.0,125,125 m²,4,2,Terrace,2022-08-08,E1,110297462,,52.651343,-7.254629,Buy,KILKENNY_AND_SURROUNDS_KILKENNY,http://www.daft.ie/for-sale/terraced-house-15-william-street-kilkenny-co-kilkenny/3800796
3940559,19328295,"12 Breagagh Court, Kennyswell Road, Kilkenny, Co. Kilkenny",300000.0,124,124 m²,4,4,Terrace,2022-08-10,C1,114865819,159.02 kWh/m2/yr,52.653051,-7.263563,Buy,KILKENNY_AND_SURROUNDS_KILKENNY,http://www.daft.ie/for-sale/terraced-house-12-breagagh-court-kennyswell-road-kilkenny-co-kilkenny/3940559
3938124,19306969,"38 Rosewood, Johnswell Road, Kilkenny, Co. Kilkenny",185000.0,60,60 m²,2,1,Terrace,2022-08-10,C3,112442900,,52.663882,-7.235614,Buy,KILKENNY_AND_SURROUNDS_KILKENNY,http://www.daft.ie/for-sale/terraced-house-38-rosewood-johnswell-road-kilkenny-co-kilkenny/3938124
3935464,19280059,"8 Broguemaker's Hill, Kilkenny, Co. Kilkenny",595000.0,147,147 m²,4,2,Detached,2022-08-09,B3,107684276,,52.659766,-7.251956,Buy,KILKENNY_AND_SURROUNDS_KILKENNY,http://www.daft.ie/for-sale/detached-house-8-broguemakers-hill-kilkenny-co-kilkenny/3935464
3916809,19105680,"43 Friary Street, Kilkenny, Co. Kilkenny",Price on Application,149,149 m²,5,4,Terrace,2022-08-08,G,115207128,,52.650355,-7.254713,Buy,KILKENNY_AND_SURROUNDS_KILKENNY,http://www.daft.ie/for-sale/terraced-house-43-friary-street-kilkenny-co-kilkenny/3916809
3921282,19148282,"Templemartin, Clara, Co. Kilkenny",295000.0,89,89 m²,3,1,Detached,2022-08-09,D2,115028763,290.47 kWh/m2/yr,52.6553596,-7.1825105,Buy,KILKENNY_AND_SURROUNDS_KILKENNY,http://www.daft.ie/for-sale/detached-house-templemartin-clara-co-kilkenny/3921282
3917599,19112590,"3 Pudding Lane, Kilkenny, Co. Kilkenny",375000.0,106,106 m²,4,2,Detached,2022-08-10,C3,114522022,223.62 kWh/m2/yr,52.650822,-7.252956,Buy,KILKENNY_AND_SURROUNDS_KILKENNY,http://www.daft.ie/for-sale/detached-house-3-pudding-lane-kilkenny-co-kilkenny/3917599
3911546,19063693,"85 Maudlin Street, Kilkenny, Co. Kilkenny",530000.0,205,205 m²,5,7,Terrace,2022-08-10,C1,114840440,159.54 kWh/m2/yr,52.652906,-7.246375,Buy,KILKENNY_AND_SURROUNDS_KILKENNY,http://www.daft.ie/for-sale/terraced-house-85-maudlin-street-kilkenny-co-kilkenny/3911546
3908027,19027849,"32 Patrick STREET, Kilkenny, Co. Kilkenny",695000.0,328,328 m²,5,2,End of Terrace,2022-08-10,,,,52.650138,-7.25201,Buy,KILKENNY_AND_SURROUNDS_KILKENNY,http://www.daft.ie/for-sale/end-of-terrace-house-32-patrick-street-kilkenny-co-kilkenny/3908027
3486156,15869970,"Teach Mountgale, Mountgale, Rathmoyle, Co. Kilkenny",488000.0,364,364 m²,5,3,Detached,2022-07-12,E2,,,52.672073,-7.368065,Buy,KILKENNY_AND_SURROUNDS_KILKENNY,http://www.daft.ie/for-sale/detached-house-teach-mountgale-mountgale-rathmoyle-co-kilkenny/3486156
3897733,18925580,"Jenkinstown House, Jenkinstown Park, Kilkenny, Co. Kilkenny",1050000.0,619,619 m²,3,2,Detached,2022-06-27,SI_666,,,52.73415917166008,-7.287574684006643,Buy,KILKENNY_AND_SURROUNDS_KILKENNY,http://www.daft.ie/for-sale/detached-house-jenkinstown-house-jenkinstown-park-kilkenny-co-kilkenny/3897733
3813832,18762040,"26 Michael Street, Kilkenny, Co. Kilkenny",275000.0,102,102 m²,3,1,Terrace,2022-08-08,D1,,,52.654987,-7.250512,Buy,KILKENNY_AND_SURROUNDS_KILKENNY,http://www.daft.ie/for-sale/terraced-house-26-michael-street-kilkenny-co-kilkenny/3813832
3819755,18813312,"31 Aylesbury, Freshford Road, Kilkenny, Co. Kilkenny",310000.0,116,116 m²,4,2,Detached,2022-08-09,C3,114861511,,52.664507,-7.258258,Buy,KILKENNY_AND_SURROUNDS_KILKENNY,http://www.daft.ie/for-sale/detached-house-31-aylesbury-freshford-road-kilkenny-co-kilkenny/3819755
3816851,18789054,"29 Hollybank Way, Clongowen, Kilkenny, Co. Kilkenny",290000.0,136,136 m²,5,3,Semi-D,2022-08-09,C3,114884281,203.69 kWh/m2/yr,52.639775,-7.2527,Buy,KILKENNY_AND_SURROUNDS_KILKENNY,http://www.daft.ie/for-sale/semi-detached-house-29-hollybank-way-clongowen-kilkenny-co-kilkenny/3816851
3804048,18681864,"49 College Square, College Road, Kilkenny, Co. Kilkenny",425000.0,124,124 m²,4,3,Semi-D,2022-08-03,C1,102268299,,52.643456,-7.258322,Buy,KILKENNY_AND_SURROUNDS_KILKENNY,http://www.daft.ie/for-sale/semi-detached-house-49-college-square-college-road-kilkenny-co-kilkenny/3804048
3765595,18354475,"9 Troy's Green, Green Street, Kilkenny, Co. Kilkenny",295000.0,134,134 m²,4,3,Detached,2022-06-29,C3,114753452,,52.658615,-7.255763,Buy,KILKENNY_AND_SURROUNDS_KILKENNY,http://www.daft.ie/for-sale/detached-house-9-troys-green-green-street-kilkenny-co-kilkenny/3765595
3765527,18354441,"73/74 John Street Lower, Kilkenny, Co. Kilkenny",700000.0,232,232 m²,6,4,End of Terrace,2022-08-08,C2,800303349,,52.652738,-7.248715,Buy,KILKENNY_AND_SURROUNDS_KILKENNY,http://www.daft.ie/for-sale/end-of-terrace-house-73-74-john-street-lower-kilkenny-co-kilkenny/3765527
3756718,18287002,"30 Seville Lawns, Margarets Fields, Kilkenny, Co. Kilkenny",400000.0,156,156 m²,4,3,Detached,2022-08-03,C2,,,52.638648,-7.269953,Buy,KILKENNY_AND_SURROUNDS_KILKENNY,http://www.daft.ie/for-sale/detached-house-30-seville-lawns-margarets-fields-kilkenny-co-kilkenny/3756718
3748401,18223576,"Hebron House, Hebron Road, Kilkenny, Co. Kilkenny",Price on Application,209,209 m²,4,1,Detached,2022-08-10,SI_666,,,52.657961575451395,-7.222078506009211,Buy,KILKENNY_AND_SURROUNDS_KILKENNY,http://www.daft.ie/for-sale/detached-house-hebron-house-hebron-road-kilkenny-co-kilkenny/3748401
3542400,16201171,"6 Rose Gardens, Rose Hill, Kells Road, Kilkenny, Co. Kilkenny",750000.0,301,301 m²,6,6,Detached,2022-08-10,B2,109747808,119.73 kWh/m2/yr,52.639618,-7.257386,Buy,KILKENNY_AND_SURROUNDS_KILKENNY,http://www.daft.ie/for-sale/detached-house-6-rose-gardens-rose-hill-kells-road-kilkenny-co-kilkenny/3542400
3677330,17603609,"The Old School House, Kilkenny, Co. Kilkenny",775000.0,376,376 m²,4,3,Detached,2022-08-10,C2,113280226,184.64 kWh/m2/yr,52.73119,-7.27663,Buy,KILKENNY_AND_SURROUNDS_KILKENNY,http://www.daft.ie/for-sale/detached-house-the-old-school-house-kilkenny-co-kilkenny/3677330
3508929,16052878,"No 2  River Gardens  , Greenshill, Kilkenny, Co. Kilkenny",875000.0,291,291 m²,5,4,Detached,2022-03-01,A2,,,52.66441327979746,-7.253724893258379,Buy,KILKENNY_AND_SURROUNDS_KILKENNY,http://www.daft.ie/for-sale/detached-house-no-2-river-gardens-greenshill-kilkenny-co-kilkenny/3508929
2948007,14014761,"9 Patrick Street, Kilkenny, Co. Kilkenny",585000.0,265,265 m²,4,2,Townhouse,2022-08-09,G,112833942,859.72 kWh/m2/yr,52.649717,-7.251467,Buy,KILKENNY_AND_SURROUNDS_KILKENNY,http://www.daft.ie/for-sale/townhouse-9-patrick-street-kilkenny-co-kilkenny/2948007
