id,daftShortcode,title,price,size_meters_squared,propertySize,bedrooms,bathrooms,propertyType,publishDate,ber_rating,ber_code,ber_epi,latitude,longitude,category,location,url_link
3978695,19615112,"Waddingstown, Mooncoin, Co. Kilkenny",425000.0,N/A,,3,2,Detached,2022-08-10,C2,,179.92 kWh/m2/yr,52.298257,-7.221546,Buy,KILKENNY,http://www.daft.ie/for-sale/detached-house-waddingstown-mooncoin-co-kilkenny/3978695
3978265,19609800,"Butlers Hill On Circa 9.64 Acres, Ballysallagh, Kilkenny, Co. Kilkenny",595000.0,261,261 m²,4,3,Detached,2022-08-10,C2,114427586,190.95 kWh/m2/yr,52.694779,-7.167386,Buy,KILKENNY,http://www.daft.ie/for-sale/detached-house-butlers-hill-on-circa-9-64-acres-ballysallagh-kilkenny-co-kilkenny/3978265
2579375,12718468,"Rerrin House, Dunamaggin, Kilkenny, Co. Kilkenny",295000.0,207,207 m²,4,2,Detached,2022-08-10,C3,113225783,220.49 kWh/m2/yr,52.50199,-7.296819,Buy,KILKENNY,http://www.daft.ie/for-sale/detached-house-rerrin-house-dunamaggin-kilkenny-co-kilkenny/2579375
3960733,19478356,"1 Father Walsh Close, Kilkenny, Co. Kilkenny",385000.0,120,120 m²,3,2,Detached,2022-08-08,B3,800857195,,52.64558,-7.253071,Buy,KILKENNY,http://www.daft.ie/for-sale/detached-house-1-father-walsh-close-kilkenny-co-kilkenny/3960733
3972153,19574355,"Cushlawn House, Castlecolumb, Knocktopher, Co. Kilkenny",450000.0,291,291 m²,6,8,Detached,2022-08-10,C3,103814752,223.67 kWh/m2/yr,52.487444,-7.198767,Buy,KILKENNY,http://www.daft.ie/for-sale/detached-house-cushlawn-house-castlecolumb-knocktopher-co-kilkenny/3972153
3972043,19573869,"Gragara, Jenkinstown, Co. Kilkenny",295000.0,110,110 m²,3,1,Detached,2022-08-10,C2,105565535,,52.73911,-7.269234,Buy,KILKENNY,http://www.daft.ie/for-sale/detached-house-gragara-jenkinstown-co-kilkenny/3972043
3971339,19568897,"5 Burgess Court, Kells, Co. Kilkenny",510000.0,242,242 m²,4,3,Detached,2022-08-10,C1,115218661,171.09 kWh/m2/yr,52.536783,-7.271673,Buy,KILKENNY,http://www.daft.ie/for-sale/detached-house-5-burgess-court-kells-co-kilkenny/3971339
3970024,19557175,"Chantry House, Paulstown, Co. Kilkenny",850000.0,444,444 m²,5,7,Detached,2022-08-03,D2,107560815,,52.680624,-7.022238,Buy,KILKENNY,http://www.daft.ie/for-sale/detached-house-chantry-house-paulstown-co-kilkenny/3970024
3965571,19518720,"Graigueswood, Freshford, Co. Kilkenny",160000.0,117,117 m²,3,1,Detached,2022-08-03,G,115376923,,52.748812,-7.400105,Buy,KILKENNY,http://www.daft.ie/for-sale/detached-house-graigueswood-freshford-co-kilkenny/3965571
3969286,19553110,"Plum Cottage, Foulkscourt, Johnstown, Co. Kilkenny",250000.0,135,135 m²,4,2,Detached,2022-08-08,C3,,,52.751044,-7.572386,Buy,KILKENNY,http://www.daft.ie/for-sale/detached-house-plum-cottage-foulkscourt-johnstown-co-kilkenny/3969286
3967229,19532924,"Karsan, Luffany, Slieverue, Co. Waterford",350000.0,243,243 m²,12,3,Detached,2022-08-10,E1,114817059,320.84 kWh/m2/yr,52.294637,-7.056581,Buy,KILKENNY,http://www.daft.ie/for-sale/detached-house-karsan-luffany-slieverue-co-waterford/3967229
3967177,19532901,"Rathlikeen, Mullinavat, Co. Kilkenny",110000.0,2509,2509 m²,1,1,Detached,2022-07-22,SI_666,,,52.34057281,-7.13322463,Buy,KILKENNY,http://www.daft.ie/for-sale/detached-house-rathlikeen-mullinavat-co-kilkenny/3967177
3966168,19523511,"Karsan, Luffany, Slieverue, Co. Kilkenny",350000.0,243,243 m²,12,3,Detached,2022-08-10,E1,114817059,320.84 kWh/m2/yr,52.294637,-7.056581,Buy,KILKENNY,http://www.daft.ie/for-sale/detached-house-karsan-luffany-slieverue-co-kilkenny/3966168
3964971,19514905,"Churchview Lodge, Owning, Kilkenny, Co. Kilkenny",550000.0,159,159 m²,4,2,Detached,2022-08-10,D2,106646417,286.51 kWh/m2/yr,52.38817,-7.34423,Buy,KILKENNY,http://www.daft.ie/for-sale/detached-house-churchview-lodge-owning-kilkenny-co-kilkenny/3964971
3964204,19508496,"Smithstown, Smithstown, Co. Kilkenny",AMV: Price on Application,115,115 m²,3,1,Detached,2022-08-09,G,,,52.540442,-7.135965,Buy,KILKENNY,http://www.daft.ie/for-sale/detached-house-smithstown-smithstown-co-kilkenny/3964204
3960561,19478246,"Ballyreddin, Bennettsbridge, Co. Kilkenny",395000.0,178,178 m²,5,3,Detached,2022-08-03,C3,113826127,,52.59337,-7.180145,Buy,KILKENNY,http://www.daft.ie/for-sale/detached-house-ballyreddin-bennettsbridge-co-kilkenny/3960561
3963681,19505632,"Rathaleek, Kilkenny, Co. Kilkenny",420000.0,172,172 m²,4,2,Detached,2022-08-08,D2,114765589,,52.612594,-7.288624,Buy,KILKENNY,http://www.daft.ie/for-sale/detached-house-rathaleek-kilkenny-co-kilkenny/3963681
3961748,19490336,"Burnchurch Farm, Burnchurch, Burnchurch, Co. Kilkenny",AMV: Price on Application,100,100 m²,3,1,Detached,2022-08-10,F,115386625,,52.583447,-7.304277,Buy,KILKENNY,http://www.daft.ie/for-sale/detached-house-burnchurch-farm-burnchurch-burnchurch-co-kilkenny/3961748
3961611,19487093,"Fontenoy, Canal Walk, Castle Road, Kilkenny, Co. Kilkenny",925000.0,269,269 m²,5,4,Detached,2022-08-10,D1,108614637,244.1 kWh/m2/yr,52.647196,-7.23819,Buy,KILKENNY,http://www.daft.ie/for-sale/detached-house-fontenoy-canal-walk-castle-road-kilkenny-co-kilkenny/3961611
3960087,19472746,"Ballykenna, Tullogher, Co. Kilkenny",105000.0,102,102 m²,2,1,Detached,2022-08-10,G,115198806,1205.78 kWh/m2/yr,52.430934,-7.081589,Buy,KILKENNY,http://www.daft.ie/for-sale/detached-house-ballykenna-tullogher-co-kilkenny/3960087
3959647,19468139,"28 Aylesbury Avenue, Aylesbury, Ferrybank",350000.0,135,135 m²,4,3,Detached,2022-07-20,C1,,,52.27183,-7.094531,Buy,KILKENNY,http://www.daft.ie/for-sale/detached-house-28-aylesbury-avenue-aylesbury-ferrybank/3959647
3959242,19464277,"9 Springmount, Waterford Road, Kilkenny, Co. Kilkenny",479950.0,170,170 m²,5,3,Detached,2022-08-10,D2,,,52.633921,-7.250365,Buy,KILKENNY,http://www.daft.ie/for-sale/detached-house-9-springmount-waterford-road-kilkenny-co-kilkenny/3959242
3947885,19402964,"Cappagh, Inistioge, Co. Kilkenny",250000.0,93,93 m²,2,1,Detached,2022-08-08,F,103578076,,52.503654,-7.075596,Buy,KILKENNY,http://www.daft.ie/for-sale/detached-house-cappagh-inistioge-co-kilkenny/3947885
3957542,19447817,"Railway House, Ballykeoghan, Kilmacow, Co. Kilkenny",295000.0,133,133 m²,3,2,Detached,2022-08-10,D2,115022360,285.41 kWh/m2/yr,52.324792,-7.153649,Buy,KILKENNY,http://www.daft.ie/for-sale/detached-house-railway-house-ballykeoghan-kilmacow-co-kilkenny/3957542
3957355,19445885,"Cappagh Stone House, Inistioge, Co. Kilkenny",975000.0,N/A,2 ac,4,3,Detached,2022-08-09,B2,108585522,,52.503815,-7.074732,Buy,KILKENNY,http://www.daft.ie/for-sale/detached-house-cappagh-stone-house-inistioge-co-kilkenny/3957355
3956282,19436778,"14 New Road, Kilkenny, Co. Kilkenny",375000.0,N/A,,2,1,Detached,2022-08-03,B3,115026106,,52.659359,-7.250273,Buy,KILKENNY,http://www.daft.ie/for-sale/detached-house-14-new-road-kilkenny-co-kilkenny/3956282
3946750,19391722,"41 Glendine Heights, Kilkenny, Co. Kilkenny",495000.0,122,122 m²,4,2,Detached,2022-08-05,D1,107298432,253.78 kWh/m2/yr,52.671803,-7.252521,Buy,KILKENNY,http://www.daft.ie/for-sale/detached-house-41-glendine-heights-kilkenny-co-kilkenny/3946750
3944263,19366686,"Jerpoint Walled Garden, Jerpoint Church, Thomastown, Co. Kilkenny",725000.0,248,248 m²,5,3,Detached,2022-08-09,B2,115053407,,52.515148,-7.175961,Buy,KILKENNY,http://www.daft.ie/for-sale/detached-house-jerpoint-walled-garden-jerpoint-church-thomastown-co-kilkenny/3944263
3944146,19365045,"Danganbeg, Knocktopher, Co. Kilkenny",228000.0,118,118 m²,3,1,Detached,2022-07-25,D1,,,52.497543,-7.255995,Buy,KILKENNY,http://www.daft.ie/for-sale/detached-house-danganbeg-knocktopher-co-kilkenny/3944146
3943247,19355108,"Meallaghmore Upper, Windgap, Co. Kilkenny",250000.0,N/A,,4,2,Detached,2022-08-05,E2,115015190,,52.452439,-7.39703,Buy,KILKENNY,http://www.daft.ie/for-sale/detached-house-meallaghmore-upper-windgap-co-kilkenny/3943247
3939698,19321496,"Bramble Lodge, Bramblestown, Gowran, Co. Kilkenny",395000.0,176,176 m²,4,3,Detached,2022-08-10,C2,115048993,197.55 kWh/m2/yr,52.583105,-7.0472,Buy,KILKENNY,http://www.daft.ie/for-sale/detached-house-bramble-lodge-bramblestown-gowran-co-kilkenny/3939698
3938245,19308261,"Kylemore, New Ross, Co. Kilkenny",325000.0,145,145 m²,4,2,Detached,2022-06-17,D2,115043945,,52.422582,-6.935646,Buy,KILKENNY,http://www.daft.ie/for-sale/detached-house-kylemore-new-ross-co-kilkenny/3938245
3937758,19303590,"'Beaulieu', Garnarea, Piltown, Co. Kilkenny",500000.0,N/A,,5,4,Detached,2022-08-08,C3,,,52.35798,-7.362312,Buy,KILKENNY,http://www.daft.ie/for-sale/detached-house-beaulieu-garnarea-piltown-co-kilkenny/3937758
3936229,19285852,"Grannagh Castle, Waterford",Price on Application,N/A,,3,1,Detached,2022-08-08,G,,,52.281725,-7.162327,Buy,KILKENNY,http://www.daft.ie/for-sale/detached-house-grannagh-castle-waterford/3936229
3935464,19280059,"8 Broguemaker's Hill, Kilkenny, Co. Kilkenny",595000.0,147,147 m²,4,2,Detached,2022-08-09,B3,107684276,,52.659766,-7.251956,Buy,KILKENNY,http://www.daft.ie/for-sale/detached-house-8-broguemakers-hill-kilkenny-co-kilkenny/3935464
3820962,18825429,"Coolnabrone, Kilkenny, Co. Kilkenny",385000.0,191,191 m²,5,3,Detached,2022-08-08,B3,112437355,,52.594134,-6.958136,Buy,KILKENNY,http://www.daft.ie/for-sale/detached-house-coolnabrone-kilkenny-co-kilkenny/3820962
3931498,19239655,"Ballinlough, Carrigeen, Co. Kilkenny",450000.0,190,190 m²,4,3,Detached,2022-08-10,C1,114886096,165.52 kWh/m2/yr,52.286649,-7.227921,Buy,KILKENNY,http://www.daft.ie/for-sale/detached-house-ballinlough-carrigeen-co-kilkenny/3931498
3932259,19247044,"Condonstown, Boolyglass, Hugginstown, Co. Kilkenny",250000.0,N/A,,3,1,Detached,2022-06-21,G,,,52.45331098815936,-7.251934282271577,Buy,KILKENNY,http://www.daft.ie/for-sale/detached-house-condonstown-boolyglass-hugginstown-co-kilkenny/3932259
3923405,19160258,"9 Rockfield, Gowran, Co. Kilkenny",295000.0,111,111 m²,4,1,Detached,2022-08-08,D1,108462854,,52.63176,-7.065703,Buy,KILKENNY,http://www.daft.ie/for-sale/detached-house-9-rockfield-gowran-co-kilkenny/3923405
3895656,18907475,"79 Glen Vale, Ballyragget, Co. Kilkenny",380000.0,177,177 m²,4,3,Detached,2022-08-08,B3,115028490,,52.78811,-7.33066,Buy,KILKENNY,http://www.daft.ie/for-sale/detached-house-79-glen-vale-ballyragget-co-kilkenny/3895656
3441920,15536076,"Hazyview Lodge,Cullaun, Inistioge, Co. Kilkenny",215000.0,345,345 m²,5,3,Detached,2022-07-04,SI_666,,,52.45640784181052,-7.023368195670173,Buy,KILKENNY,http://www.daft.ie/for-sale/detached-house-hazyview-lodge-cullaun-inistioge-co-kilkenny/3441920
3921601,19150835,"The Blue House, Dungarvan, Co. Kilkenny",390000.0,165,165 m²,3,3,Detached,2022-08-10,C2,115028953,199.16 kWh/m2/yr,52.583685,-7.103884,Buy,KILKENNY,http://www.daft.ie/for-sale/detached-house-the-blue-house-dungarvan-co-kilkenny/3921601
3921586,19150829,"Rathinure, Glenmore, Co. Kilkenny",395000.0,277,277 m²,4,4,Detached,2022-07-22,B2,,,52.331413,-7.025575,Buy,KILKENNY,http://www.daft.ie/for-sale/detached-house-rathinure-glenmore-co-kilkenny/3921586
3921282,19148282,"Templemartin, Clara, Co. Kilkenny",295000.0,89,89 m²,3,1,Detached,2022-08-09,D2,115028763,290.47 kWh/m2/yr,52.6553596,-7.1825105,Buy,KILKENNY,http://www.daft.ie/for-sale/detached-house-templemartin-clara-co-kilkenny/3921282
3921148,19147478,"Tibrennoch, Coolnaleen, Slieverue, Co. Kilkenny",290000.0,136,136 m²,4,2,Detached,2022-08-08,D1,115024929,251.91 kWh/m2/yr,52.329026,-7.08894,Buy,KILKENNY,http://www.daft.ie/for-sale/detached-house-tibrennoch-coolnaleen-slieverue-co-kilkenny/3921148
3919569,19133547,"Garranaman, Kells, Co. Kilkenny",125000.0,50,50 m²,3,,Detached,2022-08-10,G,,,52.560484,-7.27476,Buy,KILKENNY,http://www.daft.ie/for-sale/detached-house-garranaman-kells-co-kilkenny/3919569
3917599,19112590,"3 Pudding Lane, Kilkenny, Co. Kilkenny",375000.0,106,106 m²,4,2,Detached,2022-08-10,C3,114522022,223.62 kWh/m2/yr,52.650822,-7.252956,Buy,KILKENNY,http://www.daft.ie/for-sale/detached-house-3-pudding-lane-kilkenny-co-kilkenny/3917599
3913547,19079391,"Monteen, Crettyard, Kilkenny, Co. Kilkenny",375000.0,100,100 m²,3,1,Detached,2022-07-04,G,,,52.82331,-7.124231,Buy,KILKENNY,http://www.daft.ie/for-sale/detached-house-monteen-crettyard-kilkenny-co-kilkenny/3913547
3800565,18647976,"Lime Tree House, Grange Upper, Gowran, Co. Kilkenny",695000.0,251,251 m²,4,4,Detached,2022-08-10,B3,114823996,148.27 kWh/m2/yr,52.613962,-7.035167,Buy,KILKENNY,http://www.daft.ie/for-sale/detached-house-lime-tree-house-grange-upper-gowran-co-kilkenny/3800565
3907222,19023012,"Dublin Road, Dungarvan, Co. Kilkenny",350000.0,158,158 m²,4,1,Detached,2022-05-25,SI_666,,,52.58661202855561,-7.09534498626428,Buy,KILKENNY,http://www.daft.ie/for-sale/detached-house-dublin-road-dungarvan-co-kilkenny/3907222
3978695,19615112,"Waddingstown, Mooncoin, Co. Kilkenny",425000.0,N/A,,3,2,Detached,2022-08-10,C2,,179.92 kWh/m2/yr,52.298257,-7.221546,Buy,KILKENNY,http://www.daft.ie/for-sale/detached-house-waddingstown-mooncoin-co-kilkenny/3978695
3978265,19609800,"Butlers Hill On Circa 9.64 Acres, Ballysallagh, Kilkenny, Co. Kilkenny",595000.0,261,261 m²,4,3,Detached,2022-08-10,C2,114427586,190.95 kWh/m2/yr,52.694779,-7.167386,Buy,KILKENNY,http://www.daft.ie/for-sale/detached-house-butlers-hill-on-circa-9-64-acres-ballysallagh-kilkenny-co-kilkenny/3978265
2579375,12718468,"Rerrin House, Dunamaggin, Kilkenny, Co. Kilkenny",295000.0,207,207 m²,4,2,Detached,2022-08-10,C3,113225783,220.49 kWh/m2/yr,52.50199,-7.296819,Buy,KILKENNY,http://www.daft.ie/for-sale/detached-house-rerrin-house-dunamaggin-kilkenny-co-kilkenny/2579375
3960733,19478356,"1 Father Walsh Close, Kilkenny, Co. Kilkenny",385000.0,120,120 m²,3,2,Detached,2022-08-08,B3,800857195,,52.64558,-7.253071,Buy,KILKENNY,http://www.daft.ie/for-sale/detached-house-1-father-walsh-close-kilkenny-co-kilkenny/3960733
3972153,19574355,"Cushlawn House, Castlecolumb, Knocktopher, Co. Kilkenny",450000.0,291,291 m²,6,8,Detached,2022-08-10,C3,103814752,223.67 kWh/m2/yr,52.487444,-7.198767,Buy,KILKENNY,http://www.daft.ie/for-sale/detached-house-cushlawn-house-castlecolumb-knocktopher-co-kilkenny/3972153
3972043,19573869,"Gragara, Jenkinstown, Co. Kilkenny",295000.0,110,110 m²,3,1,Detached,2022-08-10,C2,105565535,,52.73911,-7.269234,Buy,KILKENNY,http://www.daft.ie/for-sale/detached-house-gragara-jenkinstown-co-kilkenny/3972043
3971339,19568897,"5 Burgess Court, Kells, Co. Kilkenny",510000.0,242,242 m²,4,3,Detached,2022-08-10,C1,115218661,171.09 kWh/m2/yr,52.536783,-7.271673,Buy,KILKENNY,http://www.daft.ie/for-sale/detached-house-5-burgess-court-kells-co-kilkenny/3971339
3970024,19557175,"Chantry House, Paulstown, Co. Kilkenny",850000.0,444,444 m²,5,7,Detached,2022-08-03,D2,107560815,,52.680624,-7.022238,Buy,KILKENNY,http://www.daft.ie/for-sale/detached-house-chantry-house-paulstown-co-kilkenny/3970024
3965571,19518720,"Graigueswood, Freshford, Co. Kilkenny",160000.0,117,117 m²,3,1,Detached,2022-08-03,G,115376923,,52.748812,-7.400105,Buy,KILKENNY,http://www.daft.ie/for-sale/detached-house-graigueswood-freshford-co-kilkenny/3965571
3969286,19553110,"Plum Cottage, Foulkscourt, Johnstown, Co. Kilkenny",250000.0,135,135 m²,4,2,Detached,2022-08-08,C3,,,52.751044,-7.572386,Buy,KILKENNY,http://www.daft.ie/for-sale/detached-house-plum-cottage-foulkscourt-johnstown-co-kilkenny/3969286
3967229,19532924,"Karsan, Luffany, Slieverue, Co. Waterford",350000.0,243,243 m²,12,3,Detached,2022-08-10,E1,114817059,320.84 kWh/m2/yr,52.294637,-7.056581,Buy,KILKENNY,http://www.daft.ie/for-sale/detached-house-karsan-luffany-slieverue-co-waterford/3967229
3967177,19532901,"Rathlikeen, Mullinavat, Co. Kilkenny",110000.0,2509,2509 m²,1,1,Detached,2022-07-22,SI_666,,,52.34057281,-7.13322463,Buy,KILKENNY,http://www.daft.ie/for-sale/detached-house-rathlikeen-mullinavat-co-kilkenny/3967177
3966168,19523511,"Karsan, Luffany, Slieverue, Co. Kilkenny",350000.0,243,243 m²,12,3,Detached,2022-08-10,E1,114817059,320.84 kWh/m2/yr,52.294637,-7.056581,Buy,KILKENNY,http://www.daft.ie/for-sale/detached-house-karsan-luffany-slieverue-co-kilkenny/3966168
3964971,19514905,"Churchview Lodge, Owning, Kilkenny, Co. Kilkenny",550000.0,159,159 m²,4,2,Detached,2022-08-10,D2,106646417,286.51 kWh/m2/yr,52.38817,-7.34423,Buy,KILKENNY,http://www.daft.ie/for-sale/detached-house-churchview-lodge-owning-kilkenny-co-kilkenny/3964971
3964204,19508496,"Smithstown, Smithstown, Co. Kilkenny",AMV: Price on Application,115,115 m²,3,1,Detached,2022-08-09,G,,,52.540442,-7.135965,Buy,KILKENNY,http://www.daft.ie/for-sale/detached-house-smithstown-smithstown-co-kilkenny/3964204
3960561,19478246,"Ballyreddin, Bennettsbridge, Co. Kilkenny",395000.0,178,178 m²,5,3,Detached,2022-08-03,C3,113826127,,52.59337,-7.180145,Buy,KILKENNY,http://www.daft.ie/for-sale/detached-house-ballyreddin-bennettsbridge-co-kilkenny/3960561
3963681,19505632,"Rathaleek, Kilkenny, Co. Kilkenny",420000.0,172,172 m²,4,2,Detached,2022-08-08,D2,114765589,,52.612594,-7.288624,Buy,KILKENNY,http://www.daft.ie/for-sale/detached-house-rathaleek-kilkenny-co-kilkenny/3963681
3961748,19490336,"Burnchurch Farm, Burnchurch, Burnchurch, Co. Kilkenny",AMV: Price on Application,100,100 m²,3,1,Detached,2022-08-10,F,115386625,,52.583447,-7.304277,Buy,KILKENNY,http://www.daft.ie/for-sale/detached-house-burnchurch-farm-burnchurch-burnchurch-co-kilkenny/3961748
3961611,19487093,"Fontenoy, Canal Walk, Castle Road, Kilkenny, Co. Kilkenny",925000.0,269,269 m²,5,4,Detached,2022-08-10,D1,108614637,244.1 kWh/m2/yr,52.647196,-7.23819,Buy,KILKENNY,http://www.daft.ie/for-sale/detached-house-fontenoy-canal-walk-castle-road-kilkenny-co-kilkenny/3961611
3960087,19472746,"Ballykenna, Tullogher, Co. Kilkenny",105000.0,102,102 m²,2,1,Detached,2022-08-10,G,115198806,1205.78 kWh/m2/yr,52.430934,-7.081589,Buy,KILKENNY,http://www.daft.ie/for-sale/detached-house-ballykenna-tullogher-co-kilkenny/3960087
3959647,19468139,"28 Aylesbury Avenue, Aylesbury, Ferrybank",350000.0,135,135 m²,4,3,Detached,2022-07-20,C1,,,52.27183,-7.094531,Buy,KILKENNY,http://www.daft.ie/for-sale/detached-house-28-aylesbury-avenue-aylesbury-ferrybank/3959647
3959242,19464277,"9 Springmount, Waterford Road, Kilkenny, Co. Kilkenny",479950.0,170,170 m²,5,3,Detached,2022-08-10,D2,,,52.633921,-7.250365,Buy,KILKENNY,http://www.daft.ie/for-sale/detached-house-9-springmount-waterford-road-kilkenny-co-kilkenny/3959242
3947885,19402964,"Cappagh, Inistioge, Co. Kilkenny",250000.0,93,93 m²,2,1,Detached,2022-08-08,F,103578076,,52.503654,-7.075596,Buy,KILKENNY,http://www.daft.ie/for-sale/detached-house-cappagh-inistioge-co-kilkenny/3947885
3957542,19447817,"Railway House, Ballykeoghan, Kilmacow, Co. Kilkenny",295000.0,133,133 m²,3,2,Detached,2022-08-10,D2,115022360,285.41 kWh/m2/yr,52.324792,-7.153649,Buy,KILKENNY,http://www.daft.ie/for-sale/detached-house-railway-house-ballykeoghan-kilmacow-co-kilkenny/3957542
3957355,19445885,"Cappagh Stone House, Inistioge, Co. Kilkenny",975000.0,N/A,2 ac,4,3,Detached,2022-08-09,B2,108585522,,52.503815,-7.074732,Buy,KILKENNY,http://www.daft.ie/for-sale/detached-house-cappagh-stone-house-inistioge-co-kilkenny/3957355
3956282,19436778,"14 New Road, Kilkenny, Co. Kilkenny",375000.0,N/A,,2,1,Detached,2022-08-03,B3,115026106,,52.659359,-7.250273,Buy,KILKENNY,http://www.daft.ie/for-sale/detached-house-14-new-road-kilkenny-co-kilkenny/3956282
3946750,19391722,"41 Glendine Heights, Kilkenny, Co. Kilkenny",495000.0,122,122 m²,4,2,Detached,2022-08-05,D1,107298432,253.78 kWh/m2/yr,52.671803,-7.252521,Buy,KILKENNY,http://www.daft.ie/for-sale/detached-house-41-glendine-heights-kilkenny-co-kilkenny/3946750
3944263,19366686,"Jerpoint Walled Garden, Jerpoint Church, Thomastown, Co. Kilkenny",725000.0,248,248 m²,5,3,Detached,2022-08-09,B2,115053407,,52.515148,-7.175961,Buy,KILKENNY,http://www.daft.ie/for-sale/detached-house-jerpoint-walled-garden-jerpoint-church-thomastown-co-kilkenny/3944263
3944146,19365045,"Danganbeg, Knocktopher, Co. Kilkenny",228000.0,118,118 m²,3,1,Detached,2022-07-25,D1,,,52.497543,-7.255995,Buy,KILKENNY,http://www.daft.ie/for-sale/detached-house-danganbeg-knocktopher-co-kilkenny/3944146
3943247,19355108,"Meallaghmore Upper, Windgap, Co. Kilkenny",250000.0,N/A,,4,2,Detached,2022-08-05,E2,115015190,,52.452439,-7.39703,Buy,KILKENNY,http://www.daft.ie/for-sale/detached-house-meallaghmore-upper-windgap-co-kilkenny/3943247
3939698,19321496,"Bramble Lodge, Bramblestown, Gowran, Co. Kilkenny",395000.0,176,176 m²,4,3,Detached,2022-08-10,C2,115048993,197.55 kWh/m2/yr,52.583105,-7.0472,Buy,KILKENNY,http://www.daft.ie/for-sale/detached-house-bramble-lodge-bramblestown-gowran-co-kilkenny/3939698
3938245,19308261,"Kylemore, New Ross, Co. Kilkenny",325000.0,145,145 m²,4,2,Detached,2022-06-17,D2,115043945,,52.422582,-6.935646,Buy,KILKENNY,http://www.daft.ie/for-sale/detached-house-kylemore-new-ross-co-kilkenny/3938245
3937758,19303590,"'Beaulieu', Garnarea, Piltown, Co. Kilkenny",500000.0,N/A,,5,4,Detached,2022-08-08,C3,,,52.35798,-7.362312,Buy,KILKENNY,http://www.daft.ie/for-sale/detached-house-beaulieu-garnarea-piltown-co-kilkenny/3937758
3936229,19285852,"Grannagh Castle, Waterford",Price on Application,N/A,,3,1,Detached,2022-08-08,G,,,52.281725,-7.162327,Buy,KILKENNY,http://www.daft.ie/for-sale/detached-house-grannagh-castle-waterford/3936229
3935464,19280059,"8 Broguemaker's Hill, Kilkenny, Co. Kilkenny",595000.0,147,147 m²,4,2,Detached,2022-08-09,B3,107684276,,52.659766,-7.251956,Buy,KILKENNY,http://www.daft.ie/for-sale/detached-house-8-broguemakers-hill-kilkenny-co-kilkenny/3935464
3820962,18825429,"Coolnabrone, Kilkenny, Co. Kilkenny",385000.0,191,191 m²,5,3,Detached,2022-08-08,B3,112437355,,52.594134,-6.958136,Buy,KILKENNY,http://www.daft.ie/for-sale/detached-house-coolnabrone-kilkenny-co-kilkenny/3820962
3931498,19239655,"Ballinlough, Carrigeen, Co. Kilkenny",450000.0,190,190 m²,4,3,Detached,2022-08-10,C1,114886096,165.52 kWh/m2/yr,52.286649,-7.227921,Buy,KILKENNY,http://www.daft.ie/for-sale/detached-house-ballinlough-carrigeen-co-kilkenny/3931498
3932259,19247044,"Condonstown, Boolyglass, Hugginstown, Co. Kilkenny",250000.0,N/A,,3,1,Detached,2022-06-21,G,,,52.45331098815936,-7.251934282271577,Buy,KILKENNY,http://www.daft.ie/for-sale/detached-house-condonstown-boolyglass-hugginstown-co-kilkenny/3932259
3923405,19160258,"9 Rockfield, Gowran, Co. Kilkenny",295000.0,111,111 m²,4,1,Detached,2022-08-08,D1,108462854,,52.63176,-7.065703,Buy,KILKENNY,http://www.daft.ie/for-sale/detached-house-9-rockfield-gowran-co-kilkenny/3923405
3895656,18907475,"79 Glen Vale, Ballyragget, Co. Kilkenny",380000.0,177,177 m²,4,3,Detached,2022-08-08,B3,115028490,,52.78811,-7.33066,Buy,KILKENNY,http://www.daft.ie/for-sale/detached-house-79-glen-vale-ballyragget-co-kilkenny/3895656
3441920,15536076,"Hazyview Lodge,Cullaun, Inistioge, Co. Kilkenny",215000.0,345,345 m²,5,3,Detached,2022-07-04,SI_666,,,52.45640784181052,-7.023368195670173,Buy,KILKENNY,http://www.daft.ie/for-sale/detached-house-hazyview-lodge-cullaun-inistioge-co-kilkenny/3441920
3921601,19150835,"The Blue House, Dungarvan, Co. Kilkenny",390000.0,165,165 m²,3,3,Detached,2022-08-10,C2,115028953,199.16 kWh/m2/yr,52.583685,-7.103884,Buy,KILKENNY,http://www.daft.ie/for-sale/detached-house-the-blue-house-dungarvan-co-kilkenny/3921601
3921586,19150829,"Rathinure, Glenmore, Co. Kilkenny",395000.0,277,277 m²,4,4,Detached,2022-07-22,B2,,,52.331413,-7.025575,Buy,KILKENNY,http://www.daft.ie/for-sale/detached-house-rathinure-glenmore-co-kilkenny/3921586
3921282,19148282,"Templemartin, Clara, Co. Kilkenny",295000.0,89,89 m²,3,1,Detached,2022-08-09,D2,115028763,290.47 kWh/m2/yr,52.6553596,-7.1825105,Buy,KILKENNY,http://www.daft.ie/for-sale/detached-house-templemartin-clara-co-kilkenny/3921282
3921148,19147478,"Tibrennoch, Coolnaleen, Slieverue, Co. Kilkenny",290000.0,136,136 m²,4,2,Detached,2022-08-08,D1,115024929,251.91 kWh/m2/yr,52.329026,-7.08894,Buy,KILKENNY,http://www.daft.ie/for-sale/detached-house-tibrennoch-coolnaleen-slieverue-co-kilkenny/3921148
3919569,19133547,"Garranaman, Kells, Co. Kilkenny",125000.0,50,50 m²,3,,Detached,2022-08-10,G,,,52.560484,-7.27476,Buy,KILKENNY,http://www.daft.ie/for-sale/detached-house-garranaman-kells-co-kilkenny/3919569
3917599,19112590,"3 Pudding Lane, Kilkenny, Co. Kilkenny",375000.0,106,106 m²,4,2,Detached,2022-08-10,C3,114522022,223.62 kWh/m2/yr,52.650822,-7.252956,Buy,KILKENNY,http://www.daft.ie/for-sale/detached-house-3-pudding-lane-kilkenny-co-kilkenny/3917599
3913547,19079391,"Monteen, Crettyard, Kilkenny, Co. Kilkenny",375000.0,100,100 m²,3,1,Detached,2022-07-04,G,,,52.82331,-7.124231,Buy,KILKENNY,http://www.daft.ie/for-sale/detached-house-monteen-crettyard-kilkenny-co-kilkenny/3913547
3800565,18647976,"Lime Tree House, Grange Upper, Gowran, Co. Kilkenny",695000.0,251,251 m²,4,4,Detached,2022-08-10,B3,114823996,148.27 kWh/m2/yr,52.613962,-7.035167,Buy,KILKENNY,http://www.daft.ie/for-sale/detached-house-lime-tree-house-grange-upper-gowran-co-kilkenny/3800565
3907222,19023012,"Dublin Road, Dungarvan, Co. Kilkenny",350000.0,158,158 m²,4,1,Detached,2022-05-25,SI_666,,,52.58661202855561,-7.09534498626428,Buy,KILKENNY,http://www.daft.ie/for-sale/detached-house-dublin-road-dungarvan-co-kilkenny/3907222
3486156,15869970,"Teach Mountgale, Mountgale, Rathmoyle, Co. Kilkenny",488000.0,364,364 m²,5,3,Detached,2022-07-12,E2,,,52.672073,-7.368065,Buy,KILKENNY,http://www.daft.ie/for-sale/detached-house-teach-mountgale-mountgale-rathmoyle-co-kilkenny/3486156
3899577,18949325,"Marsh's Street, Thomastown, Co. Kilkenny",195000.0,98,98 m²,2,1,Detached,2022-08-10,G,112456728,,52.525433,-7.139759,Buy,KILKENNY,http://www.daft.ie/for-sale/detached-house-marshs-street-thomastown-co-kilkenny/3899577
3897733,18925580,"Jenkinstown House, Jenkinstown Park, Kilkenny, Co. Kilkenny",1050000.0,619,619 m²,3,2,Detached,2022-06-27,SI_666,,,52.73415917166008,-7.287574684006643,Buy,KILKENNY,http://www.daft.ie/for-sale/detached-house-jenkinstown-house-jenkinstown-park-kilkenny-co-kilkenny/3897733
3892900,18888025,"Deerpark, Inistioge, Co. Kilkenny",335000.0,145,145 m²,4,1,Detached,2022-05-14,B3,114852668,,52.477825,-7.071651,Buy,KILKENNY,http://www.daft.ie/for-sale/detached-house-deerpark-inistioge-co-kilkenny/3892900
3824551,18856992,"8 Waltons Grove, Mount Juliet Estate, Thomastown, Co. Kilkenny",860000.0,263,263 m²,4,4,Detached,2022-08-10,C3,114151392,221.21 kWh/m2/yr,52.534455,-7.19591,Buy,KILKENNY,http://www.daft.ie/for-sale/detached-house-8-waltons-grove-mount-juliet-estate-thomastown-co-kilkenny/3824551
3824401,18856946,"Haggard, Glenmore, Co. Kilkenny",280000.0,116,116 m²,3,1,Detached,2022-07-22,G,,,52.353351,-7.077947,Buy,KILKENNY,http://www.daft.ie/for-sale/detached-house-haggard-glenmore-co-kilkenny/3824401
3653749,17327573,"null, Galmoy, Co. Kilkenny",225000.0,119,119 m²,3,2,Detached,2022-05-25,SI_666,,,52.793244,-7.566279,Buy,KILKENNY,http://www.daft.ie/for-sale/detached-house-null-galmoy-co-kilkenny/3653749
3819755,18813312,"31 Aylesbury, Freshford Road, Kilkenny, Co. Kilkenny",310000.0,116,116 m²,4,2,Detached,2022-08-09,C3,114861511,,52.664507,-7.258258,Buy,KILKENNY,http://www.daft.ie/for-sale/detached-house-31-aylesbury-freshford-road-kilkenny-co-kilkenny/3819755
3819478,18811513,"Turkstown, Piltown, Co. Kilkenny",410000.0,336,336 m²,4,4,Detached,2022-08-08,C1,114511678,158.32 kWh/m2/yr,52.326638,-7.304692,Buy,KILKENNY,http://www.daft.ie/for-sale/detached-house-turkstown-piltown-co-kilkenny/3819478
3819420,18811506,"3, Hugginstown, Co. Kilkenny",410000.0,219,219 m²,4,3,Detached,2022-08-08,B2,114859440,113.73 kWh/m2/yr,52.457828,-7.252605,Buy,KILKENNY,http://www.daft.ie/for-sale/detached-house-3-hugginstown-co-kilkenny/3819420
3816559,18786140,"Tullvolty, Johnstown, Johnstown, Co. Kilkenny",170000.0,65,65 m²,2,1,Detached,2022-08-03,G,114853476,655.19 kWh/m2/yr,52.76476882268241,-7.5722831783677975,Buy,KILKENNY,http://www.daft.ie/for-sale/detached-house-tullvolty-johnstown-johnstown-co-kilkenny/3816559
3805506,18694796,"Glendine Cottage, Newhouse, Thomastown, Co. Kilkenny",345000.0,N/A,,5,4,Detached,2022-08-08,D1,114647530,248.45 kWh/m2/yr,52.556797,-7.160195,Buy,KILKENNY,http://www.daft.ie/for-sale/detached-house-glendine-cottage-newhouse-thomastown-co-kilkenny/3805506
3794488,18599138,"Saddle Hill Farmhouse, Blessington, Thomastown, Co. Kilkenny",650000.0,224,224 m²,5,4,Detached,2022-08-10,B2,114682339,118.54 kWh/m2/yr,52.529006,-7.050885,Buy,KILKENNY,http://www.daft.ie/for-sale/detached-house-saddle-hill-farmhouse-blessington-thomastown-co-kilkenny/3794488
3793839,18595518,"Kilmanahin, Piltown, Co. Kilkenny",420000.0,199,199 m²,3,2,Detached,2022-08-08,D1,102331162,225.48 kWh/m2/yr,52.380327,-7.32169,Buy,KILKENNY,http://www.daft.ie/for-sale/detached-house-kilmanahin-piltown-co-kilkenny/3793839
3787273,18542159,"Bobbit Cottage, Raheendonore, Graiguenamanagh, Co. Kilkenny","AMV: €170,000",87,87 m²,2,1,Detached,2022-08-10,E1,112928684,376.49 kWh/m2/yr,52.517782,-7.024052,Buy,KILKENNY,http://www.daft.ie/for-sale/detached-house-bobbit-cottage-raheendonore-graiguenamanagh-co-kilkenny/3787273
3786702,18537695,"Bobbit Cottage, Raheendonore, Graiguenamanagh, Co. Kilkenny","AMV: €170,000",87,87 m²,2,1,Detached,2022-08-10,E1,,,52.517782,-7.024052,Buy,KILKENNY,http://www.daft.ie/for-sale/detached-house-bobbit-cottage-raheendonore-graiguenamanagh-co-kilkenny/3786702
3773804,18415628,"Foulksrath, Callan, Co. Kilkenny",275000.0,186,186 m²,5,2,Detached,2022-07-06,D2,,,52.532164,-7.406899,Buy,KILKENNY,http://www.daft.ie/for-sale/detached-house-foulksrath-callan-co-kilkenny/3773804
3765595,18354475,"9 Troy's Green, Green Street, Kilkenny, Co. Kilkenny",295000.0,134,134 m²,4,3,Detached,2022-06-29,C3,114753452,,52.658615,-7.255763,Buy,KILKENNY,http://www.daft.ie/for-sale/detached-house-9-troys-green-green-street-kilkenny-co-kilkenny/3765595
3756718,18287002,"30 Seville Lawns, Margarets Fields, Kilkenny, Co. Kilkenny",400000.0,156,156 m²,4,3,Detached,2022-08-03,C2,,,52.638648,-7.269953,Buy,KILKENNY,http://www.daft.ie/for-sale/detached-house-30-seville-lawns-margarets-fields-kilkenny-co-kilkenny/3756718
3748401,18223576,"Hebron House, Hebron Road, Kilkenny, Co. Kilkenny",Price on Application,209,209 m²,4,1,Detached,2022-08-10,SI_666,,,52.657961575451395,-7.222078506009211,Buy,KILKENNY,http://www.daft.ie/for-sale/detached-house-hebron-house-hebron-road-kilkenny-co-kilkenny/3748401
3743306,18169481,"Carrickshock, Knocktopher, Co. Kilkenny",455000.0,215,215 m²,4,3,Detached,2022-08-10,C2,114696602,181.43 kWh/m2/yr,52.455452,-7.240653,Buy,KILKENNY,http://www.daft.ie/for-sale/detached-house-carrickshock-knocktopher-co-kilkenny/3743306
3710403,17860593,"The Views, Pleberstown, Thomastown, Co. Kilkenny",550000.0,267,267 m²,4,5,Detached,2022-08-10,B3,114632649,133.93 kWh/m2/yr,52.492384,-7.140946,Buy,KILKENNY,http://www.daft.ie/for-sale/detached-house-the-views-pleberstown-thomastown-co-kilkenny/3710403
3542400,16201171,"6 Rose Gardens, Rose Hill, Kells Road, Kilkenny, Co. Kilkenny",750000.0,301,301 m²,6,6,Detached,2022-08-10,B2,109747808,119.73 kWh/m2/yr,52.639618,-7.257386,Buy,KILKENNY,http://www.daft.ie/for-sale/detached-house-6-rose-gardens-rose-hill-kells-road-kilkenny-co-kilkenny/3542400
3677330,17603609,"The Old School House, Kilkenny, Co. Kilkenny",775000.0,376,376 m²,4,3,Detached,2022-08-10,C2,113280226,184.64 kWh/m2/yr,52.73119,-7.27663,Buy,KILKENNY,http://www.daft.ie/for-sale/detached-house-the-old-school-house-kilkenny-co-kilkenny/3677330
3661517,17438522,"Cappahayden, Callan, Co. Kilkenny",375000.0,N/A,,4,2,Detached,2022-08-05,C2,,,52.561225,-7.429954,Buy,KILKENNY,http://www.daft.ie/for-sale/detached-house-cappahayden-callan-co-kilkenny/3661517
3648964,17265941,"Rathsnagadan, Inistioge, Co. Kilkenny",Price on Application,260,260 m²,4,2,Detached,2021-12-09,A3,114499007,,52.45175458,-7.01164506,Buy,KILKENNY,http://www.daft.ie/for-sale/detached-house-rathsnagadan-inistioge-co-kilkenny/3648964
3636058,17086052,"Tom Grant's House, Ballygorey, Mooncoin, Co. Kilkenny",125000.0,25,25 m²,1,1,Detached,2022-08-10,SI_666,,,52.273558,-7.233053,Buy,KILKENNY,http://www.daft.ie/for-sale/detached-house-tom-grants-house-ballygorey-mooncoin-co-kilkenny/3636058
3603385,16815595,"Rochestown, Glenmore, Co. Kilkenny",90000.0,40,40 m²,3,1,Detached,2022-07-22,G,,,52.321999,-7.011068,Buy,KILKENNY,http://www.daft.ie/for-sale/detached-house-rochestown-glenmore-co-kilkenny/3603385
3588095,16641621,"House Sites In Mount Juliet Estate, Thomastown, Co. Kilkenny",450000.0,N/A,,4,,Detached,2022-08-10,SI_666,,,52.526911,-7.189,Buy,KILKENNY,http://www.daft.ie/for-sale/detached-house-house-sites-in-mount-juliet-estate-thomastown-co-kilkenny/3588095
3558337,16310585,"Kilcross, Inistioge, Co. Kilkenny",450000.0,163,163 m²,4,3,Detached,2022-06-14,E2,,,52.48880977,-7.04491161,Buy,KILKENNY,http://www.daft.ie/for-sale/detached-house-kilcross-inistioge-co-kilkenny/3558337
3508929,16052878,"No 2  River Gardens  , Greenshill, Kilkenny, Co. Kilkenny",875000.0,291,291 m²,5,4,Detached,2022-03-01,A2,,,52.66441327979746,-7.253724893258379,Buy,KILKENNY,http://www.daft.ie/for-sale/detached-house-no-2-river-gardens-greenshill-kilkenny-co-kilkenny/3508929
3439678,15519800,"Kilmurry House, Thomastown, Co. Kilkenny",7500000.0,1659,1659 m²,11,8,Detached,2022-08-10,SI_666,,,52.544606,-7.115018,Buy,KILKENNY,http://www.daft.ie/for-sale/detached-house-kilmurry-house-thomastown-co-kilkenny/3439678
3201870,14631457,"Main Street, Paulstown, Co. Kilkenny",280000.0,204,204 m²,5,3,Detached,2022-08-08,C2,113838981,,52.679465,-7.022466,Buy,KILKENNY,http://www.daft.ie/for-sale/detached-house-main-street-paulstown-co-kilkenny/3201870
2518214,12605411,"Bauntha, Callan, Co. Kilkenny",395000.0,N/A,,5,2,Detached,2022-08-05,D2,,,52.5296562,-7.38388732,Buy,KILKENNY,http://www.daft.ie/for-sale/detached-house-bauntha-callan-co-kilkenny/2518214
48607,11673322,"The Thatched Cottage, Main Street, Mooncoin, Co. Kilkenny",200000.0,60,60 m²,2,1,Detached,2022-08-10,,,,52.295111,-7.258568,Buy,KILKENNY,http://www.daft.ie/for-sale/detached-house-the-thatched-cottage-main-street-mooncoin-co-kilkenny/48607
3983361,19653787,"The Green Door, The Mall, Thomastown, Co. Kilkenny",150000.0,75,75 m²,2,2,Semi-D,2022-08-03,SI_666,,,52.522051,-7.13675,Buy,KILKENNY,http://www.daft.ie/for-sale/semi-detached-house-the-green-door-the-mall-thomastown-co-kilkenny/3983361
3982626,19647424,"31 Roselawn, Bolton Woods, Callan, Co. Kilkenny",205000.0,84,84 m²,2,3,Terrace,2022-08-08,C1,114774094,,52.539933,-7.389533,Buy,KILKENNY,http://www.daft.ie/for-sale/terraced-house-31-roselawn-bolton-woods-callan-co-kilkenny/3982626
3982506,19645131,"Hilltop Lodge, Ballydowel, Kilkenny, Co. Kilkenny",450000.0,228,228 m²,4,3,Detached,2022-08-10,B3,115024986,131.36 kWh/m2/yr,52.70113,-7.366049,Buy,KILKENNY,http://www.daft.ie/for-sale/detached-house-hilltop-lodge-ballydowel-kilkenny-co-kilkenny/3982506
3982449,19643063,"13 Skeaugh, Callan, Co. Kilkenny",200000.0,90,90 m²,3,2,Semi-D,2022-08-10,C1,,,52.558102,-7.380378,Buy,KILKENNY,http://www.daft.ie/for-sale/semi-detached-house-13-skeaugh-callan-co-kilkenny/3982449
3982020,19637729,"Kildrinagh, Woodsgift, Urlingford, Co. Kilkenny",150000.0,N/A,,3,1,Detached,2022-08-10,F,,,52.690648,-7.503158,Buy,KILKENNY,http://www.daft.ie/for-sale/detached-house-kildrinagh-woodsgift-urlingford-co-kilkenny/3982020
3960734,19478357,"6 Rivercourt, Goresbridge, Co. Kilkenny",245000.0,102,102 m²,3,2,Semi-D,2022-08-08,D1,107443251,,52.629592,-6.991853,Buy,KILKENNY,http://www.daft.ie/for-sale/semi-detached-house-6-rivercourt-goresbridge-co-kilkenny/3960734
3981493,19632022,"Finnan, Ballyragget, Co. Kilkenny",155000.0,102,102 m²,3,1,Detached,2022-08-08,G,108199506,,52.798657,-7.306391,Buy,KILKENNY,http://www.daft.ie/for-sale/detached-house-finnan-ballyragget-co-kilkenny/3981493
3970122,19558601,"1 Loreto Lodge, Freshford Road, Kilkenny, Co. Kilkenny",290000.0,125,125 m²,4,2,Semi-D,2022-08-08,C3,,,52.660266,-7.259962,Buy,KILKENNY,http://www.daft.ie/for-sale/semi-detached-house-1-loreto-lodge-freshford-road-kilkenny-co-kilkenny/3970122
3978695,19615112,"Waddingstown, Mooncoin, Co. Kilkenny",425000.0,N/A,,3,2,Detached,2022-08-10,C2,,179.92 kWh/m2/yr,52.298257,-7.221546,Buy,KILKENNY,http://www.daft.ie/for-sale/detached-house-waddingstown-mooncoin-co-kilkenny/3978695
3978265,19609800,"Butlers Hill On Circa 9.64 Acres, Ballysallagh, Kilkenny, Co. Kilkenny",595000.0,261,261 m²,4,3,Detached,2022-08-10,C2,114427586,190.95 kWh/m2/yr,52.694779,-7.167386,Buy,KILKENNY,http://www.daft.ie/for-sale/detached-house-butlers-hill-on-circa-9-64-acres-ballysallagh-kilkenny-co-kilkenny/3978265
3975721,19599575,"39 Acorns Upper, Castlecomer, Co. Kilkenny",165000.0,119,119 m²,3,3,Semi-D,2022-08-05,C2,108761768,187.66 kWh/m2/yr,52.797688,-7.215494,Buy,KILKENNY,http://www.daft.ie/for-sale/semi-detached-house-39-acorns-upper-castlecomer-co-kilkenny/3975721
2579375,12718468,"Rerrin House, Dunamaggin, Kilkenny, Co. Kilkenny",295000.0,207,207 m²,4,2,Detached,2022-08-10,C3,113225783,220.49 kWh/m2/yr,52.50199,-7.296819,Buy,KILKENNY,http://www.daft.ie/for-sale/detached-house-rerrin-house-dunamaggin-kilkenny-co-kilkenny/2579375
3960733,19478356,"1 Father Walsh Close, Kilkenny, Co. Kilkenny",385000.0,120,120 m²,3,2,Detached,2022-08-08,B3,800857195,,52.64558,-7.253071,Buy,KILKENNY,http://www.daft.ie/for-sale/detached-house-1-father-walsh-close-kilkenny-co-kilkenny/3960733
3972153,19574355,"Cushlawn House, Castlecolumb, Knocktopher, Co. Kilkenny",450000.0,291,291 m²,6,8,Detached,2022-08-10,C3,103814752,223.67 kWh/m2/yr,52.487444,-7.198767,Buy,KILKENNY,http://www.daft.ie/for-sale/detached-house-cushlawn-house-castlecolumb-knocktopher-co-kilkenny/3972153
3972043,19573869,"Gragara, Jenkinstown, Co. Kilkenny",295000.0,110,110 m²,3,1,Detached,2022-08-10,C2,105565535,,52.73911,-7.269234,Buy,KILKENNY,http://www.daft.ie/for-sale/detached-house-gragara-jenkinstown-co-kilkenny/3972043
3971185,19567934,"49 Robert's Hill, Circular Road, Kilkenny, Co. Kilkenny",240000.0,124,124 m²,4,3,End of Terrace,2022-08-09,C1,103754123,,52.648057,-7.26396,Buy,KILKENNY,http://www.daft.ie/for-sale/end-of-terrace-house-49-roberts-hill-circular-road-kilkenny-co-kilkenny/3971185
3971339,19568897,"5 Burgess Court, Kells, Co. Kilkenny",510000.0,242,242 m²,4,3,Detached,2022-08-10,C1,115218661,171.09 kWh/m2/yr,52.536783,-7.271673,Buy,KILKENNY,http://www.daft.ie/for-sale/detached-house-5-burgess-court-kells-co-kilkenny/3971339
3970024,19557175,"Chantry House, Paulstown, Co. Kilkenny",850000.0,444,444 m²,5,7,Detached,2022-08-03,D2,107560815,,52.680624,-7.022238,Buy,KILKENNY,http://www.daft.ie/for-sale/detached-house-chantry-house-paulstown-co-kilkenny/3970024
3971221,19567953,"Lower Main Street, Graiguenamanagh, Co. Kilkenny",260000.0,274,274 m²,6,2,Terrace,2022-08-08,G,,,52.539957,-6.954904,Buy,KILKENNY,http://www.daft.ie/for-sale/terraced-house-lower-main-street-graiguenamanagh-co-kilkenny/3971221
3965571,19518720,"Graigueswood, Freshford, Co. Kilkenny",160000.0,117,117 m²,3,1,Detached,2022-08-03,G,115376923,,52.748812,-7.400105,Buy,KILKENNY,http://www.daft.ie/for-sale/detached-house-graigueswood-freshford-co-kilkenny/3965571
3969286,19553110,"Plum Cottage, Foulkscourt, Johnstown, Co. Kilkenny",250000.0,135,135 m²,4,2,Detached,2022-08-08,C3,,,52.751044,-7.572386,Buy,KILKENNY,http://www.daft.ie/for-sale/detached-house-plum-cottage-foulkscourt-johnstown-co-kilkenny/3969286
3967229,19532924,"Karsan, Luffany, Slieverue, Co. Waterford",350000.0,243,243 m²,12,3,Detached,2022-08-10,E1,114817059,320.84 kWh/m2/yr,52.294637,-7.056581,Buy,KILKENNY,http://www.daft.ie/for-sale/detached-house-karsan-luffany-slieverue-co-waterford/3967229
3967177,19532901,"Rathlikeen, Mullinavat, Co. Kilkenny",110000.0,2509,2509 m²,1,1,Detached,2022-07-22,SI_666,,,52.34057281,-7.13322463,Buy,KILKENNY,http://www.daft.ie/for-sale/detached-house-rathlikeen-mullinavat-co-kilkenny/3967177
3966168,19523511,"Karsan, Luffany, Slieverue, Co. Kilkenny",350000.0,243,243 m²,12,3,Detached,2022-08-10,E1,114817059,320.84 kWh/m2/yr,52.294637,-7.056581,Buy,KILKENNY,http://www.daft.ie/for-sale/detached-house-karsan-luffany-slieverue-co-kilkenny/3966168
3964971,19514905,"Churchview Lodge, Owning, Kilkenny, Co. Kilkenny",550000.0,159,159 m²,4,2,Detached,2022-08-10,D2,106646417,286.51 kWh/m2/yr,52.38817,-7.34423,Buy,KILKENNY,http://www.daft.ie/for-sale/detached-house-churchview-lodge-owning-kilkenny-co-kilkenny/3964971
3964204,19508496,"Smithstown, Smithstown, Co. Kilkenny",AMV: Price on Application,115,115 m²,3,1,Detached,2022-08-09,G,,,52.540442,-7.135965,Buy,KILKENNY,http://www.daft.ie/for-sale/detached-house-smithstown-smithstown-co-kilkenny/3964204
3960561,19478246,"Ballyreddin, Bennettsbridge, Co. Kilkenny",395000.0,178,178 m²,5,3,Detached,2022-08-03,C3,113826127,,52.59337,-7.180145,Buy,KILKENNY,http://www.daft.ie/for-sale/detached-house-ballyreddin-bennettsbridge-co-kilkenny/3960561
3963681,19505632,"Rathaleek, Kilkenny, Co. Kilkenny",420000.0,172,172 m²,4,2,Detached,2022-08-08,D2,114765589,,52.612594,-7.288624,Buy,KILKENNY,http://www.daft.ie/for-sale/detached-house-rathaleek-kilkenny-co-kilkenny/3963681
3961748,19490336,"Burnchurch Farm, Burnchurch, Burnchurch, Co. Kilkenny",AMV: Price on Application,100,100 m²,3,1,Detached,2022-08-10,F,115386625,,52.583447,-7.304277,Buy,KILKENNY,http://www.daft.ie/for-sale/detached-house-burnchurch-farm-burnchurch-burnchurch-co-kilkenny/3961748
3961629,19489301,"2 Brockton Avenue Hollybrook, Ferrybank, Co. Waterford",265000.0,110,110 m²,3,3,Semi-D,2022-08-10,C1,,,52.2715228,-7.1110344,Buy,KILKENNY,http://www.daft.ie/for-sale/semi-detached-house-2-brockton-avenue-hollybrook-ferrybank-co-waterford/3961629
3961611,19487093,"Fontenoy, Canal Walk, Castle Road, Kilkenny, Co. Kilkenny",925000.0,269,269 m²,5,4,Detached,2022-08-10,D1,108614637,244.1 kWh/m2/yr,52.647196,-7.23819,Buy,KILKENNY,http://www.daft.ie/for-sale/detached-house-fontenoy-canal-walk-castle-road-kilkenny-co-kilkenny/3961611
3959951,19471733,"146 Fé­odh Mor, Abbeylands, Ferrybank",229000.0,100,100 m²,3,3,Semi-D,2022-08-09,C1,,,52.265938,-7.087261,Buy,KILKENNY,http://www.daft.ie/for-sale/semi-detached-house-146-f-odh-mor-abbeylands-ferrybank/3959951
3960087,19472746,"Ballykenna, Tullogher, Co. Kilkenny",105000.0,102,102 m²,2,1,Detached,2022-08-10,G,115198806,1205.78 kWh/m2/yr,52.430934,-7.081589,Buy,KILKENNY,http://www.daft.ie/for-sale/detached-house-ballykenna-tullogher-co-kilkenny/3960087
3959647,19468139,"28 Aylesbury Avenue, Aylesbury, Ferrybank",350000.0,135,135 m²,4,3,Detached,2022-07-20,C1,,,52.27183,-7.094531,Buy,KILKENNY,http://www.daft.ie/for-sale/detached-house-28-aylesbury-avenue-aylesbury-ferrybank/3959647
3959242,19464277,"9 Springmount, Waterford Road, Kilkenny, Co. Kilkenny",479950.0,170,170 m²,5,3,Detached,2022-08-10,D2,,,52.633921,-7.250365,Buy,KILKENNY,http://www.daft.ie/for-sale/detached-house-9-springmount-waterford-road-kilkenny-co-kilkenny/3959242
3947874,19402955,"10 Chapelfields, Urlingford, Co. Kilkenny",175000.0,102,102 m²,3,3,Semi-D,2022-08-08,C1,115000036,,52.721403,-7.577793,Buy,KILKENNY,http://www.daft.ie/for-sale/semi-detached-house-10-chapelfields-urlingford-co-kilkenny/3947874
3947885,19402964,"Cappagh, Inistioge, Co. Kilkenny",250000.0,93,93 m²,2,1,Detached,2022-08-08,F,103578076,,52.503654,-7.075596,Buy,KILKENNY,http://www.daft.ie/for-sale/detached-house-cappagh-inistioge-co-kilkenny/3947885
3957602,19447849,"13 Hatchery Lane, Inistioge, Co. Kilkenny",175000.0,75,75 m²,2,2,Terrace,2022-08-10,D2,114484397,287.69 kWh/m2/yr,52.488641,-7.067858,Buy,KILKENNY,http://www.daft.ie/for-sale/terraced-house-13-hatchery-lane-inistioge-co-kilkenny/3957602
3957542,19447817,"Railway House, Ballykeoghan, Kilmacow, Co. Kilkenny",295000.0,133,133 m²,3,2,Detached,2022-08-10,D2,115022360,285.41 kWh/m2/yr,52.324792,-7.153649,Buy,KILKENNY,http://www.daft.ie/for-sale/detached-house-railway-house-ballykeoghan-kilmacow-co-kilkenny/3957542
3957355,19445885,"Cappagh Stone House, Inistioge, Co. Kilkenny",975000.0,N/A,2 ac,4,3,Detached,2022-08-09,B2,108585522,,52.503815,-7.074732,Buy,KILKENNY,http://www.daft.ie/for-sale/detached-house-cappagh-stone-house-inistioge-co-kilkenny/3957355
3956282,19436778,"14 New Road, Kilkenny, Co. Kilkenny",375000.0,N/A,,2,1,Detached,2022-08-03,B3,115026106,,52.659359,-7.250273,Buy,KILKENNY,http://www.daft.ie/for-sale/detached-house-14-new-road-kilkenny-co-kilkenny/3956282
3946750,19391722,"41 Glendine Heights, Kilkenny, Co. Kilkenny",495000.0,122,122 m²,4,2,Detached,2022-08-05,D1,107298432,253.78 kWh/m2/yr,52.671803,-7.252521,Buy,KILKENNY,http://www.daft.ie/for-sale/detached-house-41-glendine-heights-kilkenny-co-kilkenny/3946750
3945866,19380203,"53 Rosewood, Johnswell Road, Kilkenny, Co. Kilkenny",185000.0,63,63 m²,2,1,Terrace,2022-08-10,C3,103839973,215.13 kWh/m2/yr,52.664301,-7.234545,Buy,KILKENNY,http://www.daft.ie/for-sale/terraced-house-53-rosewood-johnswell-road-kilkenny-co-kilkenny/3945866
3944263,19366686,"Jerpoint Walled Garden, Jerpoint Church, Thomastown, Co. Kilkenny",725000.0,248,248 m²,5,3,Detached,2022-08-09,B2,115053407,,52.515148,-7.175961,Buy,KILKENNY,http://www.daft.ie/for-sale/detached-house-jerpoint-walled-garden-jerpoint-church-thomastown-co-kilkenny/3944263
3800796,18650451,"15 William Street, Kilkenny, Co. Kilkenny",265000.0,125,125 m²,4,2,Terrace,2022-08-08,E1,110297462,,52.651343,-7.254629,Buy,KILKENNY,http://www.daft.ie/for-sale/terraced-house-15-william-street-kilkenny-co-kilkenny/3800796
3944146,19365045,"Danganbeg, Knocktopher, Co. Kilkenny",228000.0,118,118 m²,3,1,Detached,2022-07-25,D1,,,52.497543,-7.255995,Buy,KILKENNY,http://www.daft.ie/for-sale/detached-house-danganbeg-knocktopher-co-kilkenny/3944146
3943247,19355108,"Meallaghmore Upper, Windgap, Co. Kilkenny",250000.0,N/A,,4,2,Detached,2022-08-05,E2,115015190,,52.452439,-7.39703,Buy,KILKENNY,http://www.daft.ie/for-sale/detached-house-meallaghmore-upper-windgap-co-kilkenny/3943247
3940559,19328295,"12 Breagagh Court, Kennyswell Road, Kilkenny, Co. Kilkenny",300000.0,124,124 m²,4,4,Terrace,2022-08-10,C1,114865819,159.02 kWh/m2/yr,52.653051,-7.263563,Buy,KILKENNY,http://www.daft.ie/for-sale/terraced-house-12-breagagh-court-kennyswell-road-kilkenny-co-kilkenny/3940559
3940393,19325871,"7 Waltons Grove, Mount Juliet Estate, Thomastown, Co. Kilkenny",750000.0,221,221 m²,4,4,End of Terrace,2022-08-10,C1,115172603,163.71 kWh/m2/yr,52.534455,-7.19591,Buy,KILKENNY,http://www.daft.ie/for-sale/end-of-terrace-house-7-waltons-grove-mount-juliet-estate-thomastown-co-kilkenny/3940393
3939698,19321496,"Bramble Lodge, Bramblestown, Gowran, Co. Kilkenny",395000.0,176,176 m²,4,3,Detached,2022-08-10,C2,115048993,197.55 kWh/m2/yr,52.583105,-7.0472,Buy,KILKENNY,http://www.daft.ie/for-sale/detached-house-bramble-lodge-bramblestown-gowran-co-kilkenny/3939698
4000534,112935762,"6 Laurel Court, Bellfield, Ferrybank",215000.0,95,95 m²,3,2,Semi-D,2022-08-09,D1,,,52.268278,-7.092797,Buy,KILKENNY,http://www.daft.ie/for-sale/semi-detached-house-6-laurel-court-bellfield-ferrybank/4000534
4000530,112935759,"69 Greenoaks, Rockshire Road, Ferrybank",245000.0,105,105 m²,3,2,Semi-D,2022-08-09,C2,,,52.270102,-7.102164,Buy,KILKENNY,http://www.daft.ie/for-sale/semi-detached-house-69-greenoaks-rockshire-road-ferrybank/4000530
3993145,19758899,"7 Rose Hill Avenue, Kells Road, Kilkenny, Co. Kilkenny",480000.0,204,204 m²,4,4,Semi-D,2022-08-08,B2,,,52.640839,-7.258114,Buy,KILKENNY,http://www.daft.ie/for-sale/semi-detached-house-7-rose-hill-avenue-kells-road-kilkenny-co-kilkenny/3993145
4000479,112935713,"16 Castle Oaks, Rockshire Road, Ferrybank",225000.0,95,95 m²,3,1,Semi-D,2022-08-09,D1,114551187,,52.267544,-7.105657,Buy,KILKENNY,http://www.daft.ie/for-sale/semi-detached-house-16-castle-oaks-rockshire-road-ferrybank/4000479
4000452,112934439,"6 The Pines, Roseleigh, Mooncoin, Co. Kilkenny",240000.0,100,100 m²,3,3,Semi-D,2022-08-09,C1,105401715,,52.292746,-7.256801,Buy,KILKENNY,http://www.daft.ie/for-sale/semi-detached-house-6-the-pines-roseleigh-mooncoin-co-kilkenny/4000452
4000421,112934376,"22 The Hawthorns, Roseleigh, Mooncoin, Co. Kilkenny",210000.0,100,100 m²,3,3,Semi-D,2022-08-09,C2,105258263,,52.291481,-7.256131,Buy,KILKENNY,http://www.daft.ie/for-sale/semi-detached-house-22-the-hawthorns-roseleigh-mooncoin-co-kilkenny/4000421
4000418,112934375,"61 Springfields, Waterford Road, Kilkenny, Co. Kilkenny",350000.0,98,98 m²,4,2,Semi-D,2022-08-05,C3,101641538,211.68 kWh/m2/yr,52.637524,-7.252692,Buy,KILKENNY,http://www.daft.ie/for-sale/semi-detached-house-61-springfields-waterford-road-kilkenny-co-kilkenny/4000418
4000409,112934369,"Grannagh, Waterford",298000.0,109,109 m²,3,2,Detached,2022-08-09,D2,109329698,,52.282177,-7.149103,Buy,KILKENNY,http://www.daft.ie/for-sale/detached-house-grannagh-waterford/4000409
4000266,112934107,"167 Robert's Hill, Circular Road, Kilkenny, Co. Kilkenny",215000.0,114,114 m²,3,2,Terrace,2022-08-10,B3,115373516,,52.648219,-7.264823,Buy,KILKENNY,http://www.daft.ie/for-sale/terraced-house-167-roberts-hill-circular-road-kilkenny-co-kilkenny/4000266
4000159,112931879,"99 The Sycamores, Freshford Road, Kilkenny, Co. Kilkenny",325000.0,101,101 m²,4,2,Semi-D,2022-08-10,D2,103576708,,52.665324,-7.260585,Buy,KILKENNY,http://www.daft.ie/for-sale/semi-detached-house-99-the-sycamores-freshford-road-kilkenny-co-kilkenny/4000159
3999624,112927051,"9 Cluain Mhuire, Goresbridge, Co. Kilkenny",195000.0,87,87 m²,3,1,Semi-D,2022-08-10,D1,115351215,227.03 kWh/m2/yr,52.628918,-6.997146,Buy,KILKENNY,http://www.daft.ie/for-sale/semi-detached-house-9-cluain-mhuire-goresbridge-co-kilkenny/3999624
3978358,19611156,"Grove, Cuffesgrange, Co. Kilkenny",285000.0,102,102 m²,3,1,Detached,2022-08-08,D1,109713099,,52.60067,-7.326116,Buy,KILKENNY,http://www.daft.ie/for-sale/detached-house-grove-cuffesgrange-co-kilkenny/3978358
3997373,112907887,"Karsan, Luffany, Slieverue, Co. Waterford",350000.0,243,243 m²,12,3,Detached,2022-08-10,E1,114817059,320.84 kWh/m2/yr,52.294637,-7.056581,Buy,KILKENNY,http://www.daft.ie/for-sale/detached-house-karsan-luffany-slieverue-co-waterford/3997373
3997296,112907831,"Bonnettstown Lane, Bonnettstown, Kilkenny, Co. Kilkenny",445000.0,157,157 m²,4,3,Detached,2022-08-05,E1,114346885,322.12 kWh/m2/yr,52.667278,-7.31666,Buy,KILKENNY,http://www.daft.ie/for-sale/detached-house-bonnettstown-lane-bonnettstown-kilkenny-co-kilkenny/3997296
3908391,19030682,"50 The Fairways, Old Golf Links Road, Kilkenny, Co. Kilkenny",279000.0,87,87 m²,3,2,Semi-D,2022-08-10,D2,113690770,276.57 kWh/m2/yr,52.66386,-7.239654,Buy,KILKENNY,http://www.daft.ie/for-sale/semi-detached-house-50-the-fairways-old-golf-links-road-kilkenny-co-kilkenny/3908391
3996421,112896032,"16A William STREET, Kilkenny, Co. Kilkenny",275000.0,84,84 m²,3,2,Terrace,2022-08-10,C3,115029563,209.15 kWh/m2/yr,52.651365,-7.254563,Buy,KILKENNY,http://www.daft.ie/for-sale/terraced-house-16a-william-street-kilkenny-co-kilkenny/3996421
3996246,112895034,"20 St. Alphonsus Road, Co. Waterford",170000.0,57,57 m²,2,2,Terrace,2022-08-10,E1,,,52.331067,-7.144109,Buy,KILKENNY,http://www.daft.ie/for-sale/terraced-house-20-st-alphonsus-road-co-waterford/3996246
3995628,112889866,"Sidegate, Moneenroe, Castlecomer, Co. Kilkenny",245000.0,135,135 m²,4,2,Detached,2022-08-10,E1,107922106,304.75 kWh/m2/yr,52.843224,-7.14899,Buy,KILKENNY,http://www.daft.ie/for-sale/detached-house-sidegate-moneenroe-castlecomer-co-kilkenny/3995628
3960736,19478359,"Coolnamuck, Inistioge, Co. Kilkenny",425000.0,195,195 m²,3,3,Detached,2022-08-08,C3,,,52.464423,-7.010001,Buy,KILKENNY,http://www.daft.ie/for-sale/detached-house-coolnamuck-inistioge-co-kilkenny/3960736
3994924,112880419,"2 Kylemore Place, Kylemore Grove, Fiddown, Co. Kilkenny",175000.0,97,97 m²,3,1,Semi-D,2022-08-10,D1,,,52.33327,-7.315688,Buy,KILKENNY,http://www.daft.ie/for-sale/semi-detached-house-2-kylemore-place-kylemore-grove-fiddown-co-kilkenny/3994924
3994883,112880400,"Muckalee, Ballyfoyle, Co. Kilkenny",250000.0,109,109 m²,3,1,Detached,2022-08-03,G,114668429,,52.755867,-7.221591,Buy,KILKENNY,http://www.daft.ie/for-sale/detached-house-muckalee-ballyfoyle-co-kilkenny/3994883
3978296,19611088,"Kiltorcan, Ballyhale, Co. Kilkenny",150000.0,84,84 m²,2,1,Detached,2022-08-08,G,115344392,,52.471134,-7.182237,Buy,KILKENNY,http://www.daft.ie/for-sale/detached-house-kiltorcan-ballyhale-co-kilkenny/3978296
3994020,112871591,"9 Saint Fiacre's Place, Kilkenny, Co. Kilkenny",265000.0,85,85 m²,3,1,Terrace,2022-08-10,D1,105711204,,52.647223,-7.247755,Buy,KILKENNY,http://www.daft.ie/for-sale/terraced-house-9-saint-fiacres-place-kilkenny-co-kilkenny/3994020
3960742,19478363,"43 Meadow Way, Castlecomer Road, Kilkenny, Co. Kilkenny",345000.0,130,130 m²,4,2,Semi-D,2022-08-08,D2,,,52.66128,-7.248306,Buy,KILKENNY,http://www.daft.ie/for-sale/semi-detached-house-43-meadow-way-castlecomer-road-kilkenny-co-kilkenny/3960742
3984629,19671333,"3 The Hill, The Weir View, Kilkenny, Co. Kilkenny",475000.0,204,204 m²,4,4,Detached,2022-08-08,B3,105720973,,52.675136,-7.257497,Buy,KILKENNY,http://www.daft.ie/for-sale/detached-house-3-the-hill-the-weir-view-kilkenny-co-kilkenny/3984629
3993146,19758900,"37 Pococke Upper, Johnswell Road, Kilkenny, Co. Kilkenny",260000.0,100,100 m²,3,2,Semi-D,2022-08-08,D1,112963152,,52.665764,-7.229412,Buy,KILKENNY,http://www.daft.ie/for-sale/semi-detached-house-37-pococke-upper-johnswell-road-kilkenny-co-kilkenny/3993146
3993366,112861130,"25 Ballybought Street, Kilkenny, Co. Kilkenny",185000.0,N/A,,3,1,Terrace,2022-08-08,E2,114590458,,52.658065,-7.244043,Buy,KILKENNY,http://www.daft.ie/for-sale/terraced-house-25-ballybought-street-kilkenny-co-kilkenny/3993366
3993341,112861119,"67 Larchfield, Kilkenny, Co. Kilkenny",345000.0,116,116 m²,4,2,Semi-D,2022-08-08,D2,,,52.644355,-7.245966,Buy,KILKENNY,http://www.daft.ie/for-sale/semi-detached-house-67-larchfield-kilkenny-co-kilkenny/3993341
3993316,19759780,"House A And House B, 19 Maudlin STREET, Kilkenny, Co. Kilkenny",485000.0,151,151 m²,4,4,Semi-D,2022-08-10,D2,115366601,296.29 kWh/m2/yr,52.653019,-7.246085,Buy,KILKENNY,http://www.daft.ie/for-sale/semi-detached-house-house-a-and-house-b-19-maudlin-street-kilkenny-co-kilkenny/3993316
3993265,19758995,"14 Christendom Avenue, Ferrybank",150000.0,93,93 m²,3,3,Terrace,2022-08-09,B3,115374332,136.61 kWh/m2/yr,52.262168,-7.092182,Buy,KILKENNY,http://www.daft.ie/for-sale/terraced-house-14-christendom-avenue-ferrybank/3993265
3927470,19202513,"60 Maudlin Street, Kilkenny, Co. Kilkenny",200000.0,84,84 m²,3,1,Semi-D,2022-08-09,G,,,52.652367,-7.243816,Buy,KILKENNY,http://www.daft.ie/for-sale/semi-detached-house-60-maudlin-street-kilkenny-co-kilkenny/3927470
3991417,19739259,"10 Rose Hill Avenue, Kells Road, Kilkenny, Co. Kilkenny",455000.0,177,177 m²,4,3,Semi-D,2022-08-10,B2,,,52.64101,-7.258279,Buy,KILKENNY,http://www.daft.ie/for-sale/semi-detached-house-10-rose-hill-avenue-kells-road-kilkenny-co-kilkenny/3991417
3991836,19746293,"8 An Cuainín, Tuar Na Mblath, Ferrybank",195000.0,90,90 m²,3,1,End of Terrace,2022-07-22,C3,,,52.265374,-7.091042,Buy,KILKENNY,http://www.daft.ie/for-sale/end-of-terrace-house-8-an-cuain-n-tuar-na-mblath-ferrybank/3991836
3991512,19741664,"1 Cashel Avenue, Cashel Downs, Kilkenny, Co. Kilkenny",520000.0,167,167 m²,4,2,Detached,2022-08-10,B1,108656950,,52.642591,-7.250811,Buy,KILKENNY,http://www.daft.ie/for-sale/detached-house-1-cashel-avenue-cashel-downs-kilkenny-co-kilkenny/3991512
3991155,19735594,"Mantingstown, Callan, Co. Kilkenny",265000.0,N/A,,4,2,Detached,2022-08-05,C3,,,52.499671,-7.396063,Buy,KILKENNY,http://www.daft.ie/for-sale/detached-house-mantingstown-callan-co-kilkenny/3991155
3990688,19729984,"23 Lintown Grove, Lintown Hall, Johnswell Road, Kilkenny, Co. Kilkenny",225000.0,87,87 m²,3,3,End of Terrace,2022-08-10,C2,106987720,179.5 kWh/m2/yr,52.660936,-7.240877,Buy,KILKENNY,http://www.daft.ie/for-sale/end-of-terrace-house-23-lintown-grove-lintown-hall-johnswell-road-kilkenny-co-kilkenny/3990688
3990484,19729393,"Bonnettstown Lane, Bonnettstown, Kilkenny, Co. Kilkenny",795000.0,157,157 m²,4,3,Detached,2022-08-05,E1,114246885,322.12 kWh/m2/yr,52.667278,-7.31666,Buy,KILKENNY,http://www.daft.ie/for-sale/detached-house-bonnettstown-lane-bonnettstown-kilkenny-co-kilkenny/3990484
3990619,19729922,"Melrose, Filbuckstown, Mooncoin, Co. Kilkenny",250000.0,N/A,,5,2,Detached,2022-08-10,E1,101800290,332.72 kWh/m2/yr,52.290768,-7.240442,Buy,KILKENNY,http://www.daft.ie/for-sale/detached-house-melrose-filbuckstown-mooncoin-co-kilkenny/3990619
3989974,19723654,"Long Meadows, Long Meadows, Old Sion Road, Kilkenny, Co. Kilkenny",695000.0,N/A,,4,4,Detached,2022-08-10,A2,110936887,58.24 kWh/m2/yr,52.647569,-7.229595,New Homes,KILKENNY,http://www.daft.ie/new-home-for-sale/detached-house-the-marigold-4-bed-detached-long-meadows-the-marigold-4-bed-detached-long-meadows-old-sion-road-kilkenny-co-kilkenny/3989974
3989975,19723655,"Long Meadows, Long Meadows, Old Sion Road, Kilkenny, Co. Kilkenny",725000.0,N/A,,5,4,Detached,2022-08-10,A2,110936887,58.24 kWh/m2/yr,52.647569,-7.229595,New Homes,KILKENNY,http://www.daft.ie/new-home-for-sale/detached-house-the-cornflower-5-bed-detached-long-meadows-the-cornflower-5-bed-detached-long-meadows-old-sion-road-kilkenny-co-kilkenny/3989975
3988801,19710128,"71 Clonmore Hall, Piltown, Co. Kilkenny",200000.0,113,113 m²,3,3,Semi-D,2022-08-10,C1,115349508,,52.350448,-7.336156,Buy,KILKENNY,http://www.daft.ie/for-sale/semi-detached-house-71-clonmore-hall-piltown-co-kilkenny/3988801
3989060,19713785,"Kellsgrange, Kells, Co. Kilkenny",735000.0,279,279 m²,5,4,Detached,2022-08-10,B3,,,52.548581,-7.258813,Buy,KILKENNY,http://www.daft.ie/for-sale/detached-house-kellsgrange-kells-co-kilkenny/3989060
3988915,19712519,"7 Grove Terrace, Ballyragget, Co. Kilkenny",175000.0,N/A,,3,2,Terrace,2022-08-10,E1,,,52.785875,-7.332477,Buy,KILKENNY,http://www.daft.ie/for-sale/terraced-house-7-grove-terrace-ballyragget-co-kilkenny/3988915
3930899,19234695,"7 Rose Lawn, Rose Hill, Kilkenny, Co. Kilkenny",435000.0,177,177 m²,4,4,Semi-D,2022-08-08,B3,115338170,,52.641183,-7.259555,Buy,KILKENNY,http://www.daft.ie/for-sale/semi-detached-house-7-rose-lawn-rose-hill-kilkenny-co-kilkenny/3930899
3960731,19478354,"Carrigatna, Kilmoganny, Co. Kilkenny",485000.0,234,234 m²,4,3,Detached,2022-08-08,B3,102994845,,52.457452,-7.300386,Buy,KILKENNY,http://www.daft.ie/for-sale/detached-house-carrigatna-kilmoganny-co-kilkenny/3960731
3985436,19678896,"Glenview, Glenmullen, Castlecomer, Co. Kilkenny",285000.0,N/A,,4,2,Detached,2022-08-10,F,115348468,383.91 kWh/m2/yr,52.816572,-7.175422,Buy,KILKENNY,http://www.daft.ie/for-sale/detached-house-glenview-glenmullen-castlecomer-co-kilkenny/3985436
3985057,19675496,"49 The Avenue, The Weir View, Kilkenny, Co. Kilkenny",360000.0,132,132 m²,4,3,Semi-D,2022-08-08,B3,105757199,,52.675803,-7.256772,Buy,KILKENNY,http://www.daft.ie/for-sale/semi-detached-house-49-the-avenue-the-weir-view-kilkenny-co-kilkenny/3985057
3982620,19647421,"Castlewarren, Co. Kilkenny",385000.0,204,204 m²,5,3,Detached,2022-08-09,C2,108052242,,52.697362,-7.109805,Buy,KILKENNY,http://www.daft.ie/for-sale/detached-house-castlewarren-co-kilkenny/3982620
3984693,19671371,"66 The Fairways, Old Golf Links Road, Kilkenny, Co. Kilkenny",279950.0,86,86 m²,3,2,Semi-D,2022-08-05,D2,101944353,296.42 kWh/m2/yr,52.664344,-7.23879,Buy,KILKENNY,http://www.daft.ie/for-sale/semi-detached-house-66-the-fairways-old-golf-links-road-kilkenny-co-kilkenny/3984693
3495749,15962257,"Daffodil House, 25 Market Street, Thomastown, Co. Kilkenny",235000.0,115,115 m²,3,2,Terrace,2022-07-20,C3,800747115,296.36 kWh/m2/yr,52.525125,-7.138548,Buy,KILKENNY,http://www.daft.ie/for-sale/terraced-house-daffodil-house-25-market-street-thomastown-co-kilkenny/3495749
3983383,19655556,"Shankill, Paulstown, Co. Kilkenny",255000.0,85,85 m²,3,1,Detached,2022-08-10,G,,,52.706424,-7.036539,Buy,KILKENNY,http://www.daft.ie/for-sale/detached-house-shankill-paulstown-co-kilkenny/3983383
3983361,19653787,"The Green Door, The Mall, Thomastown, Co. Kilkenny",150000.0,75,75 m²,2,2,Semi-D,2022-08-03,SI_666,,,52.522051,-7.13675,Buy,KILKENNY,http://www.daft.ie/for-sale/semi-detached-house-the-green-door-the-mall-thomastown-co-kilkenny/3983361
3982626,19647424,"31 Roselawn, Bolton Woods, Callan, Co. Kilkenny",205000.0,84,84 m²,2,3,Terrace,2022-08-08,C1,114774094,,52.539933,-7.389533,Buy,KILKENNY,http://www.daft.ie/for-sale/terraced-house-31-roselawn-bolton-woods-callan-co-kilkenny/3982626
3982506,19645131,"Hilltop Lodge, Ballydowel, Kilkenny, Co. Kilkenny",450000.0,228,228 m²,4,3,Detached,2022-08-10,B3,115024986,131.36 kWh/m2/yr,52.70113,-7.366049,Buy,KILKENNY,http://www.daft.ie/for-sale/detached-house-hilltop-lodge-ballydowel-kilkenny-co-kilkenny/3982506
3982449,19643063,"13 Skeaugh, Callan, Co. Kilkenny",200000.0,90,90 m²,3,2,Semi-D,2022-08-10,C1,,,52.558102,-7.380378,Buy,KILKENNY,http://www.daft.ie/for-sale/semi-detached-house-13-skeaugh-callan-co-kilkenny/3982449
3982020,19637729,"Kildrinagh, Woodsgift, Urlingford, Co. Kilkenny",150000.0,N/A,,3,1,Detached,2022-08-10,F,,,52.690648,-7.503158,Buy,KILKENNY,http://www.daft.ie/for-sale/detached-house-kildrinagh-woodsgift-urlingford-co-kilkenny/3982020
3960734,19478357,"6 Rivercourt, Goresbridge, Co. Kilkenny",245000.0,102,102 m²,3,2,Semi-D,2022-08-08,D1,107443251,,52.629592,-6.991853,Buy,KILKENNY,http://www.daft.ie/for-sale/semi-detached-house-6-rivercourt-goresbridge-co-kilkenny/3960734
3981493,19632022,"Finnan, Ballyragget, Co. Kilkenny",155000.0,102,102 m²,3,1,Detached,2022-08-08,G,108199506,,52.798657,-7.306391,Buy,KILKENNY,http://www.daft.ie/for-sale/detached-house-finnan-ballyragget-co-kilkenny/3981493
3970122,19558601,"1 Loreto Lodge, Freshford Road, Kilkenny, Co. Kilkenny",290000.0,125,125 m²,4,2,Semi-D,2022-08-08,C3,,,52.660266,-7.259962,Buy,KILKENNY,http://www.daft.ie/for-sale/semi-detached-house-1-loreto-lodge-freshford-road-kilkenny-co-kilkenny/3970122
3978695,19615112,"Waddingstown, Mooncoin, Co. Kilkenny",425000.0,N/A,,3,2,Detached,2022-08-10,C2,,179.92 kWh/m2/yr,52.298257,-7.221546,Buy,KILKENNY,http://www.daft.ie/for-sale/detached-house-waddingstown-mooncoin-co-kilkenny/3978695
3978265,19609800,"Butlers Hill On Circa 9.64 Acres, Ballysallagh, Kilkenny, Co. Kilkenny",595000.0,261,261 m²,4,3,Detached,2022-08-10,C2,114427586,190.95 kWh/m2/yr,52.694779,-7.167386,Buy,KILKENNY,http://www.daft.ie/for-sale/detached-house-butlers-hill-on-circa-9-64-acres-ballysallagh-kilkenny-co-kilkenny/3978265
3975721,19599575,"39 Acorns Upper, Castlecomer, Co. Kilkenny",165000.0,119,119 m²,3,3,Semi-D,2022-08-05,C2,108761768,187.66 kWh/m2/yr,52.797688,-7.215494,Buy,KILKENNY,http://www.daft.ie/for-sale/semi-detached-house-39-acorns-upper-castlecomer-co-kilkenny/3975721
2579375,12718468,"Rerrin House, Dunamaggin, Kilkenny, Co. Kilkenny",295000.0,207,207 m²,4,2,Detached,2022-08-10,C3,113225783,220.49 kWh/m2/yr,52.50199,-7.296819,Buy,KILKENNY,http://www.daft.ie/for-sale/detached-house-rerrin-house-dunamaggin-kilkenny-co-kilkenny/2579375
3960733,19478356,"1 Father Walsh Close, Kilkenny, Co. Kilkenny",385000.0,120,120 m²,3,2,Detached,2022-08-08,B3,800857195,,52.64558,-7.253071,Buy,KILKENNY,http://www.daft.ie/for-sale/detached-house-1-father-walsh-close-kilkenny-co-kilkenny/3960733
3972153,19574355,"Cushlawn House, Castlecolumb, Knocktopher, Co. Kilkenny",450000.0,291,291 m²,6,8,Detached,2022-08-10,C3,103814752,223.67 kWh/m2/yr,52.487444,-7.198767,Buy,KILKENNY,http://www.daft.ie/for-sale/detached-house-cushlawn-house-castlecolumb-knocktopher-co-kilkenny/3972153
3972043,19573869,"Gragara, Jenkinstown, Co. Kilkenny",295000.0,110,110 m²,3,1,Detached,2022-08-10,C2,105565535,,52.73911,-7.269234,Buy,KILKENNY,http://www.daft.ie/for-sale/detached-house-gragara-jenkinstown-co-kilkenny/3972043
3971185,19567934,"49 Robert's Hill, Circular Road, Kilkenny, Co. Kilkenny",240000.0,124,124 m²,4,3,End of Terrace,2022-08-09,C1,103754123,,52.648057,-7.26396,Buy,KILKENNY,http://www.daft.ie/for-sale/end-of-terrace-house-49-roberts-hill-circular-road-kilkenny-co-kilkenny/3971185
3971339,19568897,"5 Burgess Court, Kells, Co. Kilkenny",510000.0,242,242 m²,4,3,Detached,2022-08-10,C1,115218661,171.09 kWh/m2/yr,52.536783,-7.271673,Buy,KILKENNY,http://www.daft.ie/for-sale/detached-house-5-burgess-court-kells-co-kilkenny/3971339
3970024,19557175,"Chantry House, Paulstown, Co. Kilkenny",850000.0,444,444 m²,5,7,Detached,2022-08-03,D2,107560815,,52.680624,-7.022238,Buy,KILKENNY,http://www.daft.ie/for-sale/detached-house-chantry-house-paulstown-co-kilkenny/3970024
3971221,19567953,"Lower Main Street, Graiguenamanagh, Co. Kilkenny",260000.0,274,274 m²,6,2,Terrace,2022-08-08,G,,,52.539957,-6.954904,Buy,KILKENNY,http://www.daft.ie/for-sale/terraced-house-lower-main-street-graiguenamanagh-co-kilkenny/3971221
3965571,19518720,"Graigueswood, Freshford, Co. Kilkenny",160000.0,117,117 m²,3,1,Detached,2022-08-03,G,115376923,,52.748812,-7.400105,Buy,KILKENNY,http://www.daft.ie/for-sale/detached-house-graigueswood-freshford-co-kilkenny/3965571
3969286,19553110,"Plum Cottage, Foulkscourt, Johnstown, Co. Kilkenny",250000.0,135,135 m²,4,2,Detached,2022-08-08,C3,,,52.751044,-7.572386,Buy,KILKENNY,http://www.daft.ie/for-sale/detached-house-plum-cottage-foulkscourt-johnstown-co-kilkenny/3969286
3967229,19532924,"Karsan, Luffany, Slieverue, Co. Waterford",350000.0,243,243 m²,12,3,Detached,2022-08-10,E1,114817059,320.84 kWh/m2/yr,52.294637,-7.056581,Buy,KILKENNY,http://www.daft.ie/for-sale/detached-house-karsan-luffany-slieverue-co-waterford/3967229
3967177,19532901,"Rathlikeen, Mullinavat, Co. Kilkenny",110000.0,2509,2509 m²,1,1,Detached,2022-07-22,SI_666,,,52.34057281,-7.13322463,Buy,KILKENNY,http://www.daft.ie/for-sale/detached-house-rathlikeen-mullinavat-co-kilkenny/3967177
3966168,19523511,"Karsan, Luffany, Slieverue, Co. Kilkenny",350000.0,243,243 m²,12,3,Detached,2022-08-10,E1,114817059,320.84 kWh/m2/yr,52.294637,-7.056581,Buy,KILKENNY,http://www.daft.ie/for-sale/detached-house-karsan-luffany-slieverue-co-kilkenny/3966168
3964971,19514905,"Churchview Lodge, Owning, Kilkenny, Co. Kilkenny",550000.0,159,159 m²,4,2,Detached,2022-08-10,D2,106646417,286.51 kWh/m2/yr,52.38817,-7.34423,Buy,KILKENNY,http://www.daft.ie/for-sale/detached-house-churchview-lodge-owning-kilkenny-co-kilkenny/3964971
3964204,19508496,"Smithstown, Smithstown, Co. Kilkenny",AMV: Price on Application,115,115 m²,3,1,Detached,2022-08-09,G,,,52.540442,-7.135965,Buy,KILKENNY,http://www.daft.ie/for-sale/detached-house-smithstown-smithstown-co-kilkenny/3964204
3960561,19478246,"Ballyreddin, Bennettsbridge, Co. Kilkenny",395000.0,178,178 m²,5,3,Detached,2022-08-03,C3,113826127,,52.59337,-7.180145,Buy,KILKENNY,http://www.daft.ie/for-sale/detached-house-ballyreddin-bennettsbridge-co-kilkenny/3960561
3963681,19505632,"Rathaleek, Kilkenny, Co. Kilkenny",420000.0,172,172 m²,4,2,Detached,2022-08-08,D2,114765589,,52.612594,-7.288624,Buy,KILKENNY,http://www.daft.ie/for-sale/detached-house-rathaleek-kilkenny-co-kilkenny/3963681
3961748,19490336,"Burnchurch Farm, Burnchurch, Burnchurch, Co. Kilkenny",AMV: Price on Application,100,100 m²,3,1,Detached,2022-08-10,F,115386625,,52.583447,-7.304277,Buy,KILKENNY,http://www.daft.ie/for-sale/detached-house-burnchurch-farm-burnchurch-burnchurch-co-kilkenny/3961748
3961629,19489301,"2 Brockton Avenue Hollybrook, Ferrybank, Co. Waterford",265000.0,110,110 m²,3,3,Semi-D,2022-08-10,C1,,,52.2715228,-7.1110344,Buy,KILKENNY,http://www.daft.ie/for-sale/semi-detached-house-2-brockton-avenue-hollybrook-ferrybank-co-waterford/3961629
3961611,19487093,"Fontenoy, Canal Walk, Castle Road, Kilkenny, Co. Kilkenny",925000.0,269,269 m²,5,4,Detached,2022-08-10,D1,108614637,244.1 kWh/m2/yr,52.647196,-7.23819,Buy,KILKENNY,http://www.daft.ie/for-sale/detached-house-fontenoy-canal-walk-castle-road-kilkenny-co-kilkenny/3961611
3959951,19471733,"146 Fé­odh Mor, Abbeylands, Ferrybank",229000.0,100,100 m²,3,3,Semi-D,2022-08-09,C1,,,52.265938,-7.087261,Buy,KILKENNY,http://www.daft.ie/for-sale/semi-detached-house-146-f-odh-mor-abbeylands-ferrybank/3959951
3960087,19472746,"Ballykenna, Tullogher, Co. Kilkenny",105000.0,102,102 m²,2,1,Detached,2022-08-10,G,115198806,1205.78 kWh/m2/yr,52.430934,-7.081589,Buy,KILKENNY,http://www.daft.ie/for-sale/detached-house-ballykenna-tullogher-co-kilkenny/3960087
3959647,19468139,"28 Aylesbury Avenue, Aylesbury, Ferrybank",350000.0,135,135 m²,4,3,Detached,2022-07-20,C1,,,52.27183,-7.094531,Buy,KILKENNY,http://www.daft.ie/for-sale/detached-house-28-aylesbury-avenue-aylesbury-ferrybank/3959647
3959242,19464277,"9 Springmount, Waterford Road, Kilkenny, Co. Kilkenny",479950.0,170,170 m²,5,3,Detached,2022-08-10,D2,,,52.633921,-7.250365,Buy,KILKENNY,http://www.daft.ie/for-sale/detached-house-9-springmount-waterford-road-kilkenny-co-kilkenny/3959242
3947874,19402955,"10 Chapelfields, Urlingford, Co. Kilkenny",175000.0,102,102 m²,3,3,Semi-D,2022-08-08,C1,115000036,,52.721403,-7.577793,Buy,KILKENNY,http://www.daft.ie/for-sale/semi-detached-house-10-chapelfields-urlingford-co-kilkenny/3947874
3947885,19402964,"Cappagh, Inistioge, Co. Kilkenny",250000.0,93,93 m²,2,1,Detached,2022-08-08,F,103578076,,52.503654,-7.075596,Buy,KILKENNY,http://www.daft.ie/for-sale/detached-house-cappagh-inistioge-co-kilkenny/3947885
3957602,19447849,"13 Hatchery Lane, Inistioge, Co. Kilkenny",175000.0,75,75 m²,2,2,Terrace,2022-08-10,D2,114484397,287.69 kWh/m2/yr,52.488641,-7.067858,Buy,KILKENNY,http://www.daft.ie/for-sale/terraced-house-13-hatchery-lane-inistioge-co-kilkenny/3957602
3957542,19447817,"Railway House, Ballykeoghan, Kilmacow, Co. Kilkenny",295000.0,133,133 m²,3,2,Detached,2022-08-10,D2,115022360,285.41 kWh/m2/yr,52.324792,-7.153649,Buy,KILKENNY,http://www.daft.ie/for-sale/detached-house-railway-house-ballykeoghan-kilmacow-co-kilkenny/3957542
3957355,19445885,"Cappagh Stone House, Inistioge, Co. Kilkenny",975000.0,N/A,2 ac,4,3,Detached,2022-08-09,B2,108585522,,52.503815,-7.074732,Buy,KILKENNY,http://www.daft.ie/for-sale/detached-house-cappagh-stone-house-inistioge-co-kilkenny/3957355
3956282,19436778,"14 New Road, Kilkenny, Co. Kilkenny",375000.0,N/A,,2,1,Detached,2022-08-03,B3,115026106,,52.659359,-7.250273,Buy,KILKENNY,http://www.daft.ie/for-sale/detached-house-14-new-road-kilkenny-co-kilkenny/3956282
3946750,19391722,"41 Glendine Heights, Kilkenny, Co. Kilkenny",495000.0,122,122 m²,4,2,Detached,2022-08-05,D1,107298432,253.78 kWh/m2/yr,52.671803,-7.252521,Buy,KILKENNY,http://www.daft.ie/for-sale/detached-house-41-glendine-heights-kilkenny-co-kilkenny/3946750
3945866,19380203,"53 Rosewood, Johnswell Road, Kilkenny, Co. Kilkenny",185000.0,63,63 m²,2,1,Terrace,2022-08-10,C3,103839973,215.13 kWh/m2/yr,52.664301,-7.234545,Buy,KILKENNY,http://www.daft.ie/for-sale/terraced-house-53-rosewood-johnswell-road-kilkenny-co-kilkenny/3945866
3944263,19366686,"Jerpoint Walled Garden, Jerpoint Church, Thomastown, Co. Kilkenny",725000.0,248,248 m²,5,3,Detached,2022-08-09,B2,115053407,,52.515148,-7.175961,Buy,KILKENNY,http://www.daft.ie/for-sale/detached-house-jerpoint-walled-garden-jerpoint-church-thomastown-co-kilkenny/3944263
3800796,18650451,"15 William Street, Kilkenny, Co. Kilkenny",265000.0,125,125 m²,4,2,Terrace,2022-08-08,E1,110297462,,52.651343,-7.254629,Buy,KILKENNY,http://www.daft.ie/for-sale/terraced-house-15-william-street-kilkenny-co-kilkenny/3800796
3944146,19365045,"Danganbeg, Knocktopher, Co. Kilkenny",228000.0,118,118 m²,3,1,Detached,2022-07-25,D1,,,52.497543,-7.255995,Buy,KILKENNY,http://www.daft.ie/for-sale/detached-house-danganbeg-knocktopher-co-kilkenny/3944146
3943247,19355108,"Meallaghmore Upper, Windgap, Co. Kilkenny",250000.0,N/A,,4,2,Detached,2022-08-05,E2,115015190,,52.452439,-7.39703,Buy,KILKENNY,http://www.daft.ie/for-sale/detached-house-meallaghmore-upper-windgap-co-kilkenny/3943247
3940559,19328295,"12 Breagagh Court, Kennyswell Road, Kilkenny, Co. Kilkenny",300000.0,124,124 m²,4,4,Terrace,2022-08-10,C1,114865819,159.02 kWh/m2/yr,52.653051,-7.263563,Buy,KILKENNY,http://www.daft.ie/for-sale/terraced-house-12-breagagh-court-kennyswell-road-kilkenny-co-kilkenny/3940559
3940393,19325871,"7 Waltons Grove, Mount Juliet Estate, Thomastown, Co. Kilkenny",750000.0,221,221 m²,4,4,End of Terrace,2022-08-10,C1,115172603,163.71 kWh/m2/yr,52.534455,-7.19591,Buy,KILKENNY,http://www.daft.ie/for-sale/end-of-terrace-house-7-waltons-grove-mount-juliet-estate-thomastown-co-kilkenny/3940393
3939698,19321496,"Bramble Lodge, Bramblestown, Gowran, Co. Kilkenny",395000.0,176,176 m²,4,3,Detached,2022-08-10,C2,115048993,197.55 kWh/m2/yr,52.583105,-7.0472,Buy,KILKENNY,http://www.daft.ie/for-sale/detached-house-bramble-lodge-bramblestown-gowran-co-kilkenny/3939698
3938245,19308261,"Kylemore, New Ross, Co. Kilkenny",325000.0,145,145 m²,4,2,Detached,2022-06-17,D2,115043945,,52.422582,-6.935646,Buy,KILKENNY,http://www.daft.ie/for-sale/detached-house-kylemore-new-ross-co-kilkenny/3938245
3938124,19306969,"38 Rosewood, Johnswell Road, Kilkenny, Co. Kilkenny",185000.0,60,60 m²,2,1,Terrace,2022-08-10,C3,112442900,,52.663882,-7.235614,Buy,KILKENNY,http://www.daft.ie/for-sale/terraced-house-38-rosewood-johnswell-road-kilkenny-co-kilkenny/3938124
3937758,19303590,"'Beaulieu', Garnarea, Piltown, Co. Kilkenny",500000.0,N/A,,5,4,Detached,2022-08-08,C3,,,52.35798,-7.362312,Buy,KILKENNY,http://www.daft.ie/for-sale/detached-house-beaulieu-garnarea-piltown-co-kilkenny/3937758
3936229,19285852,"Grannagh Castle, Waterford",Price on Application,N/A,,3,1,Detached,2022-08-08,G,,,52.281725,-7.162327,Buy,KILKENNY,http://www.daft.ie/for-sale/detached-house-grannagh-castle-waterford/3936229
3935464,19280059,"8 Broguemaker's Hill, Kilkenny, Co. Kilkenny",595000.0,147,147 m²,4,2,Detached,2022-08-09,B3,107684276,,52.659766,-7.251956,Buy,KILKENNY,http://www.daft.ie/for-sale/detached-house-8-broguemakers-hill-kilkenny-co-kilkenny/3935464
3820962,18825429,"Coolnabrone, Kilkenny, Co. Kilkenny",385000.0,191,191 m²,5,3,Detached,2022-08-08,B3,112437355,,52.594134,-6.958136,Buy,KILKENNY,http://www.daft.ie/for-sale/detached-house-coolnabrone-kilkenny-co-kilkenny/3820962
3931498,19239655,"Ballinlough, Carrigeen, Co. Kilkenny",450000.0,190,190 m²,4,3,Detached,2022-08-10,C1,114886096,165.52 kWh/m2/yr,52.286649,-7.227921,Buy,KILKENNY,http://www.daft.ie/for-sale/detached-house-ballinlough-carrigeen-co-kilkenny/3931498
3932259,19247044,"Condonstown, Boolyglass, Hugginstown, Co. Kilkenny",250000.0,N/A,,3,1,Detached,2022-06-21,G,,,52.45331098815936,-7.251934282271577,Buy,KILKENNY,http://www.daft.ie/for-sale/detached-house-condonstown-boolyglass-hugginstown-co-kilkenny/3932259
3927074,19198921,"16 The Lawn, Waterford",239000.0,110,110 m²,4,3,Semi-D,2022-08-10,C1,104985015,162.97 kWh/m2/yr,52.269908,-7.085126,Buy,KILKENNY,http://www.daft.ie/for-sale/semi-detached-house-16-the-lawn-waterford/3927074
3926884,19196765,"64 Maudlin Court, Thomastown, Co. Kilkenny",245000.0,98,98 m²,3,3,Semi-D,2022-08-10,C1,115025470,170.92 kWh/m2/yr,52.531398,-7.136634,Buy,KILKENNY,http://www.daft.ie/for-sale/semi-detached-house-64-maudlin-court-thomastown-co-kilkenny/3926884
3955545,19426631,"Friary Walk , Friary Walk, Callan, Callan, Co. Kilkenny",255000.0,N/A,,3,3,Terrace,2022-06-28,A2,,,52.55080341843484,-7.374530644066169,New Homes,KILKENNY,http://www.daft.ie/new-home-for-sale/terraced-house-cherry-friary-walk-friary-walk-friary-walk-callan-callan-co-kilkenny/3955545
3955546,19426632,"Friary Walk , Friary Walk, Callan, Callan, Co. Kilkenny",289999.0,N/A,,4,3,End of Terrace,2022-06-28,A2,,,52.55080341843484,-7.374530644066169,New Homes,KILKENNY,http://www.daft.ie/new-home-for-sale/end-of-terrace-house-sycamore-friary-walk-friary-walk-friary-walk-callan-callan-co-kilkenny/3955546
3934274,19268483,"Friary Walk , Friary Walk, Callan, Callan, Co. Kilkenny",299999.0,N/A,,4,3,Semi-D,2022-06-28,A2,,,52.55080341843484,-7.374530644066169,New Homes,KILKENNY,http://www.daft.ie/new-home-for-sale/semi-detached-house-the-ash-friary-walk-friary-walk-friary-walk-callan-callan-co-kilkenny/3934274
3923405,19160258,"9 Rockfield, Gowran, Co. Kilkenny",295000.0,111,111 m²,4,1,Detached,2022-08-08,D1,108462854,,52.63176,-7.065703,Buy,KILKENNY,http://www.daft.ie/for-sale/detached-house-9-rockfield-gowran-co-kilkenny/3923405
3924738,19173256,"Tower Hill, Piltown, Co. Kilkenny",285000.0,139,139 m²,3,2,Semi-D,2022-08-10,D1,115018616,235.05 kWh/m2/yr,52.352037,-7.337788,Buy,KILKENNY,http://www.daft.ie/for-sale/semi-detached-house-tower-hill-piltown-co-kilkenny/3924738
3923850,19164505,"31 Kilkenny Street, Castlecomer, Co. Kilkenny","AMV: €75,000",87,87 m²,3,1,Terrace,2022-06-27,F,,,52.803128,-7.210431,Buy,KILKENNY,http://www.daft.ie/for-sale/terraced-house-31-kilkenny-street-castlecomer-co-kilkenny/3923850
3895656,18907475,"79 Glen Vale, Ballyragget, Co. Kilkenny",380000.0,177,177 m²,4,3,Detached,2022-08-08,B3,115028490,,52.78811,-7.33066,Buy,KILKENNY,http://www.daft.ie/for-sale/detached-house-79-glen-vale-ballyragget-co-kilkenny/3895656
3916809,19105680,"43 Friary Street, Kilkenny, Co. Kilkenny",Price on Application,149,149 m²,5,4,Terrace,2022-08-08,G,115207128,,52.650355,-7.254713,Buy,KILKENNY,http://www.daft.ie/for-sale/terraced-house-43-friary-street-kilkenny-co-kilkenny/3916809
3441920,15536076,"Hazyview Lodge,Cullaun, Inistioge, Co. Kilkenny",215000.0,345,345 m²,5,3,Detached,2022-07-04,SI_666,,,52.45640784181052,-7.023368195670173,Buy,KILKENNY,http://www.daft.ie/for-sale/detached-house-hazyview-lodge-cullaun-inistioge-co-kilkenny/3441920
3921601,19150835,"The Blue House, Dungarvan, Co. Kilkenny",390000.0,165,165 m²,3,3,Detached,2022-08-10,C2,115028953,199.16 kWh/m2/yr,52.583685,-7.103884,Buy,KILKENNY,http://www.daft.ie/for-sale/detached-house-the-blue-house-dungarvan-co-kilkenny/3921601
3921586,19150829,"Rathinure, Glenmore, Co. Kilkenny",395000.0,277,277 m²,4,4,Detached,2022-07-22,B2,,,52.331413,-7.025575,Buy,KILKENNY,http://www.daft.ie/for-sale/detached-house-rathinure-glenmore-co-kilkenny/3921586
3921282,19148282,"Templemartin, Clara, Co. Kilkenny",295000.0,89,89 m²,3,1,Detached,2022-08-09,D2,115028763,290.47 kWh/m2/yr,52.6553596,-7.1825105,Buy,KILKENNY,http://www.daft.ie/for-sale/detached-house-templemartin-clara-co-kilkenny/3921282
3921148,19147478,"Tibrennoch, Coolnaleen, Slieverue, Co. Kilkenny",290000.0,136,136 m²,4,2,Detached,2022-08-08,D1,115024929,251.91 kWh/m2/yr,52.329026,-7.08894,Buy,KILKENNY,http://www.daft.ie/for-sale/detached-house-tibrennoch-coolnaleen-slieverue-co-kilkenny/3921148
3919569,19133547,"Garranaman, Kells, Co. Kilkenny",125000.0,50,50 m²,3,,Detached,2022-08-10,G,,,52.560484,-7.27476,Buy,KILKENNY,http://www.daft.ie/for-sale/detached-house-garranaman-kells-co-kilkenny/3919569
3917599,19112590,"3 Pudding Lane, Kilkenny, Co. Kilkenny",375000.0,106,106 m²,4,2,Detached,2022-08-10,C3,114522022,223.62 kWh/m2/yr,52.650822,-7.252956,Buy,KILKENNY,http://www.daft.ie/for-sale/detached-house-3-pudding-lane-kilkenny-co-kilkenny/3917599
3913547,19079391,"Monteen, Crettyard, Kilkenny, Co. Kilkenny",375000.0,100,100 m²,3,1,Detached,2022-07-04,G,,,52.82331,-7.124231,Buy,KILKENNY,http://www.daft.ie/for-sale/detached-house-monteen-crettyard-kilkenny-co-kilkenny/3913547
3911546,19063693,"85 Maudlin Street, Kilkenny, Co. Kilkenny",530000.0,205,205 m²,5,7,Terrace,2022-08-10,C1,114840440,159.54 kWh/m2/yr,52.652906,-7.246375,Buy,KILKENNY,http://www.daft.ie/for-sale/terraced-house-85-maudlin-street-kilkenny-co-kilkenny/3911546
3908027,19027849,"32 Patrick STREET, Kilkenny, Co. Kilkenny",695000.0,328,328 m²,5,2,End of Terrace,2022-08-10,,,,52.650138,-7.25201,Buy,KILKENNY,http://www.daft.ie/for-sale/end-of-terrace-house-32-patrick-street-kilkenny-co-kilkenny/3908027
3800565,18647976,"Lime Tree House, Grange Upper, Gowran, Co. Kilkenny",695000.0,251,251 m²,4,4,Detached,2022-08-10,B3,114823996,148.27 kWh/m2/yr,52.613962,-7.035167,Buy,KILKENNY,http://www.daft.ie/for-sale/detached-house-lime-tree-house-grange-upper-gowran-co-kilkenny/3800565
3907222,19023012,"Dublin Road, Dungarvan, Co. Kilkenny",350000.0,158,158 m²,4,1,Detached,2022-05-25,SI_666,,,52.58661202855561,-7.09534498626428,Buy,KILKENNY,http://www.daft.ie/for-sale/detached-house-dublin-road-dungarvan-co-kilkenny/3907222
3486156,15869970,"Teach Mountgale, Mountgale, Rathmoyle, Co. Kilkenny",488000.0,364,364 m²,5,3,Detached,2022-07-12,E2,,,52.672073,-7.368065,Buy,KILKENNY,http://www.daft.ie/for-sale/detached-house-teach-mountgale-mountgale-rathmoyle-co-kilkenny/3486156
3901205,18965824,"23 Chapel Gate, Kilmacow, Co. Waterford",249000.0,106,106 m²,3,3,Semi-D,2022-08-10,C1,112281324,165.87 kWh/m2/yr,52.314376,-7.1819167,Buy,KILKENNY,http://www.daft.ie/for-sale/semi-detached-house-23-chapel-gate-kilmacow-co-waterford/3901205
3899577,18949325,"Marsh's Street, Thomastown, Co. Kilkenny",195000.0,98,98 m²,2,1,Detached,2022-08-10,G,112456728,,52.525433,-7.139759,Buy,KILKENNY,http://www.daft.ie/for-sale/detached-house-marshs-street-thomastown-co-kilkenny/3899577
3893339,18890300,"15 Archersfield, Kilmoganny, Co. Kilkenny",225000.0,102,102 m²,3,2,Semi-D,2022-08-08,C2,115012387,,52.463544,-7.327378,Buy,KILKENNY,http://www.daft.ie/for-sale/semi-detached-house-15-archersfield-kilmoganny-co-kilkenny/3893339
3897733,18925580,"Jenkinstown House, Jenkinstown Park, Kilkenny, Co. Kilkenny",1050000.0,619,619 m²,3,2,Detached,2022-06-27,SI_666,,,52.73415917166008,-7.287574684006643,Buy,KILKENNY,http://www.daft.ie/for-sale/detached-house-jenkinstown-house-jenkinstown-park-kilkenny-co-kilkenny/3897733
3892900,18888025,"Deerpark, Inistioge, Co. Kilkenny",335000.0,145,145 m²,4,1,Detached,2022-05-14,B3,114852668,,52.477825,-7.071651,Buy,KILKENNY,http://www.daft.ie/for-sale/detached-house-deerpark-inistioge-co-kilkenny/3892900
3891998,18880415,"23 Chapelgate, Kilmacow, Co. Kilkenny",249000.0,106,106 m²,3,2,Semi-D,2022-08-10,C1,112281324,165.87 kWh/m2/yr,52.314319,-7.181858,Buy,KILKENNY,http://www.daft.ie/for-sale/semi-detached-house-23-chapelgate-kilmacow-co-kilkenny/3891998
3824551,18856992,"8 Waltons Grove, Mount Juliet Estate, Thomastown, Co. Kilkenny",860000.0,263,263 m²,4,4,Detached,2022-08-10,C3,114151392,221.21 kWh/m2/yr,52.534455,-7.19591,Buy,KILKENNY,http://www.daft.ie/for-sale/detached-house-8-waltons-grove-mount-juliet-estate-thomastown-co-kilkenny/3824551
3824401,18856946,"Haggard, Glenmore, Co. Kilkenny",280000.0,116,116 m²,3,1,Detached,2022-07-22,G,,,52.353351,-7.077947,Buy,KILKENNY,http://www.daft.ie/for-sale/detached-house-haggard-glenmore-co-kilkenny/3824401
3824060,18854733,"35 Greenoaks, Rockshire Road, Ferrybank",225000.0,96,96 m²,3,1,Semi-D,2022-07-22,C2,,,52.270424,-7.103239,Buy,KILKENNY,http://www.daft.ie/for-sale/semi-detached-house-35-greenoaks-rockshire-road-ferrybank/3824060
3822780,18844445,"Prologue, Callan, Co. Kilkenny",320000.0,261,261 m²,5,2,Semi-D,2022-07-22,C3,,214.46 kWh/m2/yr,52.542085,-7.392073,Buy,KILKENNY,http://www.daft.ie/for-sale/semi-detached-house-prologue-callan-co-kilkenny/3822780
3813832,18762040,"26 Michael Street, Kilkenny, Co. Kilkenny",275000.0,102,102 m²,3,1,Terrace,2022-08-08,D1,,,52.654987,-7.250512,Buy,KILKENNY,http://www.daft.ie/for-sale/terraced-house-26-michael-street-kilkenny-co-kilkenny/3813832
3653749,17327573,"null, Galmoy, Co. Kilkenny",225000.0,119,119 m²,3,2,Detached,2022-05-25,SI_666,,,52.793244,-7.566279,Buy,KILKENNY,http://www.daft.ie/for-sale/detached-house-null-galmoy-co-kilkenny/3653749
3819755,18813312,"31 Aylesbury, Freshford Road, Kilkenny, Co. Kilkenny",310000.0,116,116 m²,4,2,Detached,2022-08-09,C3,114861511,,52.664507,-7.258258,Buy,KILKENNY,http://www.daft.ie/for-sale/detached-house-31-aylesbury-freshford-road-kilkenny-co-kilkenny/3819755
3819478,18811513,"Turkstown, Piltown, Co. Kilkenny",410000.0,336,336 m²,4,4,Detached,2022-08-08,C1,114511678,158.32 kWh/m2/yr,52.326638,-7.304692,Buy,KILKENNY,http://www.daft.ie/for-sale/detached-house-turkstown-piltown-co-kilkenny/3819478
3819420,18811506,"3, Hugginstown, Co. Kilkenny",410000.0,219,219 m²,4,3,Detached,2022-08-08,B2,114859440,113.73 kWh/m2/yr,52.457828,-7.252605,Buy,KILKENNY,http://www.daft.ie/for-sale/detached-house-3-hugginstown-co-kilkenny/3819420
3775220,18430256,"No. 7 Bradog Way, Gowran, Co. Kilkenny",260000.0,116,116 m²,4,3,Semi-D,2022-05-23,B3,,,52.627642,-7.071134,Buy,KILKENNY,http://www.daft.ie/for-sale/semi-detached-house-no-7-bradog-way-gowran-co-kilkenny/3775220
3816851,18789054,"29 Hollybank Way, Clongowen, Kilkenny, Co. Kilkenny",290000.0,136,136 m²,5,3,Semi-D,2022-08-09,C3,114884281,203.69 kWh/m2/yr,52.639775,-7.2527,Buy,KILKENNY,http://www.daft.ie/for-sale/semi-detached-house-29-hollybank-way-clongowen-kilkenny-co-kilkenny/3816851
3816559,18786140,"Tullvolty, Johnstown, Johnstown, Co. Kilkenny",170000.0,65,65 m²,2,1,Detached,2022-08-03,G,114853476,655.19 kWh/m2/yr,52.76476882268241,-7.5722831783677975,Buy,KILKENNY,http://www.daft.ie/for-sale/detached-house-tullvolty-johnstown-johnstown-co-kilkenny/3816559
3809243,18729067,"49 Chapelfields, Kilkenny, Co. Kilkenny",180000.0,102,102 m²,3,3,Semi-D,2022-08-08,B3,,,52.720053,-7.576788,Buy,KILKENNY,http://www.daft.ie/for-sale/semi-detached-house-49-chapelfields-kilkenny-co-kilkenny/3809243
3806115,18703133,"1 Main Street, Piltown, Co. Kilkenny",200000.0,121,121 m²,3,2,Semi-D,2022-08-10,SI_666,,,52.350854,-7.330148,Buy,KILKENNY,http://www.daft.ie/for-sale/semi-detached-house-1-main-street-piltown-co-kilkenny/3806115
3805506,18694796,"Glendine Cottage, Newhouse, Thomastown, Co. Kilkenny",345000.0,N/A,,5,4,Detached,2022-08-08,D1,114647530,248.45 kWh/m2/yr,52.556797,-7.160195,Buy,KILKENNY,http://www.daft.ie/for-sale/detached-house-glendine-cottage-newhouse-thomastown-co-kilkenny/3805506
3804048,18681864,"49 College Square, College Road, Kilkenny, Co. Kilkenny",425000.0,124,124 m²,4,3,Semi-D,2022-08-03,C1,102268299,,52.643456,-7.258322,Buy,KILKENNY,http://www.daft.ie/for-sale/semi-detached-house-49-college-square-college-road-kilkenny-co-kilkenny/3804048
3797030,18621347,"7 The Pines, Roseleigh, Mooncoin, Co. Kilkenny",270000.0,127,127 m²,4,2,Semi-D,2022-07-15,B3,110772480,146.79 kWh/m2/yr,52.292788,-7.25696,Buy,KILKENNY,http://www.daft.ie/for-sale/semi-detached-house-7-the-pines-roseleigh-mooncoin-co-kilkenny/3797030
3794212,18598701,"House and Retail Unit Turfmarket Graiguenamangh, Graiguenamanagh, Co. Kilkenny",275000.0,113,113 m²,4,2,Townhouse,2022-08-09,E1,114766993,334.4 kWh/m2/yr,52.540401,-6.955752,Buy,KILKENNY,http://www.daft.ie/for-sale/townhouse-house-and-retail-unit-turfmarket-graiguenamangh-graiguenamanagh-co-kilkenny/3794212
3794488,18599138,"Saddle Hill Farmhouse, Blessington, Thomastown, Co. Kilkenny",650000.0,224,224 m²,5,4,Detached,2022-08-10,B2,114682339,118.54 kWh/m2/yr,52.529006,-7.050885,Buy,KILKENNY,http://www.daft.ie/for-sale/detached-house-saddle-hill-farmhouse-blessington-thomastown-co-kilkenny/3794488
3793839,18595518,"Kilmanahin, Piltown, Co. Kilkenny",420000.0,199,199 m²,3,2,Detached,2022-08-08,D1,102331162,225.48 kWh/m2/yr,52.380327,-7.32169,Buy,KILKENNY,http://www.daft.ie/for-sale/detached-house-kilmanahin-piltown-co-kilkenny/3793839
3787273,18542159,"Bobbit Cottage, Raheendonore, Graiguenamanagh, Co. Kilkenny","AMV: €170,000",87,87 m²,2,1,Detached,2022-08-10,E1,112928684,376.49 kWh/m2/yr,52.517782,-7.024052,Buy,KILKENNY,http://www.daft.ie/for-sale/detached-house-bobbit-cottage-raheendonore-graiguenamanagh-co-kilkenny/3787273
3786702,18537695,"Bobbit Cottage, Raheendonore, Graiguenamanagh, Co. Kilkenny","AMV: €170,000",87,87 m²,2,1,Detached,2022-08-10,E1,,,52.517782,-7.024052,Buy,KILKENNY,http://www.daft.ie/for-sale/detached-house-bobbit-cottage-raheendonore-graiguenamanagh-co-kilkenny/3786702
3786032,18532796,"Green Street, Callan, Co. Kilkenny",150000.0,N/A,,3,2,Terrace,2022-06-28,G,,,52.543438,-7.390569,Buy,KILKENNY,http://www.daft.ie/for-sale/terraced-house-green-street-callan-co-kilkenny/3786032
3785586,18528066,"Low Street, Thomastown, Co. Kilkenny",Price on Application,165,165 m²,4,2,Terrace,2022-08-08,F,800841595,,52.525091,-7.137948,Buy,KILKENNY,http://www.daft.ie/for-sale/terraced-house-low-street-thomastown-co-kilkenny/3785586
3773804,18415628,"Foulksrath, Callan, Co. Kilkenny",275000.0,186,186 m²,5,2,Detached,2022-07-06,D2,,,52.532164,-7.406899,Buy,KILKENNY,http://www.daft.ie/for-sale/detached-house-foulksrath-callan-co-kilkenny/3773804
3765595,18354475,"9 Troy's Green, Green Street, Kilkenny, Co. Kilkenny",295000.0,134,134 m²,4,3,Detached,2022-06-29,C3,114753452,,52.658615,-7.255763,Buy,KILKENNY,http://www.daft.ie/for-sale/detached-house-9-troys-green-green-street-kilkenny-co-kilkenny/3765595
3765527,18354441,"73/74 John Street Lower, Kilkenny, Co. Kilkenny",700000.0,232,232 m²,6,4,End of Terrace,2022-08-08,C2,800303349,,52.652738,-7.248715,Buy,KILKENNY,http://www.daft.ie/for-sale/end-of-terrace-house-73-74-john-street-lower-kilkenny-co-kilkenny/3765527
3756718,18287002,"30 Seville Lawns, Margarets Fields, Kilkenny, Co. Kilkenny",400000.0,156,156 m²,4,3,Detached,2022-08-03,C2,,,52.638648,-7.269953,Buy,KILKENNY,http://www.daft.ie/for-sale/detached-house-30-seville-lawns-margarets-fields-kilkenny-co-kilkenny/3756718
3748401,18223576,"Hebron House, Hebron Road, Kilkenny, Co. Kilkenny",Price on Application,209,209 m²,4,1,Detached,2022-08-10,SI_666,,,52.657961575451395,-7.222078506009211,Buy,KILKENNY,http://www.daft.ie/for-sale/detached-house-hebron-house-hebron-road-kilkenny-co-kilkenny/3748401
3743306,18169481,"Carrickshock, Knocktopher, Co. Kilkenny",455000.0,215,215 m²,4,3,Detached,2022-08-10,C2,114696602,181.43 kWh/m2/yr,52.455452,-7.240653,Buy,KILKENNY,http://www.daft.ie/for-sale/detached-house-carrickshock-knocktopher-co-kilkenny/3743306
3710403,17860593,"The Views, Pleberstown, Thomastown, Co. Kilkenny",550000.0,267,267 m²,4,5,Detached,2022-08-10,B3,114632649,133.93 kWh/m2/yr,52.492384,-7.140946,Buy,KILKENNY,http://www.daft.ie/for-sale/detached-house-the-views-pleberstown-thomastown-co-kilkenny/3710403
3144854,14089917,"1 No  Old Road, Urlingford, Co. Kilkenny",90000.0,67,67 m²,3,1,Terrace,2022-05-13,G,113734255,638.39 kWh/m2/yr,52.719646,-7.582358,Buy,KILKENNY,http://www.daft.ie/for-sale/terraced-house-1-no-old-road-urlingford-co-kilkenny/3144854
3542400,16201171,"6 Rose Gardens, Rose Hill, Kells Road, Kilkenny, Co. Kilkenny",750000.0,301,301 m²,6,6,Detached,2022-08-10,B2,109747808,119.73 kWh/m2/yr,52.639618,-7.257386,Buy,KILKENNY,http://www.daft.ie/for-sale/detached-house-6-rose-gardens-rose-hill-kells-road-kilkenny-co-kilkenny/3542400
3677330,17603609,"The Old School House, Kilkenny, Co. Kilkenny",775000.0,376,376 m²,4,3,Detached,2022-08-10,C2,113280226,184.64 kWh/m2/yr,52.73119,-7.27663,Buy,KILKENNY,http://www.daft.ie/for-sale/detached-house-the-old-school-house-kilkenny-co-kilkenny/3677330
3661517,17438522,"Cappahayden, Callan, Co. Kilkenny",375000.0,N/A,,4,2,Detached,2022-08-05,C2,,,52.561225,-7.429954,Buy,KILKENNY,http://www.daft.ie/for-sale/detached-house-cappahayden-callan-co-kilkenny/3661517
3648964,17265941,"Rathsnagadan, Inistioge, Co. Kilkenny",Price on Application,260,260 m²,4,2,Detached,2021-12-09,A3,114499007,,52.45175458,-7.01164506,Buy,KILKENNY,http://www.daft.ie/for-sale/detached-house-rathsnagadan-inistioge-co-kilkenny/3648964
3636058,17086052,"Tom Grant's House, Ballygorey, Mooncoin, Co. Kilkenny",125000.0,25,25 m²,1,1,Detached,2022-08-10,SI_666,,,52.273558,-7.233053,Buy,KILKENNY,http://www.daft.ie/for-sale/detached-house-tom-grants-house-ballygorey-mooncoin-co-kilkenny/3636058
3603385,16815595,"Rochestown, Glenmore, Co. Kilkenny",90000.0,40,40 m²,3,1,Detached,2022-07-22,G,,,52.321999,-7.011068,Buy,KILKENNY,http://www.daft.ie/for-sale/detached-house-rochestown-glenmore-co-kilkenny/3603385
3588095,16641621,"House Sites In Mount Juliet Estate, Thomastown, Co. Kilkenny",450000.0,N/A,,4,,Detached,2022-08-10,SI_666,,,52.526911,-7.189,Buy,KILKENNY,http://www.daft.ie/for-sale/detached-house-house-sites-in-mount-juliet-estate-thomastown-co-kilkenny/3588095
3568825,16427551,"Scuffy Duffy's, Mill Street, Callan, Co. Kilkenny",300000.0,232,232 m²,4,2,Semi-D,2022-08-08,D2,,,52.544181,-7.387903,Buy,KILKENNY,http://www.daft.ie/for-sale/semi-detached-house-scuffy-duffys-mill-street-callan-co-kilkenny/3568825
3558337,16310585,"Kilcross, Inistioge, Co. Kilkenny",450000.0,163,163 m²,4,3,Detached,2022-06-14,E2,,,52.48880977,-7.04491161,Buy,KILKENNY,http://www.daft.ie/for-sale/detached-house-kilcross-inistioge-co-kilkenny/3558337
3508929,16052878,"No 2  River Gardens  , Greenshill, Kilkenny, Co. Kilkenny",875000.0,291,291 m²,5,4,Detached,2022-03-01,A2,,,52.66441327979746,-7.253724893258379,Buy,KILKENNY,http://www.daft.ie/for-sale/detached-house-no-2-river-gardens-greenshill-kilkenny-co-kilkenny/3508929
3486846,15875897,"Green Street, Callan, Co. Kilkenny",180000.0,242,242 m²,5,,Terrace,2022-08-10,E2,,,52.543587,-7.390973,Buy,KILKENNY,http://www.daft.ie/for-sale/terraced-house-green-street-callan-co-kilkenny/3486846
3439678,15519800,"Kilmurry House, Thomastown, Co. Kilkenny",7500000.0,1659,1659 m²,11,8,Detached,2022-08-10,SI_666,,,52.544606,-7.115018,Buy,KILKENNY,http://www.daft.ie/for-sale/detached-house-kilmurry-house-thomastown-co-kilkenny/3439678
3220761,14805390,"The Market House, Market Street, Thomastown, Co. Kilkenny",275000.0,400,400 m²,5,1,Townhouse,2022-08-03,D2,,,52.525632,-7.138577,Buy,KILKENNY,http://www.daft.ie/for-sale/townhouse-the-market-house-market-street-thomastown-co-kilkenny/3220761
3201879,14631462,"Blue Bell Cottage, Dungarvan, Co. Kilkenny",75000.0,42,42 m²,2,1,Terrace,2022-08-08,SI_666,,,52.586534,-7.096261,Buy,KILKENNY,http://www.daft.ie/for-sale/terraced-house-blue-bell-cottage-dungarvan-co-kilkenny/3201879
3201881,14631464,"Snowdrop Cottage, Dungarvan, Co. Kilkenny",75000.0,45,45 m²,2,1,End of Terrace,2022-08-08,SI_666,,,52.586515,-7.096331,Buy,KILKENNY,http://www.daft.ie/for-sale/end-of-terrace-house-snowdrop-cottage-dungarvan-co-kilkenny/3201881
3201870,14631457,"Main Street, Paulstown, Co. Kilkenny",280000.0,204,204 m²,5,3,Detached,2022-08-08,C2,113838981,,52.679465,-7.022466,Buy,KILKENNY,http://www.daft.ie/for-sale/detached-house-main-street-paulstown-co-kilkenny/3201870
3155737,14177751,"15 The Fairways, Rockshire Road, Waterford, Co. Waterford",275000.0,109,109 m²,3,1,Semi-D,2022-08-10,C2,113740526,187.56 kWh/m2/yr,52.268348,-7.107207,Buy,KILKENNY,http://www.daft.ie/for-sale/semi-detached-house-15-the-fairways-rockshire-road-waterford-co-waterford/3155737
2948007,14014761,"9 Patrick Street, Kilkenny, Co. Kilkenny",585000.0,265,265 m²,4,2,Townhouse,2022-08-09,G,112833942,859.72 kWh/m2/yr,52.649717,-7.251467,Buy,KILKENNY,http://www.daft.ie/for-sale/townhouse-9-patrick-street-kilkenny-co-kilkenny/2948007
2837057,13289260,"Barrack Street, Goresbridge, Co. Kilkenny",135000.0,110,110 m²,3,1,Townhouse,2022-08-09,F,113543011,,52.63086,-6.994293,Buy,KILKENNY,http://www.daft.ie/for-sale/townhouse-barrack-street-goresbridge-co-kilkenny/2837057
2518214,12605411,"Bauntha, Callan, Co. Kilkenny",395000.0,N/A,,5,2,Detached,2022-08-05,D2,,,52.5296562,-7.38388732,Buy,KILKENNY,http://www.daft.ie/for-sale/detached-house-bauntha-callan-co-kilkenny/2518214
48607,11673322,"The Thatched Cottage, Main Street, Mooncoin, Co. Kilkenny",200000.0,60,60 m²,2,1,Detached,2022-08-10,,,,52.295111,-7.258568,Buy,KILKENNY,http://www.daft.ie/for-sale/detached-house-the-thatched-cottage-main-street-mooncoin-co-kilkenny/48607
3824060,18854733,"35 Greenoaks, Rockshire Road, Ferrybank",225000.0,96,96 m²,3,1,Semi-D,2022-07-22,C2,,,52.270424,-7.103239,Buy,KILKENNY,http://www.daft.ie/for-sale/semi-detached-house-35-greenoaks-rockshire-road-ferrybank/3824060
3822780,18844445,"Prologue, Callan, Co. Kilkenny",320000.0,261,261 m²,5,2,Semi-D,2022-07-22,C3,,214.46 kWh/m2/yr,52.542085,-7.392073,Buy,KILKENNY,http://www.daft.ie/for-sale/semi-detached-house-prologue-callan-co-kilkenny/3822780
3775220,18430256,"No. 7 Bradog Way, Gowran, Co. Kilkenny",260000.0,116,116 m²,4,3,Semi-D,2022-05-23,B3,,,52.627642,-7.071134,Buy,KILKENNY,http://www.daft.ie/for-sale/semi-detached-house-no-7-bradog-way-gowran-co-kilkenny/3775220
3816851,18789054,"29 Hollybank Way, Clongowen, Kilkenny, Co. Kilkenny",290000.0,136,136 m²,5,3,Semi-D,2022-08-09,C3,114884281,203.69 kWh/m2/yr,52.639775,-7.2527,Buy,KILKENNY,http://www.daft.ie/for-sale/semi-detached-house-29-hollybank-way-clongowen-kilkenny-co-kilkenny/3816851
3809243,18729067,"49 Chapelfields, Kilkenny, Co. Kilkenny",180000.0,102,102 m²,3,3,Semi-D,2022-08-08,B3,,,52.720053,-7.576788,Buy,KILKENNY,http://www.daft.ie/for-sale/semi-detached-house-49-chapelfields-kilkenny-co-kilkenny/3809243
3806115,18703133,"1 Main Street, Piltown, Co. Kilkenny",200000.0,121,121 m²,3,2,Semi-D,2022-08-10,SI_666,,,52.350854,-7.330148,Buy,KILKENNY,http://www.daft.ie/for-sale/semi-detached-house-1-main-street-piltown-co-kilkenny/3806115
3804048,18681864,"49 College Square, College Road, Kilkenny, Co. Kilkenny",425000.0,124,124 m²,4,3,Semi-D,2022-08-03,C1,102268299,,52.643456,-7.258322,Buy,KILKENNY,http://www.daft.ie/for-sale/semi-detached-house-49-college-square-college-road-kilkenny-co-kilkenny/3804048
3797030,18621347,"7 The Pines, Roseleigh, Mooncoin, Co. Kilkenny",270000.0,127,127 m²,4,2,Semi-D,2022-07-15,B3,110772480,146.79 kWh/m2/yr,52.292788,-7.25696,Buy,KILKENNY,http://www.daft.ie/for-sale/semi-detached-house-7-the-pines-roseleigh-mooncoin-co-kilkenny/3797030
3568825,16427551,"Scuffy Duffy's, Mill Street, Callan, Co. Kilkenny",300000.0,232,232 m²,4,2,Semi-D,2022-08-08,D2,,,52.544181,-7.387903,Buy,KILKENNY,http://www.daft.ie/for-sale/semi-detached-house-scuffy-duffys-mill-street-callan-co-kilkenny/3568825
3155737,14177751,"15 The Fairways, Rockshire Road, Waterford, Co. Waterford",275000.0,109,109 m²,3,1,Semi-D,2022-08-10,C2,113740526,187.56 kWh/m2/yr,52.268348,-7.107207,Buy,KILKENNY,http://www.daft.ie/for-sale/semi-detached-house-15-the-fairways-rockshire-road-waterford-co-waterford/3155737
