id,daftShortcode,title,price,size_meters_squared,propertySize,bedrooms,bathrooms,propertyType,publishDate,ber_rating,ber_code,ber_epi,latitude,longitude,category,location,url_link
3986897,19690853,"Apartment 15, Montpelier Mews, Stoneybatter, Dublin 7",225000.0,40,40 m²,1,1,Apartment,2022-07-26,D2,106249394,,53.348667,-6.293548,Buy,NATIONAL_COLLEGE_OF_ART_AND_DESIGN_DUBLIN,http://www.daft.ie/for-sale/apartment-apartment-15-montpelier-mews-stoneybatter-dublin-7/3986897
3994736,112878362,"26A Ratoath Estate, Cabra, Cabra, Dublin 7",240000.0,65,65 m²,2,1,Apartment,2022-08-04,E2,,,53.37186,-6.305502,Buy,NATIONAL_COLLEGE_OF_ART_AND_DESIGN_DUBLIN,http://www.daft.ie/for-sale/apartment-26a-ratoath-estate-cabra-cabra-dublin-7/3994736
3994725,112878358,"Apartment 7, Swift House, Ardilaun Court, Christchurch, Dublin 8",240000.0,39,39 m²,1,1,Apartment,2022-08-10,D2,,,53.341425,-6.272605,Buy,NATIONAL_COLLEGE_OF_ART_AND_DESIGN_DUBLIN,http://www.daft.ie/for-sale/apartment-apartment-7-swift-house-ardilaun-court-christchurch-dublin-8/3994725
3994317,112873931,"38 Park Crescent House, Blackhorse Avenue, Dublin 7",300000.0,76,76 m²,2,1,Apartment,2022-08-10,C3,115366031,218.81 kWh/m2/yr,53.3623557,-6.3115231,Buy,NATIONAL_COLLEGE_OF_ART_AND_DESIGN_DUBLIN,http://www.daft.ie/for-sale/apartment-38-park-crescent-house-blackhorse-avenue-dublin-7/3994317
3994154,112871659,"69 Mellowes Quay, Usher's Quay, Dublin 8",270000.0,50,50 m²,1,1,Apartment,2022-08-10,C1,108472713,173.7 kWh/m2/yr,53.34544,-6.279811,Buy,NATIONAL_COLLEGE_OF_ART_AND_DESIGN_DUBLIN,http://www.daft.ie/for-sale/apartment-69-mellowes-quay-ushers-quay-dublin-8/3994154
3991572,19741705,"Apartment 16, Grattan Hall, Dublin 2",495000.0,74,74 m²,2,1,Apartment,2022-08-10,C1,,,53.338815,-6.24251,Buy,NATIONAL_COLLEGE_OF_ART_AND_DESIGN_DUBLIN,http://www.daft.ie/for-sale/apartment-apartment-16-grattan-hall-dublin-2/3991572
3992460,19754648,"7D Rainsford Avenue, Dublin 8",215000.0,N/A,,1,1,Apartment,2022-07-28,F,,,53.342598,-6.282423,Buy,NATIONAL_COLLEGE_OF_ART_AND_DESIGN_DUBLIN,http://www.daft.ie/for-sale/apartment-7d-rainsford-avenue-dublin-8/3992460
3992235,19750928,"10 Botanic Square, Glasnevin, Dublin 9",250000.0,40,40 m²,1,1,Apartment,2022-08-10,F,106911886,442.14 kWh/m2/yr,53.369313,-6.263685,Buy,NATIONAL_COLLEGE_OF_ART_AND_DESIGN_DUBLIN,http://www.daft.ie/for-sale/apartment-10-botanic-square-glasnevin-dublin-9/3992235
3415542,15297662,"Apartment 5, 7 Anglesea Street, Dublin 2",285000.0,46,46 m²,1,1,Apartment,2022-08-03,E2,,,53.344967,-6.261939,Buy,NATIONAL_COLLEGE_OF_ART_AND_DESIGN_DUBLIN,http://www.daft.ie/for-sale/apartment-apartment-5-7-anglesea-street-dublin-2/3415542
3992089,19749311,"Apartment 123 The Old Chocolate Factory, Kilmainham Square, Inchicore Road, Kilmainham, Dublin 8",370000.0,65,65 m²,2,2,Apartment,2022-08-10,B3,,,53.34283,-6.31057,Buy,NATIONAL_COLLEGE_OF_ART_AND_DESIGN_DUBLIN,http://www.daft.ie/for-sale/apartment-apartment-123-the-old-chocolate-factory-kilmainham-square-inchicore-road-kilmainham-dublin-8/3992089
3992105,19750773,"Apartment 4, Brookfield Court, Rialto, Dublin 8",239000.0,48,48 m²,2,1,Apartment,2022-08-10,D1,,,53.314483,-6.30129,Buy,NATIONAL_COLLEGE_OF_ART_AND_DESIGN_DUBLIN,http://www.daft.ie/for-sale/apartment-apartment-4-brookfield-court-rialto-dublin-8/3992105
3991458,19739668,"272 The Asgard, Custom House Harbour, IFSC, Co. Dublin",495000.0,86,86 m²,2,2,Apartment,2022-08-10,D2,112806203,,53.350487,-6.247546,Buy,NATIONAL_COLLEGE_OF_ART_AND_DESIGN_DUBLIN,http://www.daft.ie/for-sale/apartment-272-the-asgard-custom-house-harbour-ifsc-co-dublin/3991458
3991441,19739273,"Apartment 11, Baroma, Kimmage, Dublin 12",245000.0,37,37 m²,1,1,Apartment,2022-08-10,C3,,,53.314855,-6.29475,Buy,NATIONAL_COLLEGE_OF_ART_AND_DESIGN_DUBLIN,http://www.daft.ie/for-sale/apartment-apartment-11-baroma-kimmage-dublin-12/3991441
3991352,19738922,"Apartment 1, 35-38 Mountjoy Square South, Dublin 1",225000.0,37,37 m²,1,1,Apartment,2022-08-08,F,100311257,429.17 kWh/m2/yr,53.355952,-6.255889,Buy,NATIONAL_COLLEGE_OF_ART_AND_DESIGN_DUBLIN,http://www.daft.ie/for-sale/apartment-apartment-1-35-38-mountjoy-square-south-dublin-1/3991352
3990319,19729286,"APARTMENT 3, 43 Essex Street East, Temple Bar, Dublin 2",280000.0,53,53 m²,1,1,Apartment,2022-07-21,E2,112378799,360.35 kWh/m2/yr,53.344975,-6.266518,Buy,NATIONAL_COLLEGE_OF_ART_AND_DESIGN_DUBLIN,http://www.daft.ie/for-sale/apartment-apartment-3-43-essex-street-east-temple-bar-dublin-2/3990319
3988794,19710124,"Apartment 120, Greeg Court, Dublin 1",425000.0,100,100 m²,3,3,Apartment,2022-08-09,D1,,,53.351117,-6.263792,Buy,NATIONAL_COLLEGE_OF_ART_AND_DESIGN_DUBLIN,http://www.daft.ie/for-sale/apartment-apartment-120-greeg-court-dublin-1/3988794
3988690,19708674,"5 Brabazon House, 117 Cork Street, The Combe, Dublin 8",209800.0,46,46 m²,1,1,Apartment,2022-08-10,D2,,,53.338241,-6.282681,Buy,NATIONAL_COLLEGE_OF_ART_AND_DESIGN_DUBLIN,http://www.daft.ie/for-sale/apartment-5-brabazon-house-117-cork-street-the-combe-dublin-8/3988690
3988266,19702275,"8 Clarendon Hall, Aungier Street, Dublin 2",240000.0,40,40 m²,1,1,Apartment,2022-08-10,E2,115204448,356.2 kWh/m2/yr,53.340519,-6.265637,Buy,NATIONAL_COLLEGE_OF_ART_AND_DESIGN_DUBLIN,http://www.daft.ie/for-sale/apartment-8-clarendon-hall-aungier-street-dublin-2/3988266
3987919,19701693,"Apartment 31, The Weavers, Dublin 8",325000.0,64,64 m²,2,1,Apartment,2022-08-10,C3,107923666,44.36 kWh/m2/yr,53.3412,-6.280352,Buy,NATIONAL_COLLEGE_OF_ART_AND_DESIGN_DUBLIN,http://www.daft.ie/for-sale/apartment-apartment-31-the-weavers-dublin-8/3987919
3987426,19695810,"37 Parkgate Place, Islandbridge, Dublin 8",250000.0,51,51 m²,1,1,Apartment,2022-08-10,D1,101522928,,53.347226,-6.295275,Buy,NATIONAL_COLLEGE_OF_ART_AND_DESIGN_DUBLIN,http://www.daft.ie/for-sale/apartment-37-parkgate-place-islandbridge-dublin-8/3987426
3987050,19692854,"602 Cathedral Court, New Street South, Dublin 8",425000.0,74,74 m²,2,1,Apartment,2022-08-10,C1,115353302,171.16 kWh/m2/yr,53.337683,-6.273056,Buy,NATIONAL_COLLEGE_OF_ART_AND_DESIGN_DUBLIN,http://www.daft.ie/for-sale/apartment-602-cathedral-court-new-street-south-dublin-8/3987050
3189915,14517309,"Apartment 1, Jasonia Centre, Dublin 2",385000.0,80,80 m²,2,1,Apartment,2022-07-19,D1,,,53.344301,-6.26647,Buy,NATIONAL_COLLEGE_OF_ART_AND_DESIGN_DUBLIN,http://www.daft.ie/for-sale/apartment-apartment-1-jasonia-centre-dublin-2/3189915
3986889,19690263,"47 Pier 19, Dublin 8",250000.0,51,51 m²,2,1,Apartment,2022-08-10,D2,114743479,,53.345656,-6.281354,Buy,NATIONAL_COLLEGE_OF_ART_AND_DESIGN_DUBLIN,http://www.daft.ie/for-sale/apartment-47-pier-19-dublin-8/3986889
3986724,19688716,"14 Symphony House, Adelaide Road, Dublin 2",375000.0,48,48 m²,1,1,Apartment,2022-08-10,E1,114861164,303.37 kWh/m2/yr,53.331968,-6.254943,Buy,NATIONAL_COLLEGE_OF_ART_AND_DESIGN_DUBLIN,http://www.daft.ie/for-sale/apartment-14-symphony-house-adelaide-road-dublin-2/3986724
3986704,19688663,"27 Riverbank Hall, Glasnevin, Dublin 11",245000.0,46,46 m²,1,1,Apartment,2022-08-10,C1,115353005,157.26 kWh/m2/yr,53.376828,-6.276674,Buy,NATIONAL_COLLEGE_OF_ART_AND_DESIGN_DUBLIN,http://www.daft.ie/for-sale/apartment-27-riverbank-hall-glasnevin-dublin-11/3986704
3986649,19688633,"6 Kenilworth Lodge, 346 Harold's Cross Road, Harold's Cross, Dublin 6",295000.0,41,41 m²,1,1,Apartment,2022-08-10,F,,,53.318039,-6.280136,Buy,NATIONAL_COLLEGE_OF_ART_AND_DESIGN_DUBLIN,http://www.daft.ie/for-sale/apartment-6-kenilworth-lodge-346-harolds-cross-road-harolds-cross-dublin-6/3986649
3986460,19687854,"Apartment 14, Symphony House, Dublin 2",375000.0,48,48 m²,1,1,Apartment,2022-07-19,E1,114861164,,53.331968,-6.254943,Buy,NATIONAL_COLLEGE_OF_ART_AND_DESIGN_DUBLIN,http://www.daft.ie/for-sale/apartment-apartment-14-symphony-house-dublin-2/3986460
3986427,19687834,"20 Brabazon Hall, Ardee Street, Dublin 8",315000.0,73,73 m²,2,2,Apartment,2022-08-10,B3,100568286,,53.338656,-6.280546,Buy,NATIONAL_COLLEGE_OF_ART_AND_DESIGN_DUBLIN,http://www.daft.ie/for-sale/apartment-20-brabazon-hall-ardee-street-dublin-8/3986427
3985227,19677268,"Apartment 27, Saint Kevins, Bloomfield Avenue, Portobello, Dublin 8",295000.0,35,35 m²,1,1,Apartment,2022-08-10,SI_666,,,53.331971,-6.271539,Buy,NATIONAL_COLLEGE_OF_ART_AND_DESIGN_DUBLIN,http://www.daft.ie/for-sale/apartment-apartment-27-saint-kevins-bloomfield-avenue-portobello-dublin-8/3985227
3983646,19657969,"171 Wintergarden, Pearse Street, Dublin 2",375000.0,65,65 m²,2,1,Apartment,2022-08-10,D1,115348005,254.51 kWh/m2/yr,53.344257,-6.243276,Buy,NATIONAL_COLLEGE_OF_ART_AND_DESIGN_DUBLIN,http://www.daft.ie/for-sale/apartment-171-wintergarden-pearse-street-dublin-2/3983646
3983040,19650954,"17 Music Hall, Temple Bar, Dublin 2",245000.0,40,40 m²,1,1,Apartment,2022-08-10,D1,114872468,,53.344058,-6.269186,Buy,NATIONAL_COLLEGE_OF_ART_AND_DESIGN_DUBLIN,http://www.daft.ie/for-sale/apartment-17-music-hall-temple-bar-dublin-2/3983040
3982950,19650903,"Apartment 27, Montgomery Court, Dublin 1",249950.0,49,49 m²,1,1,Apartment,2022-08-10,C2,,,53.35245,-6.249849,Buy,NATIONAL_COLLEGE_OF_ART_AND_DESIGN_DUBLIN,http://www.daft.ie/for-sale/apartment-apartment-27-montgomery-court-dublin-1/3982950
3982812,19647728,"12A Garville Court, Rathgar, Dublin 6",295000.0,46,46 m²,1,1,Apartment,2022-08-10,F,115206831,397.81 kWh/m2/yr,53.315792,-6.270721,Buy,NATIONAL_COLLEGE_OF_ART_AND_DESIGN_DUBLIN,http://www.daft.ie/for-sale/apartment-12a-garville-court-rathgar-dublin-6/3982812
3982448,19643061,"19 Grenville, 19 Grenville, 111 Rathgar Road, Rathgar, Dublin 6",585000.0,111,111 m²,3,2,Apartment,2022-08-10,D1,101897759,228.85 kWh/m2/yr,53.312895,-6.273034,Buy,NATIONAL_COLLEGE_OF_ART_AND_DESIGN_DUBLIN,http://www.daft.ie/for-sale/apartment-19-grenville-19-grenville-111-rathgar-road-rathgar-dublin-6/3982448
3981798,19635235,"Apartment 2, Symphony House, Dublin 2",475000.0,55,55 m²,1,1,Apartment,2022-08-09,D1,109781989,234.0 kWh/m2/yr,53.331968,-6.254943,Buy,NATIONAL_COLLEGE_OF_ART_AND_DESIGN_DUBLIN,http://www.daft.ie/for-sale/apartment-apartment-2-symphony-house-dublin-2/3981798
3981696,19634479,"188 The Maltings, Block C, Island Street, South City Centre, Dublin 8",225000.0,38,38 m²,1,1,Apartment,2022-08-10,C3,,,53.345664,-6.283511,Buy,NATIONAL_COLLEGE_OF_ART_AND_DESIGN_DUBLIN,http://www.daft.ie/for-sale/apartment-188-the-maltings-block-c-island-street-south-city-centre-dublin-8/3981696
3981512,19632032,"Apartment 30, Cammock Purcell, Kilmainham, Dublin 8",265000.0,46,46 m²,1,1,Apartment,2022-08-10,C2,113767701,181.26 kWh/m2/yr,53.341997,-6.297263,Buy,NATIONAL_COLLEGE_OF_ART_AND_DESIGN_DUBLIN,http://www.daft.ie/for-sale/apartment-apartment-30-cammock-purcell-kilmainham-dublin-8/3981512
3980954,19626435,"14 City Square, Gloucester Street, Dublin 2",450000.0,82,82 m²,2,2,Apartment,2022-07-14,C2,,,53.3461212,-6.2495101,Buy,NATIONAL_COLLEGE_OF_ART_AND_DESIGN_DUBLIN,http://www.daft.ie/for-sale/apartment-14-city-square-gloucester-street-dublin-2/3980954
3979745,19622817,"Apartment 144, Block E, Blackhall Square, Dublin 7",250000.0,43,43 m²,1,1,Apartment,2022-08-04,E1,,,53.350387,-6.28072,Buy,NATIONAL_COLLEGE_OF_ART_AND_DESIGN_DUBLIN,http://www.daft.ie/for-sale/apartment-apartment-144-block-e-blackhall-square-dublin-7/3979745
3977144,19603652,"Apartment 72, 109 Parnell Street, Dublin 1",220000.0,38,38 m²,1,1,Apartment,2022-08-10,SI_666,,,53.353965,-6.256968,Buy,NATIONAL_COLLEGE_OF_ART_AND_DESIGN_DUBLIN,http://www.daft.ie/for-sale/apartment-apartment-72-109-parnell-street-dublin-1/3977144
3977373,19606985,"Apartment 23, Chancery Hall, Smithfield, Dublin 1",395000.0,61,61 m²,2,2,Apartment,2022-08-09,D2,106989429,57.37 kWh/m2/yr,53.349973,-6.2738,Buy,NATIONAL_COLLEGE_OF_ART_AND_DESIGN_DUBLIN,http://www.daft.ie/for-sale/apartment-apartment-23-chancery-hall-smithfield-dublin-1/3977373
3977255,19605272,"58 Bow Bridge Place, Kilmainham, Dublin 8",275000.0,6109,6109 m²,2,1,Apartment,2022-08-10,D2,113001796,,53.343377,-6.296654,Buy,NATIONAL_COLLEGE_OF_ART_AND_DESIGN_DUBLIN,http://www.daft.ie/for-sale/apartment-58-bow-bridge-place-kilmainham-dublin-8/3977255
3975311,19595530,"Apt. 16 8 Grand Canal Buildings Percy Place Dublin 4, Ballsbridge, Dublin 4",595000.0,83,83 m²,2,2,Apartment,2022-08-10,B2,101364636,113.04 kWh/m2/yr,53.335726,-6.242606,Buy,NATIONAL_COLLEGE_OF_ART_AND_DESIGN_DUBLIN,http://www.daft.ie/for-sale/apartment-apt-16-8-grand-canal-buildings-percy-place-dublin-4-ballsbridge-dublin-4/3975311
3975137,19594076,"17/31 James Walk, Dublin 8",350000.0,74,74 m²,2,2,Apartment,2022-08-10,B2,100555648,105.68 kWh/m2/yr,53.3381465,-6.2931881,Buy,NATIONAL_COLLEGE_OF_ART_AND_DESIGN_DUBLIN,http://www.daft.ie/for-sale/apartment-17-31-james-walk-dublin-8/3975137
3957084,19444695,"Apartment 7, Crostick Court, Dublin 8",345000.0,60,60 m²,2,2,Apartment,2022-07-11,D2,,,53.340801,-6.278219,Buy,NATIONAL_COLLEGE_OF_ART_AND_DESIGN_DUBLIN,http://www.daft.ie/for-sale/apartment-apartment-7-crostick-court-dublin-8/3957084
3973976,19589748,"Apartment 9, Sycamore Court, Cabra, Dublin 7",220000.0,46,46 m²,2,1,Apartment,2022-08-10,D2,101826360,287.37 kWh/m2/yr,53.36134,-6.296804,Buy,NATIONAL_COLLEGE_OF_ART_AND_DESIGN_DUBLIN,http://www.daft.ie/for-sale/apartment-apartment-9-sycamore-court-cabra-dublin-7/3973976
3973674,19585984,"Apartment 74, The Stockyard, The Steelworks, Dublin 1",495000.0,105,105 m²,3,2,Apartment,2022-08-10,B3,103104154,26.3 kWh/m2/yr,53.35275,-6.25081,Buy,NATIONAL_COLLEGE_OF_ART_AND_DESIGN_DUBLIN,http://www.daft.ie/for-sale/apartment-apartment-74-the-stockyard-the-steelworks-dublin-1/3973674
3972824,19580586,"Apartment 30, Harcourt Lodge, Inchicore, Dublin 8",250000.0,40,40 m²,1,1,Apartment,2022-08-10,D2,,,53.336446,-6.31234,Buy,NATIONAL_COLLEGE_OF_ART_AND_DESIGN_DUBLIN,http://www.daft.ie/for-sale/apartment-apartment-30-harcourt-lodge-inchicore-dublin-8/3972824
3899588,18950761,"Apartment 167, Block D, Bellevue, Islandbridge, Dublin 8",338000.0,N/A,,2,1,Apartment,2022-07-20,D1,,,53.34688,-6.311175,Buy,NATIONAL_COLLEGE_OF_ART_AND_DESIGN_DUBLIN,http://www.daft.ie/for-sale/apartment-apartment-167-block-d-bellevue-islandbridge-dublin-8/3899588
3971458,19569080,"Aran House, Custom House Square, Dublin 1, IFSC, Dublin 1",280000.0,45,45 m²,1,1,Apartment,2022-07-23,A1,,,53.349617,-6.243003,Buy,NATIONAL_COLLEGE_OF_ART_AND_DESIGN_DUBLIN,http://www.daft.ie/for-sale/apartment-aran-house-custom-house-square-dublin-1-ifsc-dublin-1/3971458
3986897,19690853,"Apartment 15, Montpelier Mews, Stoneybatter, Dublin 7",225000.0,40,40 m²,1,1,Apartment,2022-07-26,D2,106249394,,53.348667,-6.293548,Buy,NATIONAL_COLLEGE_OF_ART_AND_DESIGN_DUBLIN,http://www.daft.ie/for-sale/apartment-apartment-15-montpelier-mews-stoneybatter-dublin-7/3986897
3994736,112878362,"26A Ratoath Estate, Cabra, Cabra, Dublin 7",240000.0,65,65 m²,2,1,Apartment,2022-08-04,E2,,,53.37186,-6.305502,Buy,NATIONAL_COLLEGE_OF_ART_AND_DESIGN_DUBLIN,http://www.daft.ie/for-sale/apartment-26a-ratoath-estate-cabra-cabra-dublin-7/3994736
3994725,112878358,"Apartment 7, Swift House, Ardilaun Court, Christchurch, Dublin 8",240000.0,39,39 m²,1,1,Apartment,2022-08-10,D2,,,53.341425,-6.272605,Buy,NATIONAL_COLLEGE_OF_ART_AND_DESIGN_DUBLIN,http://www.daft.ie/for-sale/apartment-apartment-7-swift-house-ardilaun-court-christchurch-dublin-8/3994725
3994317,112873931,"38 Park Crescent House, Blackhorse Avenue, Dublin 7",300000.0,76,76 m²,2,1,Apartment,2022-08-10,C3,115366031,218.81 kWh/m2/yr,53.3623557,-6.3115231,Buy,NATIONAL_COLLEGE_OF_ART_AND_DESIGN_DUBLIN,http://www.daft.ie/for-sale/apartment-38-park-crescent-house-blackhorse-avenue-dublin-7/3994317
3994154,112871659,"69 Mellowes Quay, Usher's Quay, Dublin 8",270000.0,50,50 m²,1,1,Apartment,2022-08-10,C1,108472713,173.7 kWh/m2/yr,53.34544,-6.279811,Buy,NATIONAL_COLLEGE_OF_ART_AND_DESIGN_DUBLIN,http://www.daft.ie/for-sale/apartment-69-mellowes-quay-ushers-quay-dublin-8/3994154
3991572,19741705,"Apartment 16, Grattan Hall, Dublin 2",495000.0,74,74 m²,2,1,Apartment,2022-08-10,C1,,,53.338815,-6.24251,Buy,NATIONAL_COLLEGE_OF_ART_AND_DESIGN_DUBLIN,http://www.daft.ie/for-sale/apartment-apartment-16-grattan-hall-dublin-2/3991572
3992460,19754648,"7D Rainsford Avenue, Dublin 8",215000.0,N/A,,1,1,Apartment,2022-07-28,F,,,53.342598,-6.282423,Buy,NATIONAL_COLLEGE_OF_ART_AND_DESIGN_DUBLIN,http://www.daft.ie/for-sale/apartment-7d-rainsford-avenue-dublin-8/3992460
3992235,19750928,"10 Botanic Square, Glasnevin, Dublin 9",250000.0,40,40 m²,1,1,Apartment,2022-08-10,F,106911886,442.14 kWh/m2/yr,53.369313,-6.263685,Buy,NATIONAL_COLLEGE_OF_ART_AND_DESIGN_DUBLIN,http://www.daft.ie/for-sale/apartment-10-botanic-square-glasnevin-dublin-9/3992235
3415542,15297662,"Apartment 5, 7 Anglesea Street, Dublin 2",285000.0,46,46 m²,1,1,Apartment,2022-08-03,E2,,,53.344967,-6.261939,Buy,NATIONAL_COLLEGE_OF_ART_AND_DESIGN_DUBLIN,http://www.daft.ie/for-sale/apartment-apartment-5-7-anglesea-street-dublin-2/3415542
3992089,19749311,"Apartment 123 The Old Chocolate Factory, Kilmainham Square, Inchicore Road, Kilmainham, Dublin 8",370000.0,65,65 m²,2,2,Apartment,2022-08-10,B3,,,53.34283,-6.31057,Buy,NATIONAL_COLLEGE_OF_ART_AND_DESIGN_DUBLIN,http://www.daft.ie/for-sale/apartment-apartment-123-the-old-chocolate-factory-kilmainham-square-inchicore-road-kilmainham-dublin-8/3992089
3992105,19750773,"Apartment 4, Brookfield Court, Rialto, Dublin 8",239000.0,48,48 m²,2,1,Apartment,2022-08-10,D1,,,53.314483,-6.30129,Buy,NATIONAL_COLLEGE_OF_ART_AND_DESIGN_DUBLIN,http://www.daft.ie/for-sale/apartment-apartment-4-brookfield-court-rialto-dublin-8/3992105
3991458,19739668,"272 The Asgard, Custom House Harbour, IFSC, Co. Dublin",495000.0,86,86 m²,2,2,Apartment,2022-08-10,D2,112806203,,53.350487,-6.247546,Buy,NATIONAL_COLLEGE_OF_ART_AND_DESIGN_DUBLIN,http://www.daft.ie/for-sale/apartment-272-the-asgard-custom-house-harbour-ifsc-co-dublin/3991458
3991441,19739273,"Apartment 11, Baroma, Kimmage, Dublin 12",245000.0,37,37 m²,1,1,Apartment,2022-08-10,C3,,,53.314855,-6.29475,Buy,NATIONAL_COLLEGE_OF_ART_AND_DESIGN_DUBLIN,http://www.daft.ie/for-sale/apartment-apartment-11-baroma-kimmage-dublin-12/3991441
3991352,19738922,"Apartment 1, 35-38 Mountjoy Square South, Dublin 1",225000.0,37,37 m²,1,1,Apartment,2022-08-08,F,100311257,429.17 kWh/m2/yr,53.355952,-6.255889,Buy,NATIONAL_COLLEGE_OF_ART_AND_DESIGN_DUBLIN,http://www.daft.ie/for-sale/apartment-apartment-1-35-38-mountjoy-square-south-dublin-1/3991352
3990319,19729286,"APARTMENT 3, 43 Essex Street East, Temple Bar, Dublin 2",280000.0,53,53 m²,1,1,Apartment,2022-07-21,E2,112378799,360.35 kWh/m2/yr,53.344975,-6.266518,Buy,NATIONAL_COLLEGE_OF_ART_AND_DESIGN_DUBLIN,http://www.daft.ie/for-sale/apartment-apartment-3-43-essex-street-east-temple-bar-dublin-2/3990319
3988794,19710124,"Apartment 120, Greeg Court, Dublin 1",425000.0,100,100 m²,3,3,Apartment,2022-08-09,D1,,,53.351117,-6.263792,Buy,NATIONAL_COLLEGE_OF_ART_AND_DESIGN_DUBLIN,http://www.daft.ie/for-sale/apartment-apartment-120-greeg-court-dublin-1/3988794
3988690,19708674,"5 Brabazon House, 117 Cork Street, The Combe, Dublin 8",209800.0,46,46 m²,1,1,Apartment,2022-08-10,D2,,,53.338241,-6.282681,Buy,NATIONAL_COLLEGE_OF_ART_AND_DESIGN_DUBLIN,http://www.daft.ie/for-sale/apartment-5-brabazon-house-117-cork-street-the-combe-dublin-8/3988690
3988266,19702275,"8 Clarendon Hall, Aungier Street, Dublin 2",240000.0,40,40 m²,1,1,Apartment,2022-08-10,E2,115204448,356.2 kWh/m2/yr,53.340519,-6.265637,Buy,NATIONAL_COLLEGE_OF_ART_AND_DESIGN_DUBLIN,http://www.daft.ie/for-sale/apartment-8-clarendon-hall-aungier-street-dublin-2/3988266
3987919,19701693,"Apartment 31, The Weavers, Dublin 8",325000.0,64,64 m²,2,1,Apartment,2022-08-10,C3,107923666,44.36 kWh/m2/yr,53.3412,-6.280352,Buy,NATIONAL_COLLEGE_OF_ART_AND_DESIGN_DUBLIN,http://www.daft.ie/for-sale/apartment-apartment-31-the-weavers-dublin-8/3987919
3987426,19695810,"37 Parkgate Place, Islandbridge, Dublin 8",250000.0,51,51 m²,1,1,Apartment,2022-08-10,D1,101522928,,53.347226,-6.295275,Buy,NATIONAL_COLLEGE_OF_ART_AND_DESIGN_DUBLIN,http://www.daft.ie/for-sale/apartment-37-parkgate-place-islandbridge-dublin-8/3987426
3987050,19692854,"602 Cathedral Court, New Street South, Dublin 8",425000.0,74,74 m²,2,1,Apartment,2022-08-10,C1,115353302,171.16 kWh/m2/yr,53.337683,-6.273056,Buy,NATIONAL_COLLEGE_OF_ART_AND_DESIGN_DUBLIN,http://www.daft.ie/for-sale/apartment-602-cathedral-court-new-street-south-dublin-8/3987050
3189915,14517309,"Apartment 1, Jasonia Centre, Dublin 2",385000.0,80,80 m²,2,1,Apartment,2022-07-19,D1,,,53.344301,-6.26647,Buy,NATIONAL_COLLEGE_OF_ART_AND_DESIGN_DUBLIN,http://www.daft.ie/for-sale/apartment-apartment-1-jasonia-centre-dublin-2/3189915
3986889,19690263,"47 Pier 19, Dublin 8",250000.0,51,51 m²,2,1,Apartment,2022-08-10,D2,114743479,,53.345656,-6.281354,Buy,NATIONAL_COLLEGE_OF_ART_AND_DESIGN_DUBLIN,http://www.daft.ie/for-sale/apartment-47-pier-19-dublin-8/3986889
3986724,19688716,"14 Symphony House, Adelaide Road, Dublin 2",375000.0,48,48 m²,1,1,Apartment,2022-08-10,E1,114861164,303.37 kWh/m2/yr,53.331968,-6.254943,Buy,NATIONAL_COLLEGE_OF_ART_AND_DESIGN_DUBLIN,http://www.daft.ie/for-sale/apartment-14-symphony-house-adelaide-road-dublin-2/3986724
3986704,19688663,"27 Riverbank Hall, Glasnevin, Dublin 11",245000.0,46,46 m²,1,1,Apartment,2022-08-10,C1,115353005,157.26 kWh/m2/yr,53.376828,-6.276674,Buy,NATIONAL_COLLEGE_OF_ART_AND_DESIGN_DUBLIN,http://www.daft.ie/for-sale/apartment-27-riverbank-hall-glasnevin-dublin-11/3986704
3986649,19688633,"6 Kenilworth Lodge, 346 Harold's Cross Road, Harold's Cross, Dublin 6",295000.0,41,41 m²,1,1,Apartment,2022-08-10,F,,,53.318039,-6.280136,Buy,NATIONAL_COLLEGE_OF_ART_AND_DESIGN_DUBLIN,http://www.daft.ie/for-sale/apartment-6-kenilworth-lodge-346-harolds-cross-road-harolds-cross-dublin-6/3986649
3986460,19687854,"Apartment 14, Symphony House, Dublin 2",375000.0,48,48 m²,1,1,Apartment,2022-07-19,E1,114861164,,53.331968,-6.254943,Buy,NATIONAL_COLLEGE_OF_ART_AND_DESIGN_DUBLIN,http://www.daft.ie/for-sale/apartment-apartment-14-symphony-house-dublin-2/3986460
3986427,19687834,"20 Brabazon Hall, Ardee Street, Dublin 8",315000.0,73,73 m²,2,2,Apartment,2022-08-10,B3,100568286,,53.338656,-6.280546,Buy,NATIONAL_COLLEGE_OF_ART_AND_DESIGN_DUBLIN,http://www.daft.ie/for-sale/apartment-20-brabazon-hall-ardee-street-dublin-8/3986427
3985227,19677268,"Apartment 27, Saint Kevins, Bloomfield Avenue, Portobello, Dublin 8",295000.0,35,35 m²,1,1,Apartment,2022-08-10,SI_666,,,53.331971,-6.271539,Buy,NATIONAL_COLLEGE_OF_ART_AND_DESIGN_DUBLIN,http://www.daft.ie/for-sale/apartment-apartment-27-saint-kevins-bloomfield-avenue-portobello-dublin-8/3985227
3983646,19657969,"171 Wintergarden, Pearse Street, Dublin 2",375000.0,65,65 m²,2,1,Apartment,2022-08-10,D1,115348005,254.51 kWh/m2/yr,53.344257,-6.243276,Buy,NATIONAL_COLLEGE_OF_ART_AND_DESIGN_DUBLIN,http://www.daft.ie/for-sale/apartment-171-wintergarden-pearse-street-dublin-2/3983646
3983040,19650954,"17 Music Hall, Temple Bar, Dublin 2",245000.0,40,40 m²,1,1,Apartment,2022-08-10,D1,114872468,,53.344058,-6.269186,Buy,NATIONAL_COLLEGE_OF_ART_AND_DESIGN_DUBLIN,http://www.daft.ie/for-sale/apartment-17-music-hall-temple-bar-dublin-2/3983040
3982950,19650903,"Apartment 27, Montgomery Court, Dublin 1",249950.0,49,49 m²,1,1,Apartment,2022-08-10,C2,,,53.35245,-6.249849,Buy,NATIONAL_COLLEGE_OF_ART_AND_DESIGN_DUBLIN,http://www.daft.ie/for-sale/apartment-apartment-27-montgomery-court-dublin-1/3982950
3982812,19647728,"12A Garville Court, Rathgar, Dublin 6",295000.0,46,46 m²,1,1,Apartment,2022-08-10,F,115206831,397.81 kWh/m2/yr,53.315792,-6.270721,Buy,NATIONAL_COLLEGE_OF_ART_AND_DESIGN_DUBLIN,http://www.daft.ie/for-sale/apartment-12a-garville-court-rathgar-dublin-6/3982812
3982448,19643061,"19 Grenville, 19 Grenville, 111 Rathgar Road, Rathgar, Dublin 6",585000.0,111,111 m²,3,2,Apartment,2022-08-10,D1,101897759,228.85 kWh/m2/yr,53.312895,-6.273034,Buy,NATIONAL_COLLEGE_OF_ART_AND_DESIGN_DUBLIN,http://www.daft.ie/for-sale/apartment-19-grenville-19-grenville-111-rathgar-road-rathgar-dublin-6/3982448
3981798,19635235,"Apartment 2, Symphony House, Dublin 2",475000.0,55,55 m²,1,1,Apartment,2022-08-09,D1,109781989,234.0 kWh/m2/yr,53.331968,-6.254943,Buy,NATIONAL_COLLEGE_OF_ART_AND_DESIGN_DUBLIN,http://www.daft.ie/for-sale/apartment-apartment-2-symphony-house-dublin-2/3981798
3981696,19634479,"188 The Maltings, Block C, Island Street, South City Centre, Dublin 8",225000.0,38,38 m²,1,1,Apartment,2022-08-10,C3,,,53.345664,-6.283511,Buy,NATIONAL_COLLEGE_OF_ART_AND_DESIGN_DUBLIN,http://www.daft.ie/for-sale/apartment-188-the-maltings-block-c-island-street-south-city-centre-dublin-8/3981696
3981512,19632032,"Apartment 30, Cammock Purcell, Kilmainham, Dublin 8",265000.0,46,46 m²,1,1,Apartment,2022-08-10,C2,113767701,181.26 kWh/m2/yr,53.341997,-6.297263,Buy,NATIONAL_COLLEGE_OF_ART_AND_DESIGN_DUBLIN,http://www.daft.ie/for-sale/apartment-apartment-30-cammock-purcell-kilmainham-dublin-8/3981512
3980954,19626435,"14 City Square, Gloucester Street, Dublin 2",450000.0,82,82 m²,2,2,Apartment,2022-07-14,C2,,,53.3461212,-6.2495101,Buy,NATIONAL_COLLEGE_OF_ART_AND_DESIGN_DUBLIN,http://www.daft.ie/for-sale/apartment-14-city-square-gloucester-street-dublin-2/3980954
3979745,19622817,"Apartment 144, Block E, Blackhall Square, Dublin 7",250000.0,43,43 m²,1,1,Apartment,2022-08-04,E1,,,53.350387,-6.28072,Buy,NATIONAL_COLLEGE_OF_ART_AND_DESIGN_DUBLIN,http://www.daft.ie/for-sale/apartment-apartment-144-block-e-blackhall-square-dublin-7/3979745
3977144,19603652,"Apartment 72, 109 Parnell Street, Dublin 1",220000.0,38,38 m²,1,1,Apartment,2022-08-10,SI_666,,,53.353965,-6.256968,Buy,NATIONAL_COLLEGE_OF_ART_AND_DESIGN_DUBLIN,http://www.daft.ie/for-sale/apartment-apartment-72-109-parnell-street-dublin-1/3977144
3977373,19606985,"Apartment 23, Chancery Hall, Smithfield, Dublin 1",395000.0,61,61 m²,2,2,Apartment,2022-08-09,D2,106989429,57.37 kWh/m2/yr,53.349973,-6.2738,Buy,NATIONAL_COLLEGE_OF_ART_AND_DESIGN_DUBLIN,http://www.daft.ie/for-sale/apartment-apartment-23-chancery-hall-smithfield-dublin-1/3977373
3977255,19605272,"58 Bow Bridge Place, Kilmainham, Dublin 8",275000.0,6109,6109 m²,2,1,Apartment,2022-08-10,D2,113001796,,53.343377,-6.296654,Buy,NATIONAL_COLLEGE_OF_ART_AND_DESIGN_DUBLIN,http://www.daft.ie/for-sale/apartment-58-bow-bridge-place-kilmainham-dublin-8/3977255
3975311,19595530,"Apt. 16 8 Grand Canal Buildings Percy Place Dublin 4, Ballsbridge, Dublin 4",595000.0,83,83 m²,2,2,Apartment,2022-08-10,B2,101364636,113.04 kWh/m2/yr,53.335726,-6.242606,Buy,NATIONAL_COLLEGE_OF_ART_AND_DESIGN_DUBLIN,http://www.daft.ie/for-sale/apartment-apt-16-8-grand-canal-buildings-percy-place-dublin-4-ballsbridge-dublin-4/3975311
3975137,19594076,"17/31 James Walk, Dublin 8",350000.0,74,74 m²,2,2,Apartment,2022-08-10,B2,100555648,105.68 kWh/m2/yr,53.3381465,-6.2931881,Buy,NATIONAL_COLLEGE_OF_ART_AND_DESIGN_DUBLIN,http://www.daft.ie/for-sale/apartment-17-31-james-walk-dublin-8/3975137
3957084,19444695,"Apartment 7, Crostick Court, Dublin 8",345000.0,60,60 m²,2,2,Apartment,2022-07-11,D2,,,53.340801,-6.278219,Buy,NATIONAL_COLLEGE_OF_ART_AND_DESIGN_DUBLIN,http://www.daft.ie/for-sale/apartment-apartment-7-crostick-court-dublin-8/3957084
3973976,19589748,"Apartment 9, Sycamore Court, Cabra, Dublin 7",220000.0,46,46 m²,2,1,Apartment,2022-08-10,D2,101826360,287.37 kWh/m2/yr,53.36134,-6.296804,Buy,NATIONAL_COLLEGE_OF_ART_AND_DESIGN_DUBLIN,http://www.daft.ie/for-sale/apartment-apartment-9-sycamore-court-cabra-dublin-7/3973976
3973674,19585984,"Apartment 74, The Stockyard, The Steelworks, Dublin 1",495000.0,105,105 m²,3,2,Apartment,2022-08-10,B3,103104154,26.3 kWh/m2/yr,53.35275,-6.25081,Buy,NATIONAL_COLLEGE_OF_ART_AND_DESIGN_DUBLIN,http://www.daft.ie/for-sale/apartment-apartment-74-the-stockyard-the-steelworks-dublin-1/3973674
3972824,19580586,"Apartment 30, Harcourt Lodge, Inchicore, Dublin 8",250000.0,40,40 m²,1,1,Apartment,2022-08-10,D2,,,53.336446,-6.31234,Buy,NATIONAL_COLLEGE_OF_ART_AND_DESIGN_DUBLIN,http://www.daft.ie/for-sale/apartment-apartment-30-harcourt-lodge-inchicore-dublin-8/3972824
3899588,18950761,"Apartment 167, Block D, Bellevue, Islandbridge, Dublin 8",338000.0,N/A,,2,1,Apartment,2022-07-20,D1,,,53.34688,-6.311175,Buy,NATIONAL_COLLEGE_OF_ART_AND_DESIGN_DUBLIN,http://www.daft.ie/for-sale/apartment-apartment-167-block-d-bellevue-islandbridge-dublin-8/3899588
3971458,19569080,"Aran House, Custom House Square, Dublin 1, IFSC, Dublin 1",280000.0,45,45 m²,1,1,Apartment,2022-07-23,A1,,,53.349617,-6.243003,Buy,NATIONAL_COLLEGE_OF_ART_AND_DESIGN_DUBLIN,http://www.daft.ie/for-sale/apartment-aran-house-custom-house-square-dublin-1-ifsc-dublin-1/3971458
3970937,19565695,"Apartment 35, Clarendon Hall, Dublin 2",245000.0,N/A,,1,1,Apartment,2022-08-10,E1,,,53.34055,-6.265843,Buy,NATIONAL_COLLEGE_OF_ART_AND_DESIGN_DUBLIN,http://www.daft.ie/for-sale/apartment-apartment-35-clarendon-hall-dublin-2/3970937
3967779,19539470,"Apartment 445, Cowper Downs, Dublin 6W",390000.0,68,68 m²,2,1,Apartment,2022-08-03,E2,,,53.31654,-6.263432,Buy,NATIONAL_COLLEGE_OF_ART_AND_DESIGN_DUBLIN,http://www.daft.ie/for-sale/apartment-apartment-445-cowper-downs-dublin-6w/3967779
3969206,19551479,"14 The Olde Dock, Little Ship Street, Dublin 8",325000.0,42,42 m²,2,1,Apartment,2022-08-10,E2,101516680,348.64 kWh/m2/yr,53.342034,-6.269566,Buy,NATIONAL_COLLEGE_OF_ART_AND_DESIGN_DUBLIN,http://www.daft.ie/for-sale/apartment-14-the-olde-dock-little-ship-street-dublin-8/3969206
3968486,19544567,"26 Cherry Court, Terenure, Dublin 12",320000.0,43,43 m²,1,1,Apartment,2022-08-10,D2,115201832,271.62 kWh/m2/yr,53.3161836,-6.2845565,Buy,NATIONAL_COLLEGE_OF_ART_AND_DESIGN_DUBLIN,http://www.daft.ie/for-sale/apartment-26-cherry-court-terenure-dublin-12/3968486
3968045,19541260,"Apartment 92, Cremorne, Greenmount Road, Terenure, Dublin 6",425000.0,75,75 m²,2,1,Apartment,2022-07-11,D2,115158768,267.75 kWh/m2/yr,53.309836,-6.279145,Buy,NATIONAL_COLLEGE_OF_ART_AND_DESIGN_DUBLIN,http://www.daft.ie/for-sale/apartment-apartment-92-cremorne-greenmount-road-terenure-dublin-6/3968045
3967719,19537791,"Apartment 1, Stewart House, Dublin 1",335000.0,56,56 m²,2,1,Apartment,2022-07-06,SI_666,,,53.350963,-6.265324,Buy,NATIONAL_COLLEGE_OF_ART_AND_DESIGN_DUBLIN,http://www.daft.ie/for-sale/apartment-apartment-1-stewart-house-dublin-1/3967719
3965921,19522064,"Apartment 50, Ha'penny Bridge House, Dublin 1",350000.0,57,57 m²,2,1,Apartment,2022-08-03,D2,,,53.346352,-6.265511,Buy,NATIONAL_COLLEGE_OF_ART_AND_DESIGN_DUBLIN,http://www.daft.ie/for-sale/apartment-apartment-50-hapenny-bridge-house-dublin-1/3965921
3966317,19524904,"Apartment 36, Norseman Court, Stoneybatter, Dublin 7",250000.0,55,55 m²,1,1,Apartment,2022-08-10,D1,,,53.351052,-6.28295,Buy,NATIONAL_COLLEGE_OF_ART_AND_DESIGN_DUBLIN,http://www.daft.ie/for-sale/apartment-apartment-36-norseman-court-stoneybatter-dublin-7/3966317
3965958,19522092,"1 The Hall, Laurel Place, Terenure, Dublin 6",425000.0,81,81 m²,2,2,Apartment,2022-07-05,C3,106109424,219.8 kWh/m2/yr,53.310711,-6.28989,Buy,NATIONAL_COLLEGE_OF_ART_AND_DESIGN_DUBLIN,http://www.daft.ie/for-sale/apartment-1-the-hall-laurel-place-terenure-dublin-6/3965958
3965860,19520205,"Apartment 79, Riverbank Hall, Addison Avenue, Glasnevin, Dublin 11",370000.0,69,69 m²,2,2,Apartment,2022-07-25,C2,109779215,194.79 kWh/m2/yr,53.376827,-6.276679,Buy,NATIONAL_COLLEGE_OF_ART_AND_DESIGN_DUBLIN,http://www.daft.ie/for-sale/apartment-apartment-79-riverbank-hall-addison-avenue-glasnevin-dublin-11/3965860
3965396,19518632,"Apartment 157, Raitlin O'Birne, Custom House Harbour Apartments, IFSC, Dublin 1",385000.0,61,61 m²,2,2,Apartment,2022-08-08,C2,,,53.350602,-6.246019,Buy,NATIONAL_COLLEGE_OF_ART_AND_DESIGN_DUBLIN,http://www.daft.ie/for-sale/apartment-apartment-157-raitlin-obirne-custom-house-harbour-apartments-ifsc-dublin-1/3965396
3965553,19518711,"Apartment 11, The Turrets, Rathmines, Dublin 6",390000.0,64,64 m²,2,1,Apartment,2022-08-09,D1,101559169,248.44 kWh/m2/yr,53.319056,-6.26343,Buy,NATIONAL_COLLEGE_OF_ART_AND_DESIGN_DUBLIN,http://www.daft.ie/for-sale/apartment-apartment-11-the-turrets-rathmines-dublin-6/3965553
3965281,19517226,"Apartment 4, Kearn's Court, Kearn's Place, Kilmainham, Dublin 8",270000.0,N/A,,1,1,Apartment,2022-08-10,D2,,,53.341177,-6.305082,Buy,NATIONAL_COLLEGE_OF_ART_AND_DESIGN_DUBLIN,http://www.daft.ie/for-sale/apartment-apartment-4-kearns-court-kearns-place-kilmainham-dublin-8/3965281
3965071,19515090,"Apartment 83, Corn Mill, Drumcondra, Dublin 3",375000.0,71,71 m²,2,2,Apartment,2022-07-06,D2,115215956,268.87 kWh/m2/yr,53.363268,-6.249442,Buy,NATIONAL_COLLEGE_OF_ART_AND_DESIGN_DUBLIN,http://www.daft.ie/for-sale/apartment-apartment-83-corn-mill-drumcondra-dublin-3/3965071
3616397,16940552,"21 Burton House, Custom House Square, IFSC, Dublin 1",450000.0,N/A,,2,2,Apartment,2022-07-12,C3,,,53.349669,-6.243556,Buy,NATIONAL_COLLEGE_OF_ART_AND_DESIGN_DUBLIN,http://www.daft.ie/for-sale/apartment-21-burton-house-custom-house-square-ifsc-dublin-1/3616397
3960769,19478463,"36 Goldstone Court, Clogher Road, Crumlin, Dublin 12",250000.0,N/A,,1,1,Apartment,2022-08-10,D2,114794332,278.4 kWh/m2/yr,53.3266206,-6.2906952,Buy,NATIONAL_COLLEGE_OF_ART_AND_DESIGN_DUBLIN,http://www.daft.ie/for-sale/apartment-36-goldstone-court-clogher-road-crumlin-dublin-12/3960769
3959932,19471682,"57 Christchurch View, Christchurch Place, Christchurch, Dublin 8",350000.0,55,55 m²,2,1,Apartment,2022-08-10,,,,53.342332,-6.271138,Buy,NATIONAL_COLLEGE_OF_ART_AND_DESIGN_DUBLIN,http://www.daft.ie/for-sale/apartment-57-christchurch-view-christchurch-place-christchurch-dublin-8/3959932
3958817,19459595,"Apartment 6, Stewart House, Dublin 1",250000.0,36,36 m²,1,1,Apartment,2022-07-06,SI_666,,,53.350963,-6.265324,Buy,NATIONAL_COLLEGE_OF_ART_AND_DESIGN_DUBLIN,http://www.daft.ie/for-sale/apartment-apartment-6-stewart-house-dublin-1/3958817
3958533,19456492,"Apartment 5, Claude Hall, 18 Claude Road, Drumcondra, Dublin 9",245000.0,49,49 m²,1,1,Apartment,2022-08-09,D2,112490958,289.56 kWh/m2/yr,53.364517,-6.264912,Buy,NATIONAL_COLLEGE_OF_ART_AND_DESIGN_DUBLIN,http://www.daft.ie/for-sale/apartment-apartment-5-claude-hall-18-claude-road-drumcondra-dublin-9/3958533
3957672,19448866,"Apartment 27, Grand Canal Court, Rialto, Dublin 8",310000.0,63,63 m²,2,2,Apartment,2022-06-29,B3,104067038,138.34 kWh/m2/yr,53.334267,-6.298843,Buy,NATIONAL_COLLEGE_OF_ART_AND_DESIGN_DUBLIN,http://www.daft.ie/for-sale/apartment-apartment-27-grand-canal-court-rialto-dublin-8/3957672
3956947,19443437,"Apartment 62, Block C, The Barley House, Dublin 8",190000.0,44,44 m²,1,1,Apartment,2022-08-10,C3,114625957,,53.337847,-6.286632,Buy,NATIONAL_COLLEGE_OF_ART_AND_DESIGN_DUBLIN,http://www.daft.ie/for-sale/apartment-apartment-62-block-c-the-barley-house-dublin-8/3956947
3956692,19439973,"5 Northfield Edward Square Bloomfield Avenue Dublin 4, Donnybrook, Dublin 4",1150000.0,107,107 m²,2,2,Apartment,2022-08-10,,,,53.326205,-6.24597,Buy,NATIONAL_COLLEGE_OF_ART_AND_DESIGN_DUBLIN,http://www.daft.ie/for-sale/apartment-5-northfield-edward-square-bloomfield-avenue-dublin-4-donnybrook-dublin-4/3956692
3956159,19434484,"Apartment 1, Corn Mill, Drumcondra, Dublin 3",400000.0,86,86 m²,2,2,Apartment,2022-08-09,C2,105838643,182.27 kWh/m2/yr,53.362888,-6.248639,Buy,NATIONAL_COLLEGE_OF_ART_AND_DESIGN_DUBLIN,http://www.daft.ie/for-sale/apartment-apartment-1-corn-mill-drumcondra-dublin-3/3956159
3956142,19434475,"Apartment 11, Cassell House, Ardilaun Court, Dublin 8",235000.0,39,39 m²,1,1,Apartment,2022-08-10,E1,,,53.341193,-6.272635,Buy,NATIONAL_COLLEGE_OF_ART_AND_DESIGN_DUBLIN,http://www.daft.ie/for-sale/apartment-apartment-11-cassell-house-ardilaun-court-dublin-8/3956142
3956090,19433599,"8 Brabazon Hall, Dublin 8",295000.0,50,50 m²,1,1,Apartment,2022-08-10,D2,115174195,284.45 kWh/m2/yr,53.338946,-6.280179,Buy,NATIONAL_COLLEGE_OF_ART_AND_DESIGN_DUBLIN,http://www.daft.ie/for-sale/apartment-8-brabazon-hall-dublin-8/3956090
3956103,19434431,"Apartment 45, Wellington, Riverpark Apartments, Dublin 8",355000.0,70,70 m²,2,1,Apartment,2022-08-09,D1,,,53.348053,-6.303046,Buy,NATIONAL_COLLEGE_OF_ART_AND_DESIGN_DUBLIN,http://www.daft.ie/for-sale/apartment-apartment-45-wellington-riverpark-apartments-dublin-8/3956103
3945177,19373492,"Apartment 11, Ashley Hall, South Circular Road, Dublin 8",225000.0,49,49 m²,1,1,Apartment,2022-08-03,E2,,,53.332012,-6.286678,Buy,NATIONAL_COLLEGE_OF_ART_AND_DESIGN_DUBLIN,http://www.daft.ie/for-sale/apartment-apartment-11-ashley-hall-south-circular-road-dublin-8/3945177
3906275,19015961,"Apartment 56, Rialto Court, Rialto, Dublin 8",180000.0,36,36 m²,1,1,Apartment,2022-06-27,F,114690993,445.54 kWh/m2/yr,53.336981,-6.296621,Buy,NATIONAL_COLLEGE_OF_ART_AND_DESIGN_DUBLIN,http://www.daft.ie/for-sale/apartment-apartment-56-rialto-court-rialto-dublin-8/3906275
3947726,19400737,"Apartment 75, Hyde Court, Dublin 2",450000.0,67,67 m²,2,1,Apartment,2022-08-10,C1,,,53.34549,-6.251915,Buy,NATIONAL_COLLEGE_OF_ART_AND_DESIGN_DUBLIN,http://www.daft.ie/for-sale/apartment-apartment-75-hyde-court-dublin-2/3947726
3946916,19393189,"55 Malton House, Custom House Square, IFSC, Dublin 1",275000.0,39,39 m²,1,1,Apartment,2022-08-10,C2,113780837,175.82 kWh/m2/yr,53.349519,-6.245432,Buy,NATIONAL_COLLEGE_OF_ART_AND_DESIGN_DUBLIN,http://www.daft.ie/for-sale/apartment-55-malton-house-custom-house-square-ifsc-dublin-1/3946916
3946672,19389648,"27 Cannon Court Bride Street Dublin 8, Christchurch, Dublin 8",330000.0,66,66 m²,2,2,Apartment,2022-06-24,C3,115174807,223.47 kWh/m2/yr,53.339528,-6.26987,Buy,NATIONAL_COLLEGE_OF_ART_AND_DESIGN_DUBLIN,http://www.daft.ie/for-sale/apartment-27-cannon-court-bride-street-dublin-8-christchurch-dublin-8/3946672
3945471,19377113,"Apartment 73, Russell House, Dublin 1",295000.0,66,66 m²,2,2,Apartment,2022-08-10,E1,105712780,,53.356271,-6.255379,Buy,NATIONAL_COLLEGE_OF_ART_AND_DESIGN_DUBLIN,http://www.daft.ie/for-sale/apartment-apartment-73-russell-house-dublin-1/3945471
3944937,19373251,"Apartment 38, Manor Hall, Mount Brown, Dublin 8",275000.0,51,51 m²,2,1,Apartment,2022-08-10,C3,,,53.341959,-6.296147,Buy,NATIONAL_COLLEGE_OF_ART_AND_DESIGN_DUBLIN,http://www.daft.ie/for-sale/apartment-apartment-38-manor-hall-mount-brown-dublin-8/3944937
3936702,19294040,"146 Shannon House, Custom House Square, IFSC, Dublin 1",350000.0,N/A,,2,2,Apartment,2022-08-10,C3,112225966,,53.349287,-6.241594,Buy,NATIONAL_COLLEGE_OF_ART_AND_DESIGN_DUBLIN,http://www.daft.ie/for-sale/apartment-146-shannon-house-custom-house-square-ifsc-dublin-1/3936702
3943586,19359170,"Apartment 2, Shandon View, Connaught Street, Phibsborough, Dublin 7",170000.0,36,36 m²,1,1,Apartment,2022-08-09,F,,,53.363816,-6.281232,Buy,NATIONAL_COLLEGE_OF_ART_AND_DESIGN_DUBLIN,http://www.daft.ie/for-sale/apartment-apartment-2-shandon-view-connaught-street-phibsborough-dublin-7/3943586
3943064,19353372,"Apartment 37, Saint Peters Square, Phibsborough, Dublin 7",234950.0,N/A,,1,1,Apartment,2022-06-23,D2,,,53.361584,-6.271922,Buy,NATIONAL_COLLEGE_OF_ART_AND_DESIGN_DUBLIN,http://www.daft.ie/for-sale/apartment-apartment-37-saint-peters-square-phibsborough-dublin-7/3943064
3506837,16046803,"Apartment 21, 35-38 Mountjoy Square South, Dublin 1",270000.0,47,47 m²,2,1,Apartment,2022-08-10,D1,,,53.355952,-6.255889,Buy,NATIONAL_COLLEGE_OF_ART_AND_DESIGN_DUBLIN,http://www.daft.ie/for-sale/apartment-apartment-21-35-38-mountjoy-square-south-dublin-1/3506837
3771385,18392370,"Apartment 167, Block D, Bellevue, Dublin 8",338000.0,72,72 m²,2,1,Apartment,2022-07-20,D1,,,53.34688,-6.311175,Buy,NATIONAL_COLLEGE_OF_ART_AND_DESIGN_DUBLIN,http://www.daft.ie/for-sale/apartment-apartment-167-block-d-bellevue-dublin-8/3771385
3940651,19330514,"71 St John's Well Way, Kilmainham, Dublin 8",325000.0,N/A,,1,1,Apartment,2022-08-10,C2,114851009,181.35 kWh/m2/yr,53.341609,-6.301777,Buy,NATIONAL_COLLEGE_OF_ART_AND_DESIGN_DUBLIN,http://www.daft.ie/for-sale/apartment-71-st-johns-well-way-kilmainham-dublin-8/3940651
3939772,19321562,"Grand Canal View, Kilmainham, Dublin 8",295000.0,51,51 m²,2,1,Apartment,2022-08-02,C2,105075121,,53.3368652,-6.3047013,Buy,NATIONAL_COLLEGE_OF_ART_AND_DESIGN_DUBLIN,http://www.daft.ie/for-sale/apartment-grand-canal-view-kilmainham-dublin-8/3939772
3938762,19312154,"Apartment 4 Tramyard Exchange, Carmans Hall, Dublin 8",495000.0,88,88 m²,2,2,Apartment,2022-08-09,A2,111256384,43.14 kWh/m2/yr,53.343086652212094,-6.279018295193083,Buy,NATIONAL_COLLEGE_OF_ART_AND_DESIGN_DUBLIN,http://www.daft.ie/for-sale/apartment-apartment-4-tramyard-exchange-carmans-hall-dublin-8/3938762
3938806,19312173,"Apt. 5 Chapelgate, St. Alphonsus' Road Upper, Drumcondra, Dublin 9",395000.0,70,70 m²,2,2,Apartment,2022-08-10,C1,105492417,,53.365276,-6.260431,Buy,NATIONAL_COLLEGE_OF_ART_AND_DESIGN_DUBLIN,http://www.daft.ie/for-sale/apartment-apt-5-chapelgate-st-alphonsus-road-upper-drumcondra-dublin-9/3938806
3937372,19299629,"53 Hybreasal House, South Circular Road, Dublin 8",295000.0,67,67 m²,1,1,Apartment,2022-08-10,F,101376705,412.79 kWh/m2/yr,53.338827,-6.305163,Buy,NATIONAL_COLLEGE_OF_ART_AND_DESIGN_DUBLIN,http://www.daft.ie/for-sale/apartment-53-hybreasal-house-south-circular-road-dublin-8/3937372
3935425,19278149,"7 Grattan Hall, Lower Mount Street, Dublin 2",495000.0,74,74 m²,2,1,Apartment,2022-08-10,C1,115034688,165.43 kWh/m2/yr,53.338815,-6.24251,Buy,NATIONAL_COLLEGE_OF_ART_AND_DESIGN_DUBLIN,http://www.daft.ie/for-sale/apartment-7-grattan-hall-lower-mount-street-dublin-2/3935425
3466646,15676315,"22 St. Anne's, 6 Northbrook Road, Ranelagh, Dublin 6",375000.0,49,49 m²,1,1,Apartment,2022-06-15,D1,105724108,240.22 kWh/m2/yr,53.328899,-6.254317,Buy,NATIONAL_COLLEGE_OF_ART_AND_DESIGN_DUBLIN,http://www.daft.ie/for-sale/apartment-22-st-annes-6-northbrook-road-ranelagh-dublin-6/3466646
3935147,19276647,"Apartment 97, Premier Square, Finglas, Dublin 11",250000.0,N/A,,2,2,Apartment,2022-08-09,C1,,,53.381727,-6.290125,Buy,NATIONAL_COLLEGE_OF_ART_AND_DESIGN_DUBLIN,http://www.daft.ie/for-sale/apartment-apartment-97-premier-square-finglas-dublin-11/3935147
3934982,19276210,"6 Rosecourt, Cabra Road, Dublin 7",275000.0,N/A,,2,1,Apartment,2022-08-10,G,112432075,630.85 kWh/m2/yr,53.36182,-6.297256,Buy,NATIONAL_COLLEGE_OF_ART_AND_DESIGN_DUBLIN,http://www.daft.ie/for-sale/apartment-6-rosecourt-cabra-road-dublin-7/3934982
3934016,19264262,"4 Newcomen Court, North Strand, Dublin 3",240000.0,56,56 m²,2,1,Apartment,2022-08-10,C3,102840931,,53.357462,-6.243629,Buy,NATIONAL_COLLEGE_OF_ART_AND_DESIGN_DUBLIN,http://www.daft.ie/for-sale/apartment-4-newcomen-court-north-strand-dublin-3/3934016
3932668,19251013,"The Mews Adelaide Square Whitefriar Street, Dublin 2",1100000.0,124,124 m²,3,3,Apartment,2022-07-05,SI_666,,,53.339789580609164,-6.267503073851117,Buy,NATIONAL_COLLEGE_OF_ART_AND_DESIGN_DUBLIN,http://www.daft.ie/for-sale/apartment-the-mews-adelaide-square-whitefriar-street-dublin-2/3932668
3927179,19200316,"Apartment 69, Stewart Hall, Ryder's Row, Dublin 1",275000.0,67,67 m²,2,1,Apartment,2022-08-10,SI_666,,,53.350239,-6.268754,Buy,NATIONAL_COLLEGE_OF_ART_AND_DESIGN_DUBLIN,http://www.daft.ie/for-sale/apartment-apartment-69-stewart-hall-ryders-row-dublin-1/3927179
3932385,19249007,"Apartment 2, The Aston Building, Dublin 2",380000.0,56,56 m²,1,1,Apartment,2022-08-04,C3,,,53.346417,-6.260528,Buy,NATIONAL_COLLEGE_OF_ART_AND_DESIGN_DUBLIN,http://www.daft.ie/for-sale/apartment-apartment-2-the-aston-building-dublin-2/3932385
3931253,19237637,"Apartment 98, Tolka Vale, Glasnevin, Dublin 11",315000.0,73,73 m²,2,2,Apartment,2022-08-10,D2,108582040,,53.377514,-6.288448,Buy,NATIONAL_COLLEGE_OF_ART_AND_DESIGN_DUBLIN,http://www.daft.ie/for-sale/apartment-apartment-98-tolka-vale-glasnevin-dublin-11/3931253
3929761,19226621,"12A Isoldes Tower, Lower Exchange Street, Temple Bar, Co. Dublin",395000.0,63,63 m²,2,2,Apartment,2022-08-10,E1,101756823,329.44 kWh/m2/yr,53.345116,-6.268416,Buy,NATIONAL_COLLEGE_OF_ART_AND_DESIGN_DUBLIN,http://www.daft.ie/for-sale/apartment-12a-isoldes-tower-lower-exchange-street-temple-bar-co-dublin/3929761
3928789,19217558,"Apartment 3, Hillcrest Court, Glasnevin, Dublin 9",365000.0,66,66 m²,2,1,Apartment,2022-08-10,D1,,,53.378519,-6.266049,Buy,NATIONAL_COLLEGE_OF_ART_AND_DESIGN_DUBLIN,http://www.daft.ie/for-sale/apartment-apartment-3-hillcrest-court-glasnevin-dublin-9/3928789
3817115,18791564,"10 Talbot Street, Dublin 1",1650000.0,N/A,,4,2,Apartment,2022-08-09,D1,,,53.350545,-6.256445,Buy,NATIONAL_COLLEGE_OF_ART_AND_DESIGN_DUBLIN,http://www.daft.ie/for-sale/apartment-10-talbot-street-dublin-1/3817115
3928225,19209573,"16 Botanic Square, Glasnevin, Dublin 9",325000.0,73,73 m²,2,2,Apartment,2022-08-10,D1,115040172,227.84 kWh/m2/yr,53.369313,-6.263685,Buy,NATIONAL_COLLEGE_OF_ART_AND_DESIGN_DUBLIN,http://www.daft.ie/for-sale/apartment-16-botanic-square-glasnevin-dublin-9/3928225
3927814,19205709,"Apartment 111, Greeg Court, Dublin 1",390000.0,65,65 m²,2,2,Apartment,2022-08-04,C2,,,53.351117,-6.263792,Buy,NATIONAL_COLLEGE_OF_ART_AND_DESIGN_DUBLIN,http://www.daft.ie/for-sale/apartment-apartment-111-greeg-court-dublin-1/3927814
3926538,19193054,"27 Portobello Harbour, Portobello, Dublin 8",300000.0,49,49 m²,1,1,Apartment,2022-08-10,C1,109634972,165.41 kWh/m2/yr,53.330481,-6.266839,Buy,NATIONAL_COLLEGE_OF_ART_AND_DESIGN_DUBLIN,http://www.daft.ie/for-sale/apartment-27-portobello-harbour-portobello-dublin-8/3926538
3721802,17967715,"Apartment 217, Neptune House, Bellevue, Islandbridge, Dublin 8",380000.0,81,81 m²,2,1,Apartment,2022-06-23,C3,,,53.346802,-6.309827,Buy,NATIONAL_COLLEGE_OF_ART_AND_DESIGN_DUBLIN,http://www.daft.ie/for-sale/apartment-apartment-217-neptune-house-bellevue-islandbridge-dublin-8/3721802
3919302,19130325,"Apartment 33, Brookfield Court, Kimmage, Dublin 12",310000.0,N/A,,2,1,Apartment,2022-08-09,D2,,,53.314357,-6.300545,Buy,NATIONAL_COLLEGE_OF_ART_AND_DESIGN_DUBLIN,http://www.daft.ie/for-sale/apartment-apartment-33-brookfield-court-kimmage-dublin-12/3919302
3922409,19157469,"Custom House Harbour, IFSC, Dublin 1",315000.0,N/A,,1,1,Apartment,2022-06-11,D2,,,53.350992352452835,-6.248439012932039,Buy,NATIONAL_COLLEGE_OF_ART_AND_DESIGN_DUBLIN,http://www.daft.ie/for-sale/apartment-custom-house-harbour-ifsc-dublin-1/3922409
3922204,19156936,"Apartment 14 Belvedere Court, 30 North Great George's Street, Dublin 1",395000.0,57,57 m²,2,1,Apartment,2022-08-10,D2,105046387,289.61 kWh/m2/yr,53.353863,-6.259638,Buy,NATIONAL_COLLEGE_OF_ART_AND_DESIGN_DUBLIN,http://www.daft.ie/for-sale/apartment-apartment-14-belvedere-court-30-north-great-georges-street-dublin-1/3922204
3920830,19142999,"Apartment 1, Block A, The Tramyard, Dublin 8",225000.0,N/A,,2,1,Apartment,2022-07-25,D1,,,53.33869,-6.319623,Buy,NATIONAL_COLLEGE_OF_ART_AND_DESIGN_DUBLIN,http://www.daft.ie/for-sale/apartment-apartment-1-block-a-the-tramyard-dublin-8/3920830
3919638,19133691,"Apartment 12B, Block B, Echlin Buildings, Inchicore, Dublin 8",219000.0,32,32 m²,1,1,Apartment,2022-06-02,E1,,,53.342831,-6.288542,Buy,NATIONAL_COLLEGE_OF_ART_AND_DESIGN_DUBLIN,http://www.daft.ie/for-sale/apartment-apartment-12b-block-b-echlin-buildings-inchicore-dublin-8/3919638
3919055,19127545,"5 Roskeen House, Salem Court, Rathmines, Dublin 6",295000.0,40,40 m²,1,1,Apartment,2022-07-15,D2,100949015,295.41 kWh/m2/yr,53.3178,-6.266379,Buy,NATIONAL_COLLEGE_OF_ART_AND_DESIGN_DUBLIN,http://www.daft.ie/for-sale/apartment-5-roskeen-house-salem-court-rathmines-dublin-6/3919055
3917609,19113075,"Apartment 43, Block B, Smithfield, Dublin 7",400000.0,77,77 m²,2,2,Apartment,2022-06-27,C3,111962825,218.68 kWh/m2/yr,53.347819,-6.279393,Buy,NATIONAL_COLLEGE_OF_ART_AND_DESIGN_DUBLIN,http://www.daft.ie/for-sale/apartment-apartment-43-block-b-smithfield-dublin-7/3917609
3915864,19098324,"Apt 30, The Moyle, Prospect Hill, Finglas Road, D11PO32, Finglas, Dublin 11",265000.0,70,70 m²,2,2,Apartment,2022-08-10,C2,114872583,196.57 kWh/m2/yr,53.3804835,-6.2906336,Buy,NATIONAL_COLLEGE_OF_ART_AND_DESIGN_DUBLIN,http://www.daft.ie/for-sale/apartment-apt-30-the-moyle-prospect-hill-finglas-road-d11po32-finglas-dublin-11/3915864
3915937,19098360,"Apartment 25, 35-38 Mountjoy Square South, Dublin 1",260000.0,42,42 m²,2,1,Apartment,2022-08-10,F,106284094,408.1 kWh/m2/yr,53.355952,-6.255889,Buy,NATIONAL_COLLEGE_OF_ART_AND_DESIGN_DUBLIN,http://www.daft.ie/for-sale/apartment-apartment-25-35-38-mountjoy-square-south-dublin-1/3915937
3915518,19094535,"Apartment 201, The Distillery Building, Distillery Road, Drumcondra, Dublin 3",325000.0,79,79 m²,2,2,Apartment,2022-06-21,D1,,,53.363769,-6.24874,Buy,NATIONAL_COLLEGE_OF_ART_AND_DESIGN_DUBLIN,http://www.daft.ie/for-sale/apartment-apartment-201-the-distillery-building-distillery-road-drumcondra-dublin-3/3915518
3915298,19092539,"Apartment 3, Hyde Court, Dublin 2",315000.0,50,50 m²,1,1,Apartment,2022-08-10,B3,,,53.34549,-6.251915,Buy,NATIONAL_COLLEGE_OF_ART_AND_DESIGN_DUBLIN,http://www.daft.ie/for-sale/apartment-apartment-3-hyde-court-dublin-2/3915298
3910748,19056548,"Apartment 3, Greeg Court, Dublin 1",350000.0,57,57 m²,2,1,Apartment,2022-08-10,B3,,,53.350972,-6.264206,Buy,NATIONAL_COLLEGE_OF_ART_AND_DESIGN_DUBLIN,http://www.daft.ie/for-sale/apartment-apartment-3-greeg-court-dublin-1/3910748
3909870,19045824,"Apartment 33, Block F, Mellowes Quay, Dublin 8",340000.0,63,63 m²,2,2,Apartment,2022-08-09,C2,,,53.345166,-6.27932,Buy,NATIONAL_COLLEGE_OF_ART_AND_DESIGN_DUBLIN,http://www.daft.ie/for-sale/apartment-apartment-33-block-f-mellowes-quay-dublin-8/3909870
3909950,19047921,"Apartment 34, Block F, Mellowes Quay, Dublin 8",265000.0,46,46 m²,1,1,Apartment,2022-08-09,C2,,,53.345166,-6.27932,Buy,NATIONAL_COLLEGE_OF_ART_AND_DESIGN_DUBLIN,http://www.daft.ie/for-sale/apartment-apartment-34-block-f-mellowes-quay-dublin-8/3909950
3907975,19027787,"Apartment 11, Phoenix, Riverpark Apartments, Islandbridge, Dublin 8",345000.0,65,65 m²,2,2,Apartment,2022-08-09,D1,,,53.347974,-6.30361,Buy,NATIONAL_COLLEGE_OF_ART_AND_DESIGN_DUBLIN,http://www.daft.ie/for-sale/apartment-apartment-11-phoenix-riverpark-apartments-islandbridge-dublin-8/3907975
3906801,19020122,"15 Dexter Terrace, Ranelagh, Dublin 6",445000.0,50,50 m²,1,,Apartment,2022-08-10,E1,111973723,334.13 kWh/m2/yr,53.328156,-6.257414,Buy,NATIONAL_COLLEGE_OF_ART_AND_DESIGN_DUBLIN,http://www.daft.ie/for-sale/apartment-15-dexter-terrace-ranelagh-dublin-6/3906801
3906265,19015957,"3 Broadstone Avenue, Phibsborough, Dublin 7",265000.0,40,40 m²,3,1,Apartment,2022-08-09,C3,,,53.355969,-6.273048,Buy,NATIONAL_COLLEGE_OF_ART_AND_DESIGN_DUBLIN,http://www.daft.ie/for-sale/apartment-3-broadstone-avenue-phibsborough-dublin-7/3906265
3903838,18989835,"Apartment 70, The Northumberlands, Love Lane East, Dublin 2",410000.0,65,65 m²,3,1,Apartment,2022-08-10,C1,105814230,,53.338592,-6.24148,Buy,NATIONAL_COLLEGE_OF_ART_AND_DESIGN_DUBLIN,http://www.daft.ie/for-sale/apartment-apartment-70-the-northumberlands-love-lane-east-dublin-2/3903838
3901707,18971501,"Apartment 102, Ulysses, Viking Harbour Apartments, Dublin 8",245000.0,47,47 m²,1,1,Apartment,2022-08-08,F,107624470,425.31 kWh/m2/yr,53.345996,-6.282906,Buy,NATIONAL_COLLEGE_OF_ART_AND_DESIGN_DUBLIN,http://www.daft.ie/for-sale/apartment-apartment-102-ulysses-viking-harbour-apartments-dublin-8/3901707
3900336,18959454,"Apartment 56, Joyce House, Viking Harbour Apartments, Dublin 8",275000.0,49,49 m²,2,1,Apartment,2022-08-09,E1,114878010,302.61 kWh/m2/yr,53.346292,-6.283287,Buy,NATIONAL_COLLEGE_OF_ART_AND_DESIGN_DUBLIN,http://www.daft.ie/for-sale/apartment-apartment-56-joyce-house-viking-harbour-apartments-dublin-8/3900336
3899179,18941941,"39 Saint James Court, Echlin Street, The Liberties, Dublin 8",275000.0,59,59 m²,2,1,Apartment,2022-08-10,C1,,,53.342738,-6.28892,Buy,NATIONAL_COLLEGE_OF_ART_AND_DESIGN_DUBLIN,http://www.daft.ie/for-sale/apartment-39-saint-james-court-echlin-street-the-liberties-dublin-8/3899179
3899017,18941450,"Apartment 35, Block C, Smithfield, Dublin 1",450000.0,73,73 m²,2,2,Apartment,2022-08-09,C2,114879547,193.32 kWh/m2/yr,53.347758,-6.278864,Buy,NATIONAL_COLLEGE_OF_ART_AND_DESIGN_DUBLIN,http://www.daft.ie/for-sale/apartment-apartment-35-block-c-smithfield-dublin-1/3899017
3898543,18934335,"Apartment 2-3, Beaumont House, Terenure, Dublin 6",450000.0,79,79 m²,2,1,Apartment,2022-05-18,C1,111070785,162.15 kWh/m2/yr,53.311356,-6.279217,Buy,NATIONAL_COLLEGE_OF_ART_AND_DESIGN_DUBLIN,http://www.daft.ie/for-sale/apartment-apartment-2-3-beaumont-house-terenure-dublin-6/3898543
3897793,18927751,"65 Grand Canal View, Kilmainham, Dublin 8","AMV: €200,000",35,35 m²,1,1,Apartment,2022-08-10,E1,107641144,320.66 kWh/m2/yr,53.336439,-6.304013,Buy,NATIONAL_COLLEGE_OF_ART_AND_DESIGN_DUBLIN,http://www.daft.ie/for-sale/apartment-65-grand-canal-view-kilmainham-dublin-8/3897793
3897760,18925605,"6 Valentia House IFSC Dublin 1, IFSC, Dublin 1",595000.0,98,98 m²,3,2,Apartment,2022-08-10,C3,100983402,212.91 kWh/m2/yr,53.349484,-6.24284,Buy,NATIONAL_COLLEGE_OF_ART_AND_DESIGN_DUBLIN,http://www.daft.ie/for-sale/apartment-6-valentia-house-ifsc-dublin-1-ifsc-dublin-1/3897760
3897313,18922650,"16 Millers Hall, Thomas Street, The Liberties, Dublin 8",225000.0,39,39 m²,1,1,Apartment,2022-08-10,C2,,,53.343559,-6.280203,Buy,NATIONAL_COLLEGE_OF_ART_AND_DESIGN_DUBLIN,http://www.daft.ie/for-sale/apartment-16-millers-hall-thomas-street-the-liberties-dublin-8/3897313
3896400,18915234,"Apartment 61, Rialto Court, Rialto, Dublin 8",199950.0,39,39 m²,1,1,Apartment,2022-07-21,F,,,53.337088,-6.296556,Buy,NATIONAL_COLLEGE_OF_ART_AND_DESIGN_DUBLIN,http://www.daft.ie/for-sale/apartment-apartment-61-rialto-court-rialto-dublin-8/3896400
3892050,18880441,"Apartment 57, Ivy Exchange, Dublin 1",275000.0,45,45 m²,1,1,Apartment,2022-08-10,D2,,,53.351819,-6.264151,Buy,NATIONAL_COLLEGE_OF_ART_AND_DESIGN_DUBLIN,http://www.daft.ie/for-sale/apartment-apartment-57-ivy-exchange-dublin-1/3892050
3893900,18892653,"Apartment 1, Belgrave Court, Mountpleasant Avenue Upper, Ranelagh, Dublin 6",290000.0,33,33 m²,1,1,Apartment,2022-08-09,E2,114866643,,53.324418,-6.26018,Buy,NATIONAL_COLLEGE_OF_ART_AND_DESIGN_DUBLIN,http://www.daft.ie/for-sale/apartment-apartment-1-belgrave-court-mountpleasant-avenue-upper-ranelagh-dublin-6/3893900
3602439,16801649,"Apartment 233, Block C, Station House, The Tramyard, Inchicore, Dublin 8",189950.0,42,42 m²,1,1,Apartment,2022-07-18,D1,,,53.339136,-6.320015,Buy,NATIONAL_COLLEGE_OF_ART_AND_DESIGN_DUBLIN,http://www.daft.ie/for-sale/apartment-apartment-233-block-c-station-house-the-tramyard-inchicore-dublin-8/3602439
3891603,18876501,"55 Stewart Hall, Ryder's Row, Dublin 1",395000.0,62,62 m²,2,2,Apartment,2022-08-10,D1,100699453,243.4 kWh/m2/yr,53.350239,-6.268754,Buy,NATIONAL_COLLEGE_OF_ART_AND_DESIGN_DUBLIN,http://www.daft.ie/for-sale/apartment-55-stewart-hall-ryders-row-dublin-1/3891603
3796618,18617671,"Apartment 28, The Malthouse, Dublin 8",265000.0,75,75 m²,2,2,Apartment,2022-08-09,F,104953203,400.88 kWh/m2/yr,53.338348,-6.287652,Buy,NATIONAL_COLLEGE_OF_ART_AND_DESIGN_DUBLIN,http://www.daft.ie/for-sale/apartment-apartment-28-the-malthouse-dublin-8/3796618
3820746,18823716,"Apartment 3 Glenanne, Kimmage, Dublin 12",325000.0,55,55 m²,2,1,Apartment,2022-07-12,C1,100745843,159.62 kWh/m2/yr,53.312192,-6.301223,Buy,NATIONAL_COLLEGE_OF_ART_AND_DESIGN_DUBLIN,http://www.daft.ie/for-sale/apartment-apartment-3-glenanne-kimmage-dublin-12/3820746
3816339,18783944,"Apartment 35, Block C, Earls Court, Rialto, Dublin 8",374850.0,N/A,,3,2,Apartment,2022-05-18,D1,101451912,236.46 kWh/m2/yr,53.334426,-6.290364,Buy,NATIONAL_COLLEGE_OF_ART_AND_DESIGN_DUBLIN,http://www.daft.ie/for-sale/apartment-apartment-35-block-c-earls-court-rialto-dublin-8/3816339
3805461,18692855,"31 Steevens Gate, James Street, Dublin 8",350000.0,60,60 m²,2,1,Apartment,2022-08-10,C3,114834161,214.74 kWh/m2/yr,53.343527,-6.290512,Buy,NATIONAL_COLLEGE_OF_ART_AND_DESIGN_DUBLIN,http://www.daft.ie/for-sale/apartment-31-steevens-gate-james-street-dublin-8/3805461
3804458,18684451,"18 Ely Mews, Rogers Lane, Off Baggot Street, Dublin 2",695000.0,79,79 m²,2,2,Apartment,2022-08-10,C3,106397490,205.3 kWh/m2/yr,53.337504,-6.252964,Buy,NATIONAL_COLLEGE_OF_ART_AND_DESIGN_DUBLIN,http://www.daft.ie/for-sale/apartment-18-ely-mews-rogers-lane-off-baggot-street-dublin-2/3804458
3798469,18632957,"69 Saint John's Well Way, Kilmainham, Kilmainham, Dublin 8",335000.0,55,55 m²,1,1,Apartment,2022-06-23,C2,,,53.341571,-6.302175,Buy,NATIONAL_COLLEGE_OF_ART_AND_DESIGN_DUBLIN,http://www.daft.ie/for-sale/apartment-69-saint-johns-well-way-kilmainham-kilmainham-dublin-8/3798469
3789955,18568149,"Apartment 12, Bolton Square, Dublin 1",189950.0,N/A,,1,1,Apartment,2022-06-21,D1,,,53.352375,-6.267767,Buy,NATIONAL_COLLEGE_OF_ART_AND_DESIGN_DUBLIN,http://www.daft.ie/for-sale/apartment-apartment-12-bolton-square-dublin-1/3789955
3785544,18527329,"42 Dakota Court, Royal Canal Bank, Phibsborough, Dublin 7",395000.0,85,85 m²,2,2,Apartment,2022-08-10,D1,101914638,50.46 kWh/m2/yr,53.363618,-6.269576,Buy,NATIONAL_COLLEGE_OF_ART_AND_DESIGN_DUBLIN,http://www.daft.ie/for-sale/apartment-42-dakota-court-royal-canal-bank-phibsborough-dublin-7/3785544
3782821,18502918,"5 The Innings, Observatory Lane, Rathmines, Dublin 6",399000.0,46,46 m²,2,1,Apartment,2022-08-09,E2,,,53.325875,-6.26351,Buy,NATIONAL_COLLEGE_OF_ART_AND_DESIGN_DUBLIN,http://www.daft.ie/for-sale/apartment-5-the-innings-observatory-lane-rathmines-dublin-6/3782821
3777093,18446784,"Apartment 330, The Distillery Building, Distillery Road, Drumcondra, Dublin 3",310000.0,62,62 m²,2,1,Apartment,2022-08-09,E1,107690455,,53.363769,-6.24874,Buy,NATIONAL_COLLEGE_OF_ART_AND_DESIGN_DUBLIN,http://www.daft.ie/for-sale/apartment-apartment-330-the-distillery-building-distillery-road-drumcondra-dublin-3/3777093
3774911,18427250,"Apartment 15, 64 Mountjoy Square West, Dublin 1",265000.0,60,60 m²,2,1,Apartment,2022-06-13,E1,,,53.356316,-6.258954,Buy,NATIONAL_COLLEGE_OF_ART_AND_DESIGN_DUBLIN,http://www.daft.ie/for-sale/apartment-apartment-15-64-mountjoy-square-west-dublin-1/3774911
3773066,18407967,"Apartment 20, Dunloe Hall, Dublin 2",425000.0,40,40 m²,1,1,Apartment,2022-08-09,E1,114756588,312.59 kWh/m2/yr,53.338987,-6.252408,Buy,NATIONAL_COLLEGE_OF_ART_AND_DESIGN_DUBLIN,http://www.daft.ie/for-sale/apartment-apartment-20-dunloe-hall-dublin-2/3773066
3769611,18372297,"12 Ardilaun Court, Cuffe Street, Grafton Street, Dublin 2",Price on Application,N/A,,2,2,Apartment,2022-08-10,D1,,,53.338264,-6.263437,Buy,NATIONAL_COLLEGE_OF_ART_AND_DESIGN_DUBLIN,http://www.daft.ie/for-sale/apartment-12-ardilaun-court-cuffe-street-grafton-street-dublin-2/3769611
3764980,18352351,"68 Mellows Quay, Usher Street, Dublin 8",364000.0,65,65 m²,2,1,Apartment,2022-05-15,C2,100521244,40.09 kWh/m2/yr,53.3454402,-6.2798109,Buy,NATIONAL_COLLEGE_OF_ART_AND_DESIGN_DUBLIN,http://www.daft.ie/for-sale/apartment-68-mellows-quay-usher-street-dublin-8/3764980
3747437,18214403,"Apartment 155, Block B, Smithfield Village, Smithfield, Dublin 7",249950.0,N/A,,1,1,Apartment,2022-06-21,SI_666,,,53.34874,-6.277071,Buy,NATIONAL_COLLEGE_OF_ART_AND_DESIGN_DUBLIN,http://www.daft.ie/for-sale/apartment-apartment-155-block-b-smithfield-village-smithfield-dublin-7/3747437
3741899,18155027,"Apartment 39, The Eden, Prospect Hill, Finglas, Dublin 11",224950.0,N/A,,2,2,Apartment,2022-06-21,SI_666,,,53.38092,-6.290078,Buy,NATIONAL_COLLEGE_OF_ART_AND_DESIGN_DUBLIN,http://www.daft.ie/for-sale/apartment-apartment-39-the-eden-prospect-hill-finglas-dublin-11/3741899
3741782,18152833,"Apartment 27, Montgomery Court, Dublin 1",249950.0,46,46 m²,1,1,Apartment,2022-08-10,C2,,,53.35245,-6.249849,Buy,NATIONAL_COLLEGE_OF_ART_AND_DESIGN_DUBLIN,http://www.daft.ie/for-sale/apartment-apartment-27-montgomery-court-dublin-1/3741782
3741075,18146941,"Apartment 75, River Gardens, Glasnevin, Dublin 11",274950.0,N/A,,2,1,Apartment,2022-06-21,E1,,,53.374258,-6.267577,Buy,NATIONAL_COLLEGE_OF_ART_AND_DESIGN_DUBLIN,http://www.daft.ie/for-sale/apartment-apartment-75-river-gardens-glasnevin-dublin-11/3741075
3739448,18137368,"24 Ardee Court, Cork Street, Dublin 8",255000.0,50,50 m²,1,1,Apartment,2022-08-09,C2,,,53.338934,-6.279206,Buy,NATIONAL_COLLEGE_OF_ART_AND_DESIGN_DUBLIN,http://www.daft.ie/for-sale/apartment-24-ardee-court-cork-street-dublin-8/3739448
3151881,14141127,"55 Lad Lane, Dublin 2",Price on Application,N/A,,1,1,Apartment,2022-07-19,A3,,,53.335442076562515,-6.2489461152707975,New Homes,NATIONAL_COLLEGE_OF_ART_AND_DESIGN_DUBLIN,http://www.daft.ie/new-home-for-sale/apartment-1-bedroom-apartment-55-lad-lane-55-lad-lane-dublin-2/3151881
3151880,14141128,"55 Lad Lane, Dublin 2",Price on Application,N/A,,2,2,Apartment,2022-07-19,A3,,,53.335442076562515,-6.2489461152707975,New Homes,NATIONAL_COLLEGE_OF_ART_AND_DESIGN_DUBLIN,http://www.daft.ie/new-home-for-sale/apartment-2-bedroom-apartment-55-lad-lane-55-lad-lane-dublin-2/3151880
3151883,14141129,"55 Lad Lane, Dublin 2",Price on Application,N/A,,3,3,Apartment,2022-07-19,A3,,,53.335442076562515,-6.2489461152707975,New Homes,NATIONAL_COLLEGE_OF_ART_AND_DESIGN_DUBLIN,http://www.daft.ie/new-home-for-sale/apartment-3-bedroom-apartment-55-lad-lane-55-lad-lane-dublin-2/3151883
3733257,18069405,"18 Ardee Court, Cork Street, Dublin 8",369950.0,100,100 m²,3,1,Apartment,2022-08-09,C1,,,53.338934,-6.279206,Buy,NATIONAL_COLLEGE_OF_ART_AND_DESIGN_DUBLIN,http://www.daft.ie/for-sale/apartment-18-ardee-court-cork-street-dublin-8/3733257
3729893,18035593,"13 Carman's Court, Carman's Hall, The Liberties, Dublin 8",275000.0,N/A,,2,1,Apartment,2022-08-10,E2,,,53.340819,-6.274988,Buy,NATIONAL_COLLEGE_OF_ART_AND_DESIGN_DUBLIN,http://www.daft.ie/for-sale/apartment-13-carmans-court-carmans-hall-the-liberties-dublin-8/3729893
3717482,17936304,"Apartment 55, Weavers, West Gate, Dublin 8",199950.0,30,30 m²,1,1,Apartment,2022-08-10,C1,,,53.343972,-6.276561,Buy,NATIONAL_COLLEGE_OF_ART_AND_DESIGN_DUBLIN,http://www.daft.ie/for-sale/apartment-apartment-55-weavers-west-gate-dublin-8/3717482
3717213,17931717,"10 Belgrave Mews, Belgrave Square North, Ranelagh, Dublin 6",325000.0,39,39 m²,1,1,Apartment,2022-04-20,G,,,53.32376,-6.261745,Buy,NATIONAL_COLLEGE_OF_ART_AND_DESIGN_DUBLIN,http://www.daft.ie/for-sale/apartment-10-belgrave-mews-belgrave-square-north-ranelagh-dublin-6/3717213
3712328,17876461,"Apartment 5, Salem House, Salem Court, Rathgar, Dublin 6",260000.0,N/A,,2,1,Apartment,2022-08-09,G,,,53.318036,-6.266261,Buy,NATIONAL_COLLEGE_OF_ART_AND_DESIGN_DUBLIN,http://www.daft.ie/for-sale/apartment-apartment-5-salem-house-salem-court-rathgar-dublin-6/3712328
3711221,17868117,"Apartment 27, Parkview, Harold's Cross, Dublin 6",180000.0,N/A,,1,1,Apartment,2022-08-02,G,,,53.325599,-6.277627,Buy,NATIONAL_COLLEGE_OF_ART_AND_DESIGN_DUBLIN,http://www.daft.ie/for-sale/apartment-apartment-27-parkview-harolds-cross-dublin-6/3711221
3700918,17801159,"40 Frankfort Court Rathgar Dublin 6, Rathgar, Dublin 6",285000.0,41,41 m²,1,1,Apartment,2022-08-10,D2,114626070,283.7 kWh/m2/yr,53.313634,-6.276569,Buy,NATIONAL_COLLEGE_OF_ART_AND_DESIGN_DUBLIN,http://www.daft.ie/for-sale/apartment-40-frankfort-court-rathgar-dublin-6-rathgar-dublin-6/3700918
3699847,17789338,"4 Olympic House, Pleasants Street, Dublin 8",425000.0,70,70 m²,2,2,Apartment,2022-08-10,D1,106566466,228.55 kWh/m2/yr,53.335603,-6.266628,Buy,NATIONAL_COLLEGE_OF_ART_AND_DESIGN_DUBLIN,http://www.daft.ie/for-sale/apartment-4-olympic-house-pleasants-street-dublin-8/3699847
3691715,17724234,"Apartment 5, Aldborough Court, Dublin 1",335000.0,66,66 m²,2,1,Apartment,2022-08-10,C3,,,53.355174,-6.246722,Buy,NATIONAL_COLLEGE_OF_ART_AND_DESIGN_DUBLIN,http://www.daft.ie/for-sale/apartment-apartment-5-aldborough-court-dublin-1/3691715
3686327,17678661,"15 Temple Hill, Terenure Rd West, Terenure, Dublin 6",380000.0,78,78 m²,2,2,Apartment,2022-06-17,D2,,,53.310806,-6.291363,Buy,NATIONAL_COLLEGE_OF_ART_AND_DESIGN_DUBLIN,http://www.daft.ie/for-sale/apartment-15-temple-hill-terenure-rd-west-terenure-dublin-6/3686327
3680843,17637818,"9 Beechlawn Mews, Terenure, Dublin 6W",365000.0,49,49 m²,2,1,Apartment,2022-08-10,E1,107026130,323.33 kWh/m2/yr,53.308812,-6.282748,Buy,NATIONAL_COLLEGE_OF_ART_AND_DESIGN_DUBLIN,http://www.daft.ie/for-sale/apartment-9-beechlawn-mews-terenure-dublin-6w/3680843
3659697,17410267,"195 Tuskar Rock, Custom House Harbour, IFSC, Dublin 1",275000.0,40,40 m²,1,1,Apartment,2022-08-10,D2,114557556,276.9 kWh/m2/yr,53.351237,-6.248281,Buy,NATIONAL_COLLEGE_OF_ART_AND_DESIGN_DUBLIN,http://www.daft.ie/for-sale/apartment-195-tuskar-rock-custom-house-harbour-ifsc-dublin-1/3659697
3652904,17322335,"30 Hillcourt, Highfield Road, Rathgar, Dublin 6",310000.0,40,40 m²,1,1,Apartment,2022-06-13,D1,101000263,,53.3123112,-6.2706264,Buy,NATIONAL_COLLEGE_OF_ART_AND_DESIGN_DUBLIN,http://www.daft.ie/for-sale/apartment-30-hillcourt-highfield-road-rathgar-dublin-6/3652904
3636897,17095468,"Apartment 4, 20 Highfield Road, Rathgar, Dublin 6",250000.0,45,45 m²,1,1,Apartment,2022-08-10,F,103431490,425.26 kWh/m2/yr,53.312567,-6.26738,Buy,NATIONAL_COLLEGE_OF_ART_AND_DESIGN_DUBLIN,http://www.daft.ie/for-sale/apartment-apartment-4-20-highfield-road-rathgar-dublin-6/3636897
3604952,16837667,"Apartment 47, Block B, The Courtyard, Dublin 1",349950.0,N/A,,2,2,Apartment,2022-06-21,D1,,,53.354322,-6.259168,Buy,NATIONAL_COLLEGE_OF_ART_AND_DESIGN_DUBLIN,http://www.daft.ie/for-sale/apartment-apartment-47-block-b-the-courtyard-dublin-1/3604952
3593413,16702949,"Apartment 27, Temple Court, Dublin 7",190000.0,32,32 m²,1,1,Apartment,2022-05-14,E1,,,53.353986,-6.271212,Buy,NATIONAL_COLLEGE_OF_ART_AND_DESIGN_DUBLIN,http://www.daft.ie/for-sale/apartment-apartment-27-temple-court-dublin-7/3593413
3584635,16605504,"Apartment 42, Block E, Blackhall Square, Smithfield, Dublin 1",285000.0,N/A,,2,1,Apartment,2022-06-21,SI_666,,,53.350387,-6.28072,Buy,NATIONAL_COLLEGE_OF_ART_AND_DESIGN_DUBLIN,http://www.daft.ie/for-sale/apartment-apartment-42-block-e-blackhall-square-smithfield-dublin-1/3584635
3547303,16225352,"Apartment 11, 99 Capel Street, Dublin 1",325000.0,51,51 m²,2,1,Apartment,2022-08-10,SI_666,,,53.35007,-6.269708,Buy,NATIONAL_COLLEGE_OF_ART_AND_DESIGN_DUBLIN,http://www.daft.ie/for-sale/apartment-apartment-11-99-capel-street-dublin-1/3547303
3469279,15701735,"5 Mountjoy Square North, Dublin 1",390000.0,86,86 m²,2,1,Apartment,2022-08-10,D1,,,53.357264,-6.258529,Buy,NATIONAL_COLLEGE_OF_ART_AND_DESIGN_DUBLIN,http://www.daft.ie/for-sale/apartment-5-mountjoy-square-north-dublin-1/3469279
3262760,15077784,"16 Arranmore, 13_17 Pembroke Road, Ballsbridge, Dublin 4",250000.0,39,39 m²,1,1,Apartment,2022-08-09,D2,113820708,280.58 kWh/m2/yr,53.332414,-6.242581,Buy,NATIONAL_COLLEGE_OF_ART_AND_DESIGN_DUBLIN,http://www.daft.ie/for-sale/apartment-16-arranmore-13-17-pembroke-road-ballsbridge-dublin-4/3262760
3287290,15238939,"Apartment 29, The Atrium, The Steelworks, Dublin 1",325000.0,70,70 m²,2,2,Apartment,2022-08-10,C2,,,53.352301,-6.251498,Buy,NATIONAL_COLLEGE_OF_ART_AND_DESIGN_DUBLIN,http://www.daft.ie/for-sale/apartment-apartment-29-the-atrium-the-steelworks-dublin-1/3287290
158913,11844201,"19 The Iona, Prospect Hill, Finglas, Dublin 11",255000.0,N/A,,2,2,Apartment,2022-07-05,C1,,,53.379952,-6.290548,Buy,NATIONAL_COLLEGE_OF_ART_AND_DESIGN_DUBLIN,http://www.daft.ie/for-sale/apartment-19-the-iona-prospect-hill-finglas-dublin-11/158913
3817042,18791525,"2 Ashford Street, Stoneybatter, Dublin 7",320000.0,54,54 m²,2,1,End of Terrace,2022-08-10,G,,,53.353894,-6.293532,Buy,NATIONAL_COLLEGE_OF_ART_AND_DESIGN_DUBLIN,http://www.daft.ie/for-sale/end-of-terrace-house-2-ashford-street-stoneybatter-dublin-7/3817042
3938873,19312234,"16 Heuston Square, Inchicore Road, Kilmainham, Dublin 8",525000.0,121,121 m²,4,3,End of Terrace,2022-08-10,C1,110271129,163.74 kWh/m2/yr,53.342559,-6.312794,Buy,NATIONAL_COLLEGE_OF_ART_AND_DESIGN_DUBLIN,http://www.daft.ie/for-sale/end-of-terrace-house-16-heuston-square-inchicore-road-kilmainham-dublin-8/3938873
3938868,19312228,"43 Leeson Park, Ranelagh, Dublin 6",3900000.0,362,362 m²,4,4,End of Terrace,2022-08-10,SI_666,,,53.328175,-6.251197,Buy,NATIONAL_COLLEGE_OF_ART_AND_DESIGN_DUBLIN,http://www.daft.ie/for-sale/end-of-terrace-house-43-leeson-park-ranelagh-dublin-6/3938868
3936993,19297081,"120 Harold's Cross Cottages, Harold's Cross, Dublin 6",345000.0,48,48 m²,1,1,End of Terrace,2022-08-10,G,112750898,524.39 kWh/m2/yr,53.328436,-6.275112,Buy,NATIONAL_COLLEGE_OF_ART_AND_DESIGN_DUBLIN,http://www.daft.ie/for-sale/end-of-terrace-house-120-harolds-cross-cottages-harolds-cross-dublin-6/3936993
3936953,19295483,"10 Gulistan Terrace, Rathmines, Dublin 6",999950.0,N/A,,3,2,End of Terrace,2022-08-10,,,,53.324722,-6.262008,Buy,NATIONAL_COLLEGE_OF_ART_AND_DESIGN_DUBLIN,http://www.daft.ie/for-sale/end-of-terrace-house-10-gulistan-terrace-rathmines-dublin-6/3936953
3936257,19285888,"16 Kilfenora Road, Kimmage, Dublin 12",450000.0,104,104 m²,3,2,End of Terrace,2022-08-10,D1,,,53.319506,-6.298272,Buy,NATIONAL_COLLEGE_OF_ART_AND_DESIGN_DUBLIN,http://www.daft.ie/for-sale/end-of-terrace-house-16-kilfenora-road-kimmage-dublin-12/3936257
3934453,19270551,"19 Greenmount Court, Harold's Cross Road, Harold's Cross, Dublin 6",750000.0,130,130 m²,3,4,End of Terrace,2022-06-15,A2,,,53.328074,-6.279311,Buy,NATIONAL_COLLEGE_OF_ART_AND_DESIGN_DUBLIN,http://www.daft.ie/for-sale/end-of-terrace-house-19-greenmount-court-harolds-cross-road-harolds-cross-dublin-6/3934453
3931331,19237684,"1 Lennox Street, Portobello, Dublin 8",900000.0,160,160 m²,5,3,End of Terrace,2022-08-10,SI_666,,,53.331216,-6.265288,Buy,NATIONAL_COLLEGE_OF_ART_AND_DESIGN_DUBLIN,http://www.daft.ie/for-sale/end-of-terrace-house-1-lennox-street-portobello-dublin-8/3931331
3931041,19235468,"18 Rutland Cottages, Dublin 1",219900.0,55,55 m²,2,1,End of Terrace,2022-08-10,D1,,,53.3550122,-6.2513504,Buy,NATIONAL_COLLEGE_OF_ART_AND_DESIGN_DUBLIN,http://www.daft.ie/for-sale/end-of-terrace-house-18-rutland-cottages-dublin-1/3931041
3930056,19230886,"29 Grosvenor Place Rathmines Dublin 6, Rathmines, Dublin 6",875000.0,111,111 m²,3,2,End of Terrace,2022-08-10,D1,109815407,251.59 kWh/m2/yr,53.321606,-6.272429,Buy,NATIONAL_COLLEGE_OF_ART_AND_DESIGN_DUBLIN,http://www.daft.ie/for-sale/end-of-terrace-house-29-grosvenor-place-rathmines-dublin-6-rathmines-dublin-6/3930056
3928597,19215182,"5 Terenure Gate, Terenure, Dublin 6",795000.0,127,127 m²,3,3,End of Terrace,2022-06-10,A3,109898049,52.47 kWh/m2/yr,53.31056,-6.28887,Buy,NATIONAL_COLLEGE_OF_ART_AND_DESIGN_DUBLIN,http://www.daft.ie/for-sale/end-of-terrace-house-5-terenure-gate-terenure-dublin-6/3928597
3927678,19204370,"1 Innisfallen Parade, North Circular Road, Phibsborough, Dublin 7",345000.0,77,77 m²,3,,End of Terrace,2022-08-08,G,115040883,714.7 kWh/m2/yr,53.360886,-6.261017,Buy,NATIONAL_COLLEGE_OF_ART_AND_DESIGN_DUBLIN,http://www.daft.ie/for-sale/end-of-terrace-house-1-innisfallen-parade-north-circular-road-phibsborough-dublin-7/3927678
3926058,19189501,"44 Shandon Crescent, Phibsborough, Dublin 7",675000.0,109,109 m²,3,2,End of Terrace,2022-08-10,C3,108236993,56.99 kWh/m2/yr,53.365334,-6.280709,Buy,NATIONAL_COLLEGE_OF_ART_AND_DESIGN_DUBLIN,http://www.daft.ie/for-sale/end-of-terrace-house-44-shandon-crescent-phibsborough-dublin-7/3926058
3925709,19183848,"380 Kildare Road, Crumlin, Dublin 12",295000.0,73,73 m²,2,1,End of Terrace,2022-08-10,E2,,,53.325044,-6.316494,Buy,NATIONAL_COLLEGE_OF_ART_AND_DESIGN_DUBLIN,http://www.daft.ie/for-sale/end-of-terrace-house-380-kildare-road-crumlin-dublin-12/3925709
3925504,19181355,"16 Windele Road, Drumcondra, Dublin 9",395000.0,75,75 m²,2,2,End of Terrace,2022-08-10,G,,,53.37356,-6.259256,Buy,NATIONAL_COLLEGE_OF_ART_AND_DESIGN_DUBLIN,http://www.daft.ie/for-sale/end-of-terrace-house-16-windele-road-drumcondra-dublin-9/3925504
3921291,19149015,"23 Prospect Avenue, D09F210, Glasnevin, Dublin 9",325000.0,75,75 m²,2,2,End of Terrace,2022-08-10,G,114506900,517.83 kWh/m2/yr,53.366137,-6.271555,Buy,NATIONAL_COLLEGE_OF_ART_AND_DESIGN_DUBLIN,http://www.daft.ie/for-sale/end-of-terrace-house-23-prospect-avenue-d09f210-glasnevin-dublin-9/3921291
3920849,19143030,"2 Clonfert Road, Kimmage, Dublin 12",349950.0,74,74 m²,3,1,End of Terrace,2022-08-10,E1,,,53.319433,-6.300102,Buy,NATIONAL_COLLEGE_OF_ART_AND_DESIGN_DUBLIN,http://www.daft.ie/for-sale/end-of-terrace-house-2-clonfert-road-kimmage-dublin-12/3920849
3920581,19141880,"121 Clonliffe Avenue, Dublin 3",425000.0,101,101 m²,4,1,End of Terrace,2022-08-02,E1,108501156,320.83 kWh/m2/yr,53.360918,-6.246955,Buy,NATIONAL_COLLEGE_OF_ART_AND_DESIGN_DUBLIN,http://www.daft.ie/for-sale/end-of-terrace-house-121-clonliffe-avenue-dublin-3/3920581
3919936,19136841,"144 Annamoe Drive, Cabra, Dublin 7",399950.0,N/A,,2,2,End of Terrace,2022-08-10,C3,,,53.360235,-6.285977,Buy,NATIONAL_COLLEGE_OF_ART_AND_DESIGN_DUBLIN,http://www.daft.ie/for-sale/end-of-terrace-house-144-annamoe-drive-cabra-dublin-7/3919936
3919913,19135711,"77 Brighton Square, Rathgar, Rathgar, Dublin 6",725000.0,107,107 m²,2,2,End of Terrace,2022-06-02,E2,102108354,373.43 kWh/m2/yr,53.314705,-6.279877,Buy,NATIONAL_COLLEGE_OF_ART_AND_DESIGN_DUBLIN,http://www.daft.ie/for-sale/end-of-terrace-house-77-brighton-square-rathgar-rathgar-dublin-6/3919913
3915747,19096694,"13 Clogher Road, Crumlin, Crumlin, Dublin 12",324950.0,N/A,,2,2,End of Terrace,2022-05-31,E1,100282318,305.69 kWh/m2/yr,53.325436,-6.299018,Buy,NATIONAL_COLLEGE_OF_ART_AND_DESIGN_DUBLIN,http://www.daft.ie/for-sale/end-of-terrace-house-13-clogher-road-crumlin-crumlin-dublin-12/3915747
3909436,19042090,"13A Synnott Row, Phibsborough, Dublin 7",450000.0,93,93 m²,4,2,End of Terrace,2022-05-27,E2,,,53.359633,-6.263136,Buy,NATIONAL_COLLEGE_OF_ART_AND_DESIGN_DUBLIN,http://www.daft.ie/for-sale/end-of-terrace-house-13a-synnott-row-phibsborough-dublin-7/3909436
3911131,19060509,"539 North Circular Road, Dublin 1",4250000.0,N/A,,15,15,End of Terrace,2022-06-21,SI_666,,,53.35375090496627,-6.252958739993843,Buy,NATIONAL_COLLEGE_OF_ART_AND_DESIGN_DUBLIN,http://www.daft.ie/for-sale/end-of-terrace-house-539-north-circular-road-dublin-1/3911131
3909415,19042081,"4 Derry Road, Crumlin, Crumlin, Dublin 12",349950.0,N/A,,2,3,End of Terrace,2022-06-13,C2,115049694,182.79 kWh/m2/yr,53.324154,-6.307909,Buy,NATIONAL_COLLEGE_OF_ART_AND_DESIGN_DUBLIN,http://www.daft.ie/for-sale/end-of-terrace-house-4-derry-road-crumlin-crumlin-dublin-12/3909415
3906475,19018438,"7a Spencer Street South, South Circular Road, Dublin 8",395000.0,41,41 m²,1,1,End of Terrace,2022-08-10,F,101765626,428.67 kWh/m2/yr,53.332806,-6.273382,Buy,NATIONAL_COLLEGE_OF_ART_AND_DESIGN_DUBLIN,http://www.daft.ie/for-sale/end-of-terrace-house-7a-spencer-street-south-south-circular-road-dublin-8/3906475
3895528,18907352,"11 Shamrock Terrace, Dublin 1",249950.0,N/A,,4,1,End of Terrace,2022-06-21,F,,,53.354973,-6.24412,Buy,NATIONAL_COLLEGE_OF_ART_AND_DESIGN_DUBLIN,http://www.daft.ie/for-sale/end-of-terrace-house-11-shamrock-terrace-dublin-1/3895528
3895389,18904279,"659 Carnlough Road, Cabra, Dublin 7",325000.0,72,72 m²,2,1,End of Terrace,2022-08-10,G,108803487,531.08 kWh/m2/yr,53.371178,-6.304399,Buy,NATIONAL_COLLEGE_OF_ART_AND_DESIGN_DUBLIN,http://www.daft.ie/for-sale/end-of-terrace-house-659-carnlough-road-cabra-dublin-7/3895389
3823244,18847012,"44 Galtymore Drive, Drimnagh, Drimnagh, Dublin 12",324950.0,N/A,,2,1,End of Terrace,2022-06-22,F,115175010,424.34 kWh/m2/yr,53.33426,-6.310834,Buy,NATIONAL_COLLEGE_OF_ART_AND_DESIGN_DUBLIN,http://www.daft.ie/for-sale/end-of-terrace-house-44-galtymore-drive-drimnagh-drimnagh-dublin-12/3823244
3811365,18739324,"22 Finglas Road, Glasnevin, Dublin 11",625000.0,107,107 m²,2,2,End of Terrace,2022-08-10,D2,114749955,298.4 kWh/m2/yr,53.367298,-6.272166,Buy,NATIONAL_COLLEGE_OF_ART_AND_DESIGN_DUBLIN,http://www.daft.ie/for-sale/end-of-terrace-house-22-finglas-road-glasnevin-dublin-11/3811365
3807118,18713678,"383 North Circular Road, Dublin 7",400000.0,N/A,,4,1,End of Terrace,2022-06-21,G,,,53.360826,-6.270665,Buy,NATIONAL_COLLEGE_OF_ART_AND_DESIGN_DUBLIN,http://www.daft.ie/for-sale/end-of-terrace-house-383-north-circular-road-dublin-7/3807118
3803877,18679637,"231 Sundrive Road, Crumlin, Crumlin, Dublin 12",449950.0,N/A,,3,1,End of Terrace,2022-07-11,F,115208209,394.27 kWh/m2/yr,53.327134,-6.297276,Buy,NATIONAL_COLLEGE_OF_ART_AND_DESIGN_DUBLIN,http://www.daft.ie/for-sale/end-of-terrace-house-231-sundrive-road-crumlin-crumlin-dublin-12/3803877
3785610,18528077,"North Circular Road (Portfolio of 3 Properties D.7 & D.9), Dublin 7",1500000.0,N/A,,12,12,End of Terrace,2022-06-21,F,,,53.3602656,-6.2767753,Buy,NATIONAL_COLLEGE_OF_ART_AND_DESIGN_DUBLIN,http://www.daft.ie/for-sale/end-of-terrace-house-north-circular-road-portfolio-of-3-properties-d-7-d-9-dublin-7/3785610
3785468,18526185,"48 Innisfallen Parade (4 Self Contained Units), Phibsborough, Dublin 7",395000.0,115,115 m²,4,4,End of Terrace,2022-06-21,F,,,53.361354,-6.265391,Buy,NATIONAL_COLLEGE_OF_ART_AND_DESIGN_DUBLIN,http://www.daft.ie/for-sale/end-of-terrace-house-48-innisfallen-parade-4-self-contained-units-phibsborough-dublin-7/3785468
3771706,18393953,"1 Waterloo Road, Ballsbridge, Dublin 4",6000000.0,547,547 m²,6,3,End of Terrace,2022-08-10,SI_666,,,53.332101,-6.244247,Buy,NATIONAL_COLLEGE_OF_ART_AND_DESIGN_DUBLIN,http://www.daft.ie/for-sale/end-of-terrace-house-1-waterloo-road-ballsbridge-dublin-4/3771706
3758128,18294514,"203 Captains Road, Crumlin, Dublin 12",325000.0,84,84 m²,3,,End of Terrace,2022-08-10,E1,114469760,332.62 kWh/m2/yr,53.31746,-6.307302,Buy,NATIONAL_COLLEGE_OF_ART_AND_DESIGN_DUBLIN,http://www.daft.ie/for-sale/end-of-terrace-house-203-captains-road-crumlin-dublin-12/3758128
3757650,18292332,"14 Herberton Drive, Rialto, Dublin 8",425000.0,84,84 m²,3,1,End of Terrace,2022-08-10,G,,,53.332341,-6.296654,Buy,NATIONAL_COLLEGE_OF_ART_AND_DESIGN_DUBLIN,http://www.daft.ie/for-sale/end-of-terrace-house-14-herberton-drive-rialto-dublin-8/3757650
3751141,18242419,"54 John Street South, Dublin 8",280000.0,78,78 m²,2,1,End of Terrace,2022-08-10,F,,,53.338919,-6.282029,Buy,NATIONAL_COLLEGE_OF_ART_AND_DESIGN_DUBLIN,http://www.daft.ie/for-sale/end-of-terrace-house-54-john-street-south-dublin-8/3751141
3738329,18127213,"87 Quarry Road, Cabra East, Cabra, Dublin 7",395000.0,75,75 m²,2,1,End of Terrace,2022-08-09,B3,108358110,146.48 kWh/m2/yr,53.364548,-6.287979,Buy,NATIONAL_COLLEGE_OF_ART_AND_DESIGN_DUBLIN,http://www.daft.ie/for-sale/end-of-terrace-house-87-quarry-road-cabra-east-cabra-dublin-7/3738329
3696830,17762508,"2 Cashel Road, Crumlin, Crumlin, Dublin 12",315000.0,84,84 m²,2,1,End of Terrace,2022-08-10,F,112478854,,53.324842,-6.308018,Buy,NATIONAL_COLLEGE_OF_ART_AND_DESIGN_DUBLIN,http://www.daft.ie/for-sale/end-of-terrace-house-2-cashel-road-crumlin-crumlin-dublin-12/3696830
3660779,17427751,"29 Charleville Avenue, North Strand, Ballybough, Dublin 3",399950.0,104,104 m²,2,1,End of Terrace,2022-06-21,SI_666,,,53.358913,-6.245539,Buy,NATIONAL_COLLEGE_OF_ART_AND_DESIGN_DUBLIN,http://www.daft.ie/for-sale/end-of-terrace-house-29-charleville-avenue-north-strand-ballybough-dublin-3/3660779
3611184,16901318,"118 Dorset Street Upper, Dublin 1",550000.0,148,148 m²,4,2,End of Terrace,2022-08-05,F,,,53.354536,-6.266822,Buy,NATIONAL_COLLEGE_OF_ART_AND_DESIGN_DUBLIN,http://www.daft.ie/for-sale/end-of-terrace-house-118-dorset-street-upper-dublin-1/3611184
3469271,15701730,"33 Clonmore Road, Ballybough, Ballybough, Dublin 3",360000.0,101,101 m²,3,1,End of Terrace,2022-06-23,F,,,53.35836,-6.246268,Buy,NATIONAL_COLLEGE_OF_ART_AND_DESIGN_DUBLIN,http://www.daft.ie/for-sale/end-of-terrace-house-33-clonmore-road-ballybough-ballybough-dublin-3/3469271
3562084,16359697,"Portland House, 555 South Circular Road, Kilmainham, Dublin 8",825000.0,164,164 m²,5,5,End of Terrace,2022-08-10,E2,113774228,354.01 kWh/m2/yr,53.33873,-6.302587,Buy,NATIONAL_COLLEGE_OF_ART_AND_DESIGN_DUBLIN,http://www.daft.ie/for-sale/end-of-terrace-house-portland-house-555-south-circular-road-kilmainham-dublin-8/3562084
4006375,112987404,"57 Monasterboice Road, Crumlin, Crumlin, Dublin 12",298000.0,58,58 m²,2,2,Terrace,2022-08-08,F,114389224,427.7 kWh/m2/yr,53.324018,-6.30338,Buy,NATIONAL_COLLEGE_OF_ART_AND_DESIGN_DUBLIN,http://www.daft.ie/for-sale/terraced-house-57-monasterboice-road-crumlin-crumlin-dublin-12/4006375
4006341,112986276,"7 Louis Lane, Rathmines, Dublin 6",925000.0,110,110 m²,3,3,Terrace,2022-08-10,C2,106703317,189.82 kWh/m2/yr,53.324318,-6.268617,Buy,NATIONAL_COLLEGE_OF_ART_AND_DESIGN_DUBLIN,http://www.daft.ie/for-sale/terraced-house-7-louis-lane-rathmines-dublin-6/4006341
4006196,112983007,"9 Greenville Terrace, South Circular Road, South Circular Road, Dublin 8",475000.0,66,66 m²,1,1,Terrace,2022-08-10,G,115220345,563.44 kWh/m2/yr,53.332293,-6.278889,Buy,NATIONAL_COLLEGE_OF_ART_AND_DESIGN_DUBLIN,http://www.daft.ie/for-sale/terraced-house-9-greenville-terrace-south-circular-road-south-circular-road-dublin-8/4006196
4006125,112982971,"290 Clonard Road, Crumlin, Crumlin, Dublin 12",300000.0,70,70 m²,2,1,Terrace,2022-08-10,F,,,53.319811,-6.303351,Buy,NATIONAL_COLLEGE_OF_ART_AND_DESIGN_DUBLIN,http://www.daft.ie/for-sale/terraced-house-290-clonard-road-crumlin-crumlin-dublin-12/4006125
4005511,112977983,"181 Oxmantown Road, Stoneybatter, Dublin 7",475000.0,74,74 m²,2,1,Terrace,2022-08-03,E1,,,53.351563,-6.287913,Buy,NATIONAL_COLLEGE_OF_ART_AND_DESIGN_DUBLIN,http://www.daft.ie/for-sale/terraced-house-181-oxmantown-road-stoneybatter-dublin-7/4005511
4005448,112977951,"78 Annamoe Road, Cabra, Cabra, Dublin 7",575000.0,115,115 m²,3,1,Semi-D,2022-08-10,E1,115392276,302.09 kWh/m2/yr,53.359467,-6.28773,Buy,NATIONAL_COLLEGE_OF_ART_AND_DESIGN_DUBLIN,http://www.daft.ie/for-sale/semi-detached-house-78-annamoe-road-cabra-cabra-dublin-7/4005448
4005177,112973794,"23 Synge Street Portobello Dublin 8, Portobello, Dublin 8",1395000.0,197,197 m²,4,3,Terrace,2022-08-10,C1,104498514,155.79 kWh/m2/yr,53.331648,-6.267023,Buy,NATIONAL_COLLEGE_OF_ART_AND_DESIGN_DUBLIN,http://www.daft.ie/for-sale/terraced-house-23-synge-street-portobello-dublin-8-portobello-dublin-8/4005177
4003833,112961997,"29 Brookfield Road, Kilmainham, Kilmainham, Dublin 8",495000.0,84,84 m²,2,1,Terrace,2022-08-10,F,115383325,407.28 kWh/m2/yr,53.339676,-6.301474,Buy,NATIONAL_COLLEGE_OF_ART_AND_DESIGN_DUBLIN,http://www.daft.ie/for-sale/terraced-house-29-brookfield-road-kilmainham-kilmainham-dublin-8/4003833
4004842,112970355,"8 Parnell Road, Harold's Cross, Dublin 6",745000.0,116,116 m²,3,2,Terrace,2022-08-10,,,,53.329502,-6.278219,Buy,NATIONAL_COLLEGE_OF_ART_AND_DESIGN_DUBLIN,http://www.daft.ie/for-sale/terraced-house-8-parnell-road-harolds-cross-dublin-6/4004842
4004298,112965097,"4 Goldenbridge Gardens, Inchicore, Inchicore, Dublin 8",395000.0,80,80 m²,3,1,Semi-D,2022-08-10,D1,,,53.337084,-6.313493,Buy,NATIONAL_COLLEGE_OF_ART_AND_DESIGN_DUBLIN,http://www.daft.ie/for-sale/semi-detached-house-4-goldenbridge-gardens-inchicore-inchicore-dublin-8/4004298
4004051,112963461,"7 Connaught Parade, Connaught Street, Phibsborough, Dublin 7",295000.0,N/A,,2,1,Terrace,2022-08-10,E1,,,53.363285,-6.28033,Buy,NATIONAL_COLLEGE_OF_ART_AND_DESIGN_DUBLIN,http://www.daft.ie/for-sale/terraced-house-7-connaught-parade-connaught-street-phibsborough-dublin-7/4004051
4003944,112963340,"22 Dunmanus Road, Cabra, Dublin 7",365000.0,N/A,,3,2,Semi-D,2022-08-10,E2,108749391,368.21 kWh/m2/yr,53.366631,-6.296595,Buy,NATIONAL_COLLEGE_OF_ART_AND_DESIGN_DUBLIN,http://www.daft.ie/for-sale/semi-detached-house-22-dunmanus-road-cabra-dublin-7/4003944
4003631,112958230,"32 Rathdown Park, Terenure, Dublin 6W",1795000.0,218,218 m²,5,2,Semi-D,2022-08-10,C3,103930772,222.53 kWh/m2/yr,53.305565,-6.285743,Buy,NATIONAL_COLLEGE_OF_ART_AND_DESIGN_DUBLIN,http://www.daft.ie/for-sale/semi-detached-house-32-rathdown-park-terenure-dublin-6w/4003631
4003456,112956708,"17 Goldenbridge Avenue, Inchicore, Inchicore, Dublin 8",395000.0,76,76 m²,3,2,End of Terrace,2022-08-10,E2,107924037,,53.337993,-6.31163,Buy,NATIONAL_COLLEGE_OF_ART_AND_DESIGN_DUBLIN,http://www.daft.ie/for-sale/end-of-terrace-house-17-goldenbridge-avenue-inchicore-inchicore-dublin-8/4003456
4001390,112944041,"20 Mount Drummond Square, Harold's Cross, Dublin 6",395000.0,58,58 m²,2,2,End of Terrace,2022-08-10,F,106212111,428.6 kWh/m2/yr,53.325304,-6.27421,Buy,NATIONAL_COLLEGE_OF_ART_AND_DESIGN_DUBLIN,http://www.daft.ie/for-sale/end-of-terrace-house-20-mount-drummond-square-harolds-cross-dublin-6/4001390
4001381,112943975,"40 Great Western Villas, Phibsborough, Dublin 7",365000.0,67,67 m²,2,2,End of Terrace,2022-08-10,F,111911863,443.09 kWh/m2/yr,53.358662,-6.275734,Buy,NATIONAL_COLLEGE_OF_ART_AND_DESIGN_DUBLIN,http://www.daft.ie/for-sale/end-of-terrace-house-40-great-western-villas-phibsborough-dublin-7/4001381
4001518,112944166,"7 Hanover Square, Christchurch, Dublin 8",330000.0,45,45 m²,1,1,End of Terrace,2022-08-10,E1,115381550,328.62 kWh/m2/yr,53.340491,-6.272982,Buy,NATIONAL_COLLEGE_OF_ART_AND_DESIGN_DUBLIN,http://www.daft.ie/for-sale/end-of-terrace-house-7-hanover-square-christchurch-dublin-8/4001518
3899848,18952576,"31 Harty Place, Portobello, Dublin 8",300000.0,33,33 m²,1,1,Terrace,2022-08-04,F,,,53.335099,-6.271554,Buy,NATIONAL_COLLEGE_OF_ART_AND_DESIGN_DUBLIN,http://www.daft.ie/for-sale/terraced-house-31-harty-place-portobello-dublin-8/3899848
4001244,112942631,"45 Hazelbrook Drive, Terenure, Terenure, Dublin 6W",525000.0,95,95 m²,3,1,Terrace,2022-08-10,D2,114894546,271.47 kWh/m2/yr,53.312717,-6.293513,Buy,NATIONAL_COLLEGE_OF_ART_AND_DESIGN_DUBLIN,http://www.daft.ie/for-sale/terraced-house-45-hazelbrook-drive-terenure-terenure-dublin-6w/4001244
4001154,112941076,"136 Dolphin Road, Drimnagh, Dublin 12",325000.0,N/A,,2,1,Terrace,2022-08-10,,,,53.335399,-6.303617,Buy,NATIONAL_COLLEGE_OF_ART_AND_DESIGN_DUBLIN,http://www.daft.ie/for-sale/terraced-house-136-dolphin-road-drimnagh-dublin-12/4001154
4001090,112941015,"100 Kilfenora Road, Kimmage, Kimmage, Dublin 12",299950.0,80,80 m²,2,1,Terrace,2022-07-29,D2,,,53.319841,-6.299063,Buy,NATIONAL_COLLEGE_OF_ART_AND_DESIGN_DUBLIN,http://www.daft.ie/for-sale/terraced-house-100-kilfenora-road-kimmage-kimmage-dublin-12/4001090
4001134,112941036,"100 Kilfenora Road, Crumlin, Crumlin, Dublin 12",299950.0,80,80 m²,2,1,Terrace,2022-07-29,D1,,,53.319841,-6.299063,Buy,NATIONAL_COLLEGE_OF_ART_AND_DESIGN_DUBLIN,http://www.daft.ie/for-sale/terraced-house-100-kilfenora-road-crumlin-crumlin-dublin-12/4001134
4000815,112937956,"10 Cowper Gardens, Ranelagh, Dublin 6",1550000.0,168,168 m²,5,2,Semi-D,2022-08-10,D2,104990270,265.99 kWh/m2/yr,53.31614,-6.251791,Buy,NATIONAL_COLLEGE_OF_ART_AND_DESIGN_DUBLIN,http://www.daft.ie/for-sale/semi-detached-house-10-cowper-gardens-ranelagh-dublin-6/4000815
4000516,112935751,"31 Kingsland Parade, Portobello, Dublin 8",465000.0,55,55 m²,2,1,Terrace,2022-08-02,E2,115335044,356.36 kWh/m2/yr,53.33091,-6.268777,Buy,NATIONAL_COLLEGE_OF_ART_AND_DESIGN_DUBLIN,http://www.daft.ie/for-sale/terraced-house-31-kingsland-parade-portobello-dublin-8/4000516
4000251,112931966,"10 Dowling's Court, City Quay, Dublin 2",395000.0,N/A,,3,1,Terrace,2022-07-29,C1,108048703,169.53 kWh/m2/yr,53.346053,-6.249045,Buy,NATIONAL_COLLEGE_OF_ART_AND_DESIGN_DUBLIN,http://www.daft.ie/for-sale/terraced-house-10-dowlings-court-city-quay-dublin-2/4000251
4000137,112931867,"1 Eden Terrace, Botanic Avenue, Drumcondra, Dublin 9",425000.0,73,73 m²,2,2,End of Terrace,2022-08-10,C2,,,53.368309,-6.260784,Buy,NATIONAL_COLLEGE_OF_ART_AND_DESIGN_DUBLIN,http://www.daft.ie/for-sale/end-of-terrace-house-1-eden-terrace-botanic-avenue-drumcondra-dublin-9/4000137
3999954,112929895,"15 Marguerite Road, Glasnevin, Dublin 9",649000.0,140,140 m²,3,2,Terrace,2022-08-10,E2,115374522,68.49 kWh/m2/yr,53.368572,-6.268234,Buy,NATIONAL_COLLEGE_OF_ART_AND_DESIGN_DUBLIN,http://www.daft.ie/for-sale/terraced-house-15-marguerite-road-glasnevin-dublin-9/3999954
3999958,112930301,"13 Parnell Road, Harold's Cross, Dublin 12",750000.0,145,145 m²,3,3,Terrace,2022-08-10,,,,53.32954,-6.278904,Buy,NATIONAL_COLLEGE_OF_ART_AND_DESIGN_DUBLIN,http://www.daft.ie/for-sale/terraced-house-13-parnell-road-harolds-cross-dublin-12/3999958
3999321,112922089,"9 Leinster Park, Harold's Cross Road, Harold's Cross, Dublin 6",695000.0,142,142 m²,4,3,Terrace,2022-07-28,C3,,,53.325061,-6.277076,Buy,NATIONAL_COLLEGE_OF_ART_AND_DESIGN_DUBLIN,http://www.daft.ie/for-sale/terraced-house-9-leinster-park-harolds-cross-road-harolds-cross-dublin-6/3999321
3998417,112920331,"5 Park View, Orwell Road, Rathgar, Dublin 6",575000.0,85,85 m²,3,3,End of Terrace,2022-08-10,E1,115373888,331.33 kWh/m2/yr,53.306303,-6.268107,Buy,NATIONAL_COLLEGE_OF_ART_AND_DESIGN_DUBLIN,http://www.daft.ie/for-sale/end-of-terrace-house-5-park-view-orwell-road-rathgar-dublin-6/3998417
3997804,112912130,"1A Glasnamana Place, Glasnevin, Dublin 11",450000.0,115,115 m²,3,2,Detached,2022-08-10,C1,109065938,163.48 kWh/m2/yr,53.382436,-6.280284,Buy,NATIONAL_COLLEGE_OF_ART_AND_DESIGN_DUBLIN,http://www.daft.ie/for-sale/detached-house-1a-glasnamana-place-glasnevin-dublin-11/3997804
3996871,112900969,"7 Fitzroy Avenue, Drumcondra, Dublin 3",450000.0,81,81 m²,2,1,Terrace,2022-08-10,D2,114895857,295.15 kWh/m2/yr,53.361677,-6.2539,Buy,NATIONAL_COLLEGE_OF_ART_AND_DESIGN_DUBLIN,http://www.daft.ie/for-sale/terraced-house-7-fitzroy-avenue-drumcondra-dublin-3/3996871
3996843,112900927,"86 Heytesbury Street, Dublin 8",775000.0,117,117 m²,3,2,Terrace,2022-08-10,SI_666,,,53.335637,-6.268634,Buy,NATIONAL_COLLEGE_OF_ART_AND_DESIGN_DUBLIN,http://www.daft.ie/for-sale/terraced-house-86-heytesbury-street-dublin-8/3996843
3996543,112898034,"64 Windmill Road, Crumlin, Crumlin, Dublin 12",269000.0,70,70 m²,3,1,Terrace,2022-08-09,E1,,,53.32468,-6.311072,Buy,NATIONAL_COLLEGE_OF_ART_AND_DESIGN_DUBLIN,http://www.daft.ie/for-sale/terraced-house-64-windmill-road-crumlin-crumlin-dublin-12/3996543
3996573,112899393,"91 Mount Drummond Square, Harold's Cross, Dublin 6",475000.0,76,76 m²,3,1,End of Terrace,2022-08-10,E2,115373854,379.24 kWh/m2/yr,53.32596,-6.274109,Buy,NATIONAL_COLLEGE_OF_ART_AND_DESIGN_DUBLIN,http://www.daft.ie/for-sale/end-of-terrace-house-91-mount-drummond-square-harolds-cross-dublin-6/3996573
3996568,112899365,"241 Carnlough Road, Cabra, Dublin 7",375000.0,N/A,,4,2,Semi-D,2022-08-10,E1,115368003,313.65 kWh/m2/yr,53.367858,-6.291598,Buy,NATIONAL_COLLEGE_OF_ART_AND_DESIGN_DUBLIN,http://www.daft.ie/for-sale/semi-detached-house-241-carnlough-road-cabra-dublin-7/3996568
3996486,112898008,"11 Gulistan Cottages, Rathmines, Rathmines, Dublin 6",424950.0,N/A,,2,1,End of Terrace,2022-07-27,SI_666,,,53.324512,-6.262292,Buy,NATIONAL_COLLEGE_OF_ART_AND_DESIGN_DUBLIN,http://www.daft.ie/for-sale/end-of-terrace-house-11-gulistan-cottages-rathmines-rathmines-dublin-6/3996486
3996450,112897990,"11 Herberton Road, Crumlin, Crumlin, Dublin 12",295000.0,84,84 m²,2,1,Terrace,2022-08-09,D1,,,53.330597,-6.298333,Buy,NATIONAL_COLLEGE_OF_ART_AND_DESIGN_DUBLIN,http://www.daft.ie/for-sale/terraced-house-11-herberton-road-crumlin-crumlin-dublin-12/3996450
3996238,112894837,"4 Orchard Terrace, Grangegorman, Dublin 7",475000.0,97,97 m²,1,1,Terrace,2022-08-08,E1,114648108,325.54 kWh/m2/yr,53.358111,-6.281502,Buy,NATIONAL_COLLEGE_OF_ART_AND_DESIGN_DUBLIN,http://www.daft.ie/for-sale/terraced-house-4-orchard-terrace-grangegorman-dublin-7/3996238
3995709,112889912,"204 Cashel Road, Crumlin, Crumlin, Dublin 12",300000.0,61,61 m²,2,1,Semi-D,2022-08-04,E1,,,53.319678,-6.304776,Buy,NATIONAL_COLLEGE_OF_ART_AND_DESIGN_DUBLIN,http://www.daft.ie/for-sale/semi-detached-house-204-cashel-road-crumlin-crumlin-dublin-12/3995709
3995257,112885196,"7 Cormac Terrace, Terenure, Terenure, Dublin 6",435000.0,38,38 m²,2,1,Terrace,2022-08-08,B3,108390576,147.77 kWh/m2/yr,53.308479,-6.284669,Buy,NATIONAL_COLLEGE_OF_ART_AND_DESIGN_DUBLIN,http://www.daft.ie/for-sale/terraced-house-7-cormac-terrace-terenure-terenure-dublin-6/3995257
3995085,112882757,"71 Cashel Road, Crumlin, Crumlin, Dublin 12",275000.0,82,82 m²,2,1,Terrace,2022-08-10,C2,110203098,,53.323168,-6.306837,Buy,NATIONAL_COLLEGE_OF_ART_AND_DESIGN_DUBLIN,http://www.daft.ie/for-sale/terraced-house-71-cashel-road-crumlin-crumlin-dublin-12/3995085
3994763,112878376,"14 Harman Street, Dublin 8",310000.0,60,60 m²,2,2,End of Terrace,2022-08-10,G,,,53.335765,-6.282888,Buy,NATIONAL_COLLEGE_OF_ART_AND_DESIGN_DUBLIN,http://www.daft.ie/for-sale/end-of-terrace-house-14-harman-street-dublin-8/3994763
3994587,112876464,"28 Lindsay Road, Glasnevin, Dublin 9",870000.0,148,148 m²,3,2,Semi-D,2022-08-10,G,115222762,1143.99 kWh/m2/yr,53.3653473,-6.2694088,Buy,NATIONAL_COLLEGE_OF_ART_AND_DESIGN_DUBLIN,http://www.daft.ie/for-sale/semi-detached-house-28-lindsay-road-glasnevin-dublin-9/3994587
3994250,112872987,"51 Southern Cross Avenue, Inchicore, Inchicore, Dublin 8",425000.0,81,81 m²,3,1,Semi-D,2022-08-10,E2,114670789,,53.339371,-6.312701,Buy,NATIONAL_COLLEGE_OF_ART_AND_DESIGN_DUBLIN,http://www.daft.ie/for-sale/semi-detached-house-51-southern-cross-avenue-inchicore-inchicore-dublin-8/3994250
3993477,112862542,"135 St Attracta Road, Cabra, Dublin 7",349000.0,66,66 m²,2,1,Terrace,2022-08-10,C3,114600034,202.2 kWh/m2/yr,53.366765,-6.284489,Buy,NATIONAL_COLLEGE_OF_ART_AND_DESIGN_DUBLIN,http://www.daft.ie/for-sale/terraced-house-135-st-attracta-road-cabra-dublin-7/3993477
3993475,112862538,"26 St Kevin's Parade, Portobello, Dublin 8",445000.0,54,54 m²,2,1,Detached,2022-07-25,G,103710869,554.67 kWh/m2/yr,53.334613,-6.273463,Buy,NATIONAL_COLLEGE_OF_ART_AND_DESIGN_DUBLIN,http://www.daft.ie/for-sale/detached-house-26-st-kevins-parade-portobello-dublin-8/3993475
3992481,19755007,"412 Captains Road, Crumlin, Dublin 12",320000.0,68,68 m²,2,2,Semi-D,2022-08-10,E2,,,53.322356,-6.312742,Buy,NATIONAL_COLLEGE_OF_ART_AND_DESIGN_DUBLIN,http://www.daft.ie/for-sale/semi-detached-house-412-captains-road-crumlin-dublin-12/3992481
3978348,19611149,"51 Leix Road, Cabra, Cabra, Dublin 7",375000.0,78,78 m²,2,1,End of Terrace,2022-08-10,F,,,53.362094,-6.287243,Buy,NATIONAL_COLLEGE_OF_ART_AND_DESIGN_DUBLIN,http://www.daft.ie/for-sale/end-of-terrace-house-51-leix-road-cabra-cabra-dublin-7/3978348
3991730,19743589,"13 Portobello Harbour, Portobello, Dublin 8",675000.0,93,93 m²,4,2,Terrace,2022-08-10,G,105025340,775.62 kWh/m2/yr,53.330626,-6.266631,Buy,NATIONAL_COLLEGE_OF_ART_AND_DESIGN_DUBLIN,http://www.daft.ie/for-sale/terraced-house-13-portobello-harbour-portobello-dublin-8/3991730
4006375,112987404,"57 Monasterboice Road, Crumlin, Crumlin, Dublin 12",298000.0,58,58 m²,2,2,Terrace,2022-08-08,F,114389224,427.7 kWh/m2/yr,53.324018,-6.30338,Buy,NATIONAL_COLLEGE_OF_ART_AND_DESIGN_DUBLIN,http://www.daft.ie/for-sale/terraced-house-57-monasterboice-road-crumlin-crumlin-dublin-12/4006375
4006341,112986276,"7 Louis Lane, Rathmines, Dublin 6",925000.0,110,110 m²,3,3,Terrace,2022-08-10,C2,106703317,189.82 kWh/m2/yr,53.324318,-6.268617,Buy,NATIONAL_COLLEGE_OF_ART_AND_DESIGN_DUBLIN,http://www.daft.ie/for-sale/terraced-house-7-louis-lane-rathmines-dublin-6/4006341
4006196,112983007,"9 Greenville Terrace, South Circular Road, South Circular Road, Dublin 8",475000.0,66,66 m²,1,1,Terrace,2022-08-10,G,115220345,563.44 kWh/m2/yr,53.332293,-6.278889,Buy,NATIONAL_COLLEGE_OF_ART_AND_DESIGN_DUBLIN,http://www.daft.ie/for-sale/terraced-house-9-greenville-terrace-south-circular-road-south-circular-road-dublin-8/4006196
4006125,112982971,"290 Clonard Road, Crumlin, Crumlin, Dublin 12",300000.0,70,70 m²,2,1,Terrace,2022-08-10,F,,,53.319811,-6.303351,Buy,NATIONAL_COLLEGE_OF_ART_AND_DESIGN_DUBLIN,http://www.daft.ie/for-sale/terraced-house-290-clonard-road-crumlin-crumlin-dublin-12/4006125
4005511,112977983,"181 Oxmantown Road, Stoneybatter, Dublin 7",475000.0,74,74 m²,2,1,Terrace,2022-08-03,E1,,,53.351563,-6.287913,Buy,NATIONAL_COLLEGE_OF_ART_AND_DESIGN_DUBLIN,http://www.daft.ie/for-sale/terraced-house-181-oxmantown-road-stoneybatter-dublin-7/4005511
4005448,112977951,"78 Annamoe Road, Cabra, Cabra, Dublin 7",575000.0,115,115 m²,3,1,Semi-D,2022-08-10,E1,115392276,302.09 kWh/m2/yr,53.359467,-6.28773,Buy,NATIONAL_COLLEGE_OF_ART_AND_DESIGN_DUBLIN,http://www.daft.ie/for-sale/semi-detached-house-78-annamoe-road-cabra-cabra-dublin-7/4005448
4005177,112973794,"23 Synge Street Portobello Dublin 8, Portobello, Dublin 8",1395000.0,197,197 m²,4,3,Terrace,2022-08-10,C1,104498514,155.79 kWh/m2/yr,53.331648,-6.267023,Buy,NATIONAL_COLLEGE_OF_ART_AND_DESIGN_DUBLIN,http://www.daft.ie/for-sale/terraced-house-23-synge-street-portobello-dublin-8-portobello-dublin-8/4005177
4003833,112961997,"29 Brookfield Road, Kilmainham, Kilmainham, Dublin 8",495000.0,84,84 m²,2,1,Terrace,2022-08-10,F,115383325,407.28 kWh/m2/yr,53.339676,-6.301474,Buy,NATIONAL_COLLEGE_OF_ART_AND_DESIGN_DUBLIN,http://www.daft.ie/for-sale/terraced-house-29-brookfield-road-kilmainham-kilmainham-dublin-8/4003833
4004842,112970355,"8 Parnell Road, Harold's Cross, Dublin 6",745000.0,116,116 m²,3,2,Terrace,2022-08-10,,,,53.329502,-6.278219,Buy,NATIONAL_COLLEGE_OF_ART_AND_DESIGN_DUBLIN,http://www.daft.ie/for-sale/terraced-house-8-parnell-road-harolds-cross-dublin-6/4004842
4004298,112965097,"4 Goldenbridge Gardens, Inchicore, Inchicore, Dublin 8",395000.0,80,80 m²,3,1,Semi-D,2022-08-10,D1,,,53.337084,-6.313493,Buy,NATIONAL_COLLEGE_OF_ART_AND_DESIGN_DUBLIN,http://www.daft.ie/for-sale/semi-detached-house-4-goldenbridge-gardens-inchicore-inchicore-dublin-8/4004298
4004051,112963461,"7 Connaught Parade, Connaught Street, Phibsborough, Dublin 7",295000.0,N/A,,2,1,Terrace,2022-08-10,E1,,,53.363285,-6.28033,Buy,NATIONAL_COLLEGE_OF_ART_AND_DESIGN_DUBLIN,http://www.daft.ie/for-sale/terraced-house-7-connaught-parade-connaught-street-phibsborough-dublin-7/4004051
4003944,112963340,"22 Dunmanus Road, Cabra, Dublin 7",365000.0,N/A,,3,2,Semi-D,2022-08-10,E2,108749391,368.21 kWh/m2/yr,53.366631,-6.296595,Buy,NATIONAL_COLLEGE_OF_ART_AND_DESIGN_DUBLIN,http://www.daft.ie/for-sale/semi-detached-house-22-dunmanus-road-cabra-dublin-7/4003944
4003631,112958230,"32 Rathdown Park, Terenure, Dublin 6W",1795000.0,218,218 m²,5,2,Semi-D,2022-08-10,C3,103930772,222.53 kWh/m2/yr,53.305565,-6.285743,Buy,NATIONAL_COLLEGE_OF_ART_AND_DESIGN_DUBLIN,http://www.daft.ie/for-sale/semi-detached-house-32-rathdown-park-terenure-dublin-6w/4003631
4003456,112956708,"17 Goldenbridge Avenue, Inchicore, Inchicore, Dublin 8",395000.0,76,76 m²,3,2,End of Terrace,2022-08-10,E2,107924037,,53.337993,-6.31163,Buy,NATIONAL_COLLEGE_OF_ART_AND_DESIGN_DUBLIN,http://www.daft.ie/for-sale/end-of-terrace-house-17-goldenbridge-avenue-inchicore-inchicore-dublin-8/4003456
4001390,112944041,"20 Mount Drummond Square, Harold's Cross, Dublin 6",395000.0,58,58 m²,2,2,End of Terrace,2022-08-10,F,106212111,428.6 kWh/m2/yr,53.325304,-6.27421,Buy,NATIONAL_COLLEGE_OF_ART_AND_DESIGN_DUBLIN,http://www.daft.ie/for-sale/end-of-terrace-house-20-mount-drummond-square-harolds-cross-dublin-6/4001390
4001381,112943975,"40 Great Western Villas, Phibsborough, Dublin 7",365000.0,67,67 m²,2,2,End of Terrace,2022-08-10,F,111911863,443.09 kWh/m2/yr,53.358662,-6.275734,Buy,NATIONAL_COLLEGE_OF_ART_AND_DESIGN_DUBLIN,http://www.daft.ie/for-sale/end-of-terrace-house-40-great-western-villas-phibsborough-dublin-7/4001381
4001518,112944166,"7 Hanover Square, Christchurch, Dublin 8",330000.0,45,45 m²,1,1,End of Terrace,2022-08-10,E1,115381550,328.62 kWh/m2/yr,53.340491,-6.272982,Buy,NATIONAL_COLLEGE_OF_ART_AND_DESIGN_DUBLIN,http://www.daft.ie/for-sale/end-of-terrace-house-7-hanover-square-christchurch-dublin-8/4001518
3899848,18952576,"31 Harty Place, Portobello, Dublin 8",300000.0,33,33 m²,1,1,Terrace,2022-08-04,F,,,53.335099,-6.271554,Buy,NATIONAL_COLLEGE_OF_ART_AND_DESIGN_DUBLIN,http://www.daft.ie/for-sale/terraced-house-31-harty-place-portobello-dublin-8/3899848
4001244,112942631,"45 Hazelbrook Drive, Terenure, Terenure, Dublin 6W",525000.0,95,95 m²,3,1,Terrace,2022-08-10,D2,114894546,271.47 kWh/m2/yr,53.312717,-6.293513,Buy,NATIONAL_COLLEGE_OF_ART_AND_DESIGN_DUBLIN,http://www.daft.ie/for-sale/terraced-house-45-hazelbrook-drive-terenure-terenure-dublin-6w/4001244
