id,daftShortcode,title,price,size_meters_squared,propertySize,bedrooms,bathrooms,propertyType,publishDate,ber_rating,ber_code,ber_epi,latitude,longitude,category,location,url_link
4006154,112982984,"Apartment 56, Ha'penny Bridge House, Dublin 1",450000.0,51,51 m²,3,1,Apartment,2022-08-05,D2,104346531,,53.346352,-6.265511,Buy,NORTH_CO_DUBLIN_DUBLIN,http://www.daft.ie/for-sale/apartment-apartment-56-hapenny-bridge-house-dublin-1/4006154
4006052,112981292,"Apartment 12, The Goulding, Santry Cross, Santry, Dublin 9",245000.0,60,60 m²,2,2,Apartment,2022-08-10,D2,106925316,262.15 kWh/m2/yr,53.400385,-6.263637,Buy,NORTH_CO_DUBLIN_DUBLIN,http://www.daft.ie/for-sale/apartment-apartment-12-the-goulding-santry-cross-santry-dublin-9/4006052
4005927,112980948,"34 The Wellington, Riverpark Apartments, Islandbridge, Dublin 8",360000.0,62,62 m²,2,1,Apartment,2022-08-10,C2,106075369,195.63 kWh/m2/yr,53.358564,-6.276094,Buy,NORTH_CO_DUBLIN_DUBLIN,http://www.daft.ie/for-sale/apartment-34-the-wellington-riverpark-apartments-islandbridge-dublin-8/4005927
4005913,112980682,"3B The Gate, Malahide, Co. Dublin",490000.0,91,91 m²,2,2,Apartment,2022-08-10,A3,110917598,58.97 kWh/m2/yr,53.44305,-6.135799,Buy,NORTH_CO_DUBLIN_DUBLIN,http://www.daft.ie/for-sale/apartment-3b-the-gate-malahide-co-dublin/4005913
4005964,112981248,"Apartment 36, Clifden Court, Dublin 7",250000.0,N/A,,1,1,Apartment,2022-08-09,C2,107865925,,53.347083,-6.283202,Buy,NORTH_CO_DUBLIN_DUBLIN,http://www.daft.ie/for-sale/apartment-apartment-36-clifden-court-dublin-7/4005964
4005877,112980478,"26 Clearwater Court North, Royal Canal Park, Ashtown, Dublin 15",320000.0,78,78 m²,3,2,Apartment,2022-08-10,D2,102199387,278.8 kWh/m2/yr,53.377511,-6.317334,Buy,NORTH_CO_DUBLIN_DUBLIN,http://www.daft.ie/for-sale/apartment-26-clearwater-court-north-royal-canal-park-ashtown-dublin-15/4005877
4005202,112976166,"Apartment 4, The Richmond, Dublin 7",260000.0,38,38 m²,1,1,Apartment,2022-08-05,D2,,,53.350708,-6.277826,Buy,NORTH_CO_DUBLIN_DUBLIN,http://www.daft.ie/for-sale/apartment-apartment-4-the-richmond-dublin-7/4005202
4004930,112970474,"Apartment 10, Vernon Court, Clontarf, Dublin 3",335000.0,62,62 m²,2,1,Apartment,2022-08-09,D1,103426631,252.05 kWh/m2/yr,53.358927,-6.193953,Buy,NORTH_CO_DUBLIN_DUBLIN,http://www.daft.ie/for-sale/apartment-apartment-10-vernon-court-clontarf-dublin-3/4004930
4004624,112968618,"Apt 21, Rosemount, Glandore Road, Drumcondra, Dublin 9",380000.0,70,70 m²,2,2,Apartment,2022-08-10,C3,106793482,214.95 kWh/m2/yr,53.3727082,-6.2373207,Buy,NORTH_CO_DUBLIN_DUBLIN,http://www.daft.ie/for-sale/apartment-apt-21-rosemount-glandore-road-drumcondra-dublin-9/4004624
4004621,112968617,"34 Stationcourt Way, Clonsilla, Dublin 15",265000.0,N/A,,2,1,Apartment,2022-08-10,C2,115379547,180.59 kWh/m2/yr,53.3793927,-6.3949441,Buy,NORTH_CO_DUBLIN_DUBLIN,http://www.daft.ie/for-sale/apartment-34-stationcourt-way-clonsilla-dublin-15/4004621
4003870,112962016,"69 Dun Emer Way, Lusk, Co. Dublin",250000.0,65,65 m²,2,1,Apartment,2022-08-09,C2,,,53.527221,-6.180271,Buy,NORTH_CO_DUBLIN_DUBLIN,http://www.daft.ie/for-sale/apartment-69-dun-emer-way-lusk-co-dublin/4003870
4003507,112958106,"14 Dun Emer Crescent, Lusk, Co. Dublin",250000.0,65,65 m²,2,1,Apartment,2022-08-09,C2,,,53.527047,-6.180568,Buy,NORTH_CO_DUBLIN_DUBLIN,http://www.daft.ie/for-sale/apartment-14-dun-emer-crescent-lusk-co-dublin/4003507
4002691,112953678,"2 Melville View, Finglas, Finglas, Dublin 11",240000.0,N/A,,2,2,Apartment,2022-08-01,B2,,,53.401429,-6.29499,Buy,NORTH_CO_DUBLIN_DUBLIN,http://www.daft.ie/for-sale/apartment-2-melville-view-finglas-finglas-dublin-11/4002691
3995655,112889879,"Apartment 20, The Spinnaker, Alverno, Clontarf, Dublin 3",395000.0,56,56 m²,2,1,Apartment,2022-08-02,C2,113873723,190.62 kWh/m2/yr,53.360628,-6.209926,Buy,NORTH_CO_DUBLIN_DUBLIN,http://www.daft.ie/for-sale/apartment-apartment-20-the-spinnaker-alverno-clontarf-dublin-3/3995655
3998089,112915750,"Apartment 7, Clifden Court, Dublin 7",285000.0,55,55 m²,2,1,Apartment,2022-08-02,C3,115206971,220.34 kWh/m2/yr,53.347096,-6.28349,Buy,NORTH_CO_DUBLIN_DUBLIN,http://www.daft.ie/for-sale/apartment-apartment-7-clifden-court-dublin-7/3998089
4001335,112942717,"8 Grove Gardens, Verdemont, Blanchardstown, Dublin 15",185000.0,53,53 m²,1,1,Apartment,2022-08-10,C3,115371056,206.15 kWh/m2/yr,53.38797,-6.393221,Buy,NORTH_CO_DUBLIN_DUBLIN,http://www.daft.ie/for-sale/apartment-8-grove-gardens-verdemont-blanchardstown-dublin-15/4001335
4001142,112941041,"37 Saunders House, Spencer Dock, IFSC, Dublin 1",475000.0,81,81 m²,2,2,Apartment,2022-08-10,B2,101710440,115.41 kWh/m2/yr,53.349344,-6.237809,Buy,NORTH_CO_DUBLIN_DUBLIN,http://www.daft.ie/for-sale/apartment-37-saunders-house-spencer-dock-ifsc-dublin-1/4001142
4001058,112940997,"Apartment 112, Millrace Road, Phoenix Park Racecourse, Castleknock, Dublin 15",380000.0,84,84 m²,2,2,Apartment,2022-08-10,B3,111444147,128.51 kWh/m2/yr,53.372574,-6.334388,Buy,NORTH_CO_DUBLIN_DUBLIN,http://www.daft.ie/for-sale/apartment-apartment-112-millrace-road-phoenix-park-racecourse-castleknock-dublin-15/4001058
4000965,112938621,"54 Hampton Wood Avenue, Finglas, Finglas, Dublin 11",185000.0,46,46 m²,1,1,Apartment,2022-08-09,C1,,,53.405577,-6.288441,Buy,NORTH_CO_DUBLIN_DUBLIN,http://www.daft.ie/for-sale/apartment-54-hampton-wood-avenue-finglas-finglas-dublin-11/4000965
4000733,112937298,"68 Griffith Hall, Drumcondra, Dublin 9",250000.0,47,47 m²,1,1,Apartment,2022-08-10,D2,115339111,299.15 kWh/m2/yr,53.374297,-6.237035,Buy,NORTH_CO_DUBLIN_DUBLIN,http://www.daft.ie/for-sale/apartment-68-griffith-hall-drumcondra-dublin-9/4000733
4000720,112937275,"25 Kavanagh Hall, Collegewood, Castleknock, Dublin 15",335000.0,82,82 m²,2,2,Apartment,2022-08-10,C1,115007411,155.7 kWh/m2/yr,53.371421,-6.370151,Buy,NORTH_CO_DUBLIN_DUBLIN,http://www.daft.ie/for-sale/apartment-25-kavanagh-hall-collegewood-castleknock-dublin-15/4000720
4000718,112937257,"40 Prospect, Naul Road, Balbriggan, Co. Dublin",295000.0,N/A,,4,3,Apartment,2022-08-10,B3,104356621,102.0 kWh/m2/yr,53.609146,-6.193939,Buy,NORTH_CO_DUBLIN_DUBLIN,http://www.daft.ie/for-sale/apartment-40-prospect-naul-road-balbriggan-co-dublin/4000718
4000591,112935792,"Apartment 16, Holywell Green, Swords, Co. Dublin","AMV: €205,000",N/A,,2,1,Apartment,2022-08-10,C2,109735001,187.08 kWh/m2/yr,53.443106,-6.209122,Buy,NORTH_CO_DUBLIN_DUBLIN,http://www.daft.ie/for-sale/apartment-apartment-16-holywell-green-swords-co-dublin/4000591
4000442,112934394,"23 Castlemill, Hamlet Lane, Balbriggan, Co. Dublin",195000.0,70,70 m²,2,2,Apartment,2022-08-10,D2,115367195,56.1 kWh/m2/yr,53.613605,-6.206254,Buy,NORTH_CO_DUBLIN_DUBLIN,http://www.daft.ie/for-sale/apartment-23-castlemill-hamlet-lane-balbriggan-co-dublin/4000442
4000162,112931880,"Apartment 16, Saint Ive's, Malahide, Co. Dublin",345000.0,65,65 m²,2,1,Apartment,2022-08-10,C2,,,53.451886,-6.159359,Buy,NORTH_CO_DUBLIN_DUBLIN,http://www.daft.ie/for-sale/apartment-apartment-16-saint-ives-malahide-co-dublin/4000162
4000117,112931372,"Apartment 82, Castle Mill, Balbriggan, Co. Dublin",150000.0,43,43 m²,1,1,Apartment,2022-08-10,D1,,,53.613253,-6.206701,Buy,NORTH_CO_DUBLIN_DUBLIN,http://www.daft.ie/for-sale/apartment-apartment-82-castle-mill-balbriggan-co-dublin/4000117
3999586,112925554,"Apartment 340, Castleforbes Square, Dublin 1",390000.0,N/A,,2,2,Apartment,2022-08-10,C3,115377525,204.77 kWh/m2/yr,53.349155,-6.23166,Buy,NORTH_CO_DUBLIN_DUBLIN,http://www.daft.ie/for-sale/apartment-apartment-340-castleforbes-square-dublin-1/3999586
3999980,112930414,"Apartment 30, Beaumont Court, Beaumont, Dublin 9",260000.0,55,55 m²,2,1,Apartment,2022-07-29,D2,115376618,275.32 kWh/m2/yr,53.391941,-6.227202,Buy,NORTH_CO_DUBLIN_DUBLIN,http://www.daft.ie/for-sale/apartment-apartment-30-beaumont-court-beaumont-dublin-9/3999980
3999956,112930022,"Apt 38, Stapleton House, 33 Mountjoy Square, Dublin 1",235000.0,N/A,,1,1,Apartment,2022-08-10,E1,115375925,317.14 kWh/m2/yr,53.35637,-6.255585,Buy,NORTH_CO_DUBLIN_DUBLIN,http://www.daft.ie/for-sale/apartment-apt-38-stapleton-house-33-mountjoy-square-dublin-1/3999956
3999353,112922111,"Apartment 34, Castle Mill, Balbriggan, Co. Dublin",145000.0,65,65 m²,2,2,Apartment,2022-08-10,C3,115207854,219.0 kWh/m2/yr,53.613017,-6.205637,Buy,NORTH_CO_DUBLIN_DUBLIN,http://www.daft.ie/for-sale/apartment-apartment-34-castle-mill-balbriggan-co-dublin/3999353
3998402,112919095,"57 Collins Square, Smithfield, Dublin 7",415000.0,N/A,,2,2,Apartment,2022-08-10,,,,53.348121,-6.284625,Buy,NORTH_CO_DUBLIN_DUBLIN,http://www.daft.ie/for-sale/apartment-57-collins-square-smithfield-dublin-7/3998402
3998323,112918937,"Apartment 14, Block A, Cedar Square, Swords, Co. Dublin",310000.0,75,75 m²,2,2,Apartment,2022-08-09,C1,105847495,161.95 kWh/m2/yr,53.449878,-6.245412,Buy,NORTH_CO_DUBLIN_DUBLIN,http://www.daft.ie/for-sale/apartment-apartment-14-block-a-cedar-square-swords-co-dublin/3998323
3998060,112915731,"Apartment 73, Beaumont Court, Beaumont, Dublin 9",219950.0,N/A,,1,1,Apartment,2022-08-10,D2,115358970,264.83 kWh/m2/yr,53.391924,-6.226502,Buy,NORTH_CO_DUBLIN_DUBLIN,http://www.daft.ie/for-sale/apartment-apartment-73-beaumont-court-beaumont-dublin-9/3998060
3997895,112914341,"63 Cruise Park Avenue, Tyrrelstown, Dublin 15",265000.0,105,105 m²,3,3,Apartment,2022-08-10,C1,,,53.420013,-6.396861,Buy,NORTH_CO_DUBLIN_DUBLIN,http://www.daft.ie/for-sale/apartment-63-cruise-park-avenue-tyrrelstown-dublin-15/3997895
3989622,19720285,"46 Prospect, Naul Road, Balbriggan, Co. Dublin",219950.0,N/A,,2,1,Apartment,2022-08-10,C2,104857835,194.99 kWh/m2/yr,53.609351,-6.194015,Buy,NORTH_CO_DUBLIN_DUBLIN,http://www.daft.ie/for-sale/apartment-46-prospect-naul-road-balbriggan-co-dublin/3989622
3992416,19754611,"Apartment 5, Maple House, 43 Applewood Main Street, Swords, Co. Dublin",224950.0,N/A,,2,2,Apartment,2022-08-10,C1,112488465,171.56 kWh/m2/yr,53.470213,-6.230434,Buy,NORTH_CO_DUBLIN_DUBLIN,http://www.daft.ie/for-sale/apartment-apartment-5-maple-house-43-applewood-main-street-swords-co-dublin/3992416
3997291,112907805,"Apt 8 Parklands, Northwood, Santry, Dublin 9",285000.0,62,62 m²,2,2,Apartment,2022-07-28,B3,115363673,145.6 kWh/m2/yr,53.40569,-6.250476,Buy,NORTH_CO_DUBLIN_DUBLIN,http://www.daft.ie/for-sale/apartment-apt-8-parklands-northwood-santry-dublin-9/3997291
3997059,112905009,"3 Woodbrook Crescent, Castleknock, Dublin 15",295000.0,N/A,,2,2,Apartment,2022-08-09,C1,115197782,159.39 kWh/m2/yr,53.377057,-6.402761,Buy,NORTH_CO_DUBLIN_DUBLIN,http://www.daft.ie/for-sale/apartment-3-woodbrook-crescent-castleknock-dublin-15/3997059
3997027,112904992,"Apartment 2, Ardilaun Court, Raheny, Dublin 5",525000.0,94,94 m²,2,2,Apartment,2022-07-27,A3,111520870,58.65 kWh/m2/yr,53.374855,-6.194319,Buy,NORTH_CO_DUBLIN_DUBLIN,http://www.daft.ie/for-sale/apartment-apartment-2-ardilaun-court-raheny-dublin-5/3997027
3996876,112901591,"148 The Gallery, Turvey Walk, Donabate, Co. Dublin",315000.0,72,72 m²,2,2,Apartment,2022-08-10,C1,112239850,169.13 kWh/m2/yr,53.488334,-6.153555,Buy,NORTH_CO_DUBLIN_DUBLIN,http://www.daft.ie/for-sale/apartment-148-the-gallery-turvey-walk-donabate-co-dublin/3996876
3996882,112902556,"Apartment 35 Beverton Court, Donabate, Co. Dublin",265000.0,80,80 m²,2,1,Apartment,2022-08-10,D1,,,53.488253,-6.15903,Buy,NORTH_CO_DUBLIN_DUBLIN,http://www.daft.ie/for-sale/apartment-apartment-35-beverton-court-donabate-co-dublin/3996882
3989139,19713825,"Apartment 33, The Old Distillery, Dublin 7",324500.0,68,68 m²,2,1,Apartment,2022-08-10,C2,107199937,,53.34941,-6.273318,Buy,NORTH_CO_DUBLIN_DUBLIN,http://www.daft.ie/for-sale/apartment-apartment-33-the-old-distillery-dublin-7/3989139
3996570,112899375,"Apartment 7, Apartment 7, 1 Grange Lodge Avenue, Clongriffin, Dublin 13",270000.0,72,72 m²,2,2,Apartment,2022-08-10,D1,115371684,253.15 kWh/m2/yr,53.402558,-6.154607,Buy,NORTH_CO_DUBLIN_DUBLIN,http://www.daft.ie/for-sale/apartment-apartment-7-apartment-7-1-grange-lodge-avenue-clongriffin-dublin-13/3996570
3996588,112899452,"5 Churchwell Place, Belmayne, Belmayne",265000.0,68,68 m²,2,2,Apartment,2022-08-09,B3,103462545,148.2 kWh/m2/yr,53.404658,-6.171815,Buy,NORTH_CO_DUBLIN_DUBLIN,http://www.daft.ie/for-sale/apartment-5-churchwell-place-belmayne-belmayne/3996588
3996520,112898023,"Apartment 5, Wellington, Riverpark Apartments, Conyngham Road, Dublin 8",275000.0,40,40 m²,1,1,Apartment,2022-08-09,C3,,,53.348053,-6.303046,Buy,NORTH_CO_DUBLIN_DUBLIN,http://www.daft.ie/for-sale/apartment-apartment-5-wellington-riverpark-apartments-conyngham-road-dublin-8/3996520
3995901,112891672,"6 Hill Of Down House, Spencer Dock, IFSC, Co. Dublin",295000.0,62,62 m²,1,2,Apartment,2022-08-10,C1,106625809,172.42 kWh/m2/yr,53.350118,-6.23921,Buy,NORTH_CO_DUBLIN_DUBLIN,http://www.daft.ie/for-sale/apartment-6-hill-of-down-house-spencer-dock-ifsc-co-dublin/3995901
3995891,112891645,"33 Tory Square, Waterville, Blanchardstown, Dublin 15",210000.0,N/A,,1,1,Apartment,2022-07-28,C3,112376991,218.63 kWh/m2/yr,53.39319477,-6.37724079,Buy,NORTH_CO_DUBLIN_DUBLIN,http://www.daft.ie/for-sale/apartment-33-tory-square-waterville-blanchardstown-dublin-15/3995891
3995620,112889861,"Apartment 6, Grove Garden, Blanchardstown, Dublin 15",225000.0,70,70 m²,2,2,Apartment,2022-08-09,D2,,,53.38716,-6.393991,Buy,NORTH_CO_DUBLIN_DUBLIN,http://www.daft.ie/for-sale/apartment-apartment-6-grove-garden-blanchardstown-dublin-15/3995620
3995464,112887857,"32 Portersfield, Clonsilla Road, Clonsilla, Dublin 15",195000.0,N/A,,1,1,Apartment,2022-08-09,D2,,,53.382211,-6.395519,Buy,NORTH_CO_DUBLIN_DUBLIN,http://www.daft.ie/for-sale/apartment-32-portersfield-clonsilla-road-clonsilla-dublin-15/3995464
3995434,112887012,"92 The Watermill, Block 2a, Raheny, Dublin 5",445000.0,94,94 m²,2,2,Apartment,2022-08-10,B3,115372088,143.83 kWh/m2/yr,53.37645,-6.167677,Buy,NORTH_CO_DUBLIN_DUBLIN,http://www.daft.ie/for-sale/apartment-92-the-watermill-block-2a-raheny-dublin-5/3995434
4006154,112982984,"Apartment 56, Ha'penny Bridge House, Dublin 1",450000.0,51,51 m²,3,1,Apartment,2022-08-05,D2,104346531,,53.346352,-6.265511,Buy,NORTH_CO_DUBLIN_DUBLIN,http://www.daft.ie/for-sale/apartment-apartment-56-hapenny-bridge-house-dublin-1/4006154
4006052,112981292,"Apartment 12, The Goulding, Santry Cross, Santry, Dublin 9",245000.0,60,60 m²,2,2,Apartment,2022-08-10,D2,106925316,262.15 kWh/m2/yr,53.400385,-6.263637,Buy,NORTH_CO_DUBLIN_DUBLIN,http://www.daft.ie/for-sale/apartment-apartment-12-the-goulding-santry-cross-santry-dublin-9/4006052
4005927,112980948,"34 The Wellington, Riverpark Apartments, Islandbridge, Dublin 8",360000.0,62,62 m²,2,1,Apartment,2022-08-10,C2,106075369,195.63 kWh/m2/yr,53.358564,-6.276094,Buy,NORTH_CO_DUBLIN_DUBLIN,http://www.daft.ie/for-sale/apartment-34-the-wellington-riverpark-apartments-islandbridge-dublin-8/4005927
4005913,112980682,"3B The Gate, Malahide, Co. Dublin",490000.0,91,91 m²,2,2,Apartment,2022-08-10,A3,110917598,58.97 kWh/m2/yr,53.44305,-6.135799,Buy,NORTH_CO_DUBLIN_DUBLIN,http://www.daft.ie/for-sale/apartment-3b-the-gate-malahide-co-dublin/4005913
4005964,112981248,"Apartment 36, Clifden Court, Dublin 7",250000.0,N/A,,1,1,Apartment,2022-08-09,C2,107865925,,53.347083,-6.283202,Buy,NORTH_CO_DUBLIN_DUBLIN,http://www.daft.ie/for-sale/apartment-apartment-36-clifden-court-dublin-7/4005964
4005877,112980478,"26 Clearwater Court North, Royal Canal Park, Ashtown, Dublin 15",320000.0,78,78 m²,3,2,Apartment,2022-08-10,D2,102199387,278.8 kWh/m2/yr,53.377511,-6.317334,Buy,NORTH_CO_DUBLIN_DUBLIN,http://www.daft.ie/for-sale/apartment-26-clearwater-court-north-royal-canal-park-ashtown-dublin-15/4005877
4005202,112976166,"Apartment 4, The Richmond, Dublin 7",260000.0,38,38 m²,1,1,Apartment,2022-08-05,D2,,,53.350708,-6.277826,Buy,NORTH_CO_DUBLIN_DUBLIN,http://www.daft.ie/for-sale/apartment-apartment-4-the-richmond-dublin-7/4005202
4004930,112970474,"Apartment 10, Vernon Court, Clontarf, Dublin 3",335000.0,62,62 m²,2,1,Apartment,2022-08-09,D1,103426631,252.05 kWh/m2/yr,53.358927,-6.193953,Buy,NORTH_CO_DUBLIN_DUBLIN,http://www.daft.ie/for-sale/apartment-apartment-10-vernon-court-clontarf-dublin-3/4004930
4004624,112968618,"Apt 21, Rosemount, Glandore Road, Drumcondra, Dublin 9",380000.0,70,70 m²,2,2,Apartment,2022-08-10,C3,106793482,214.95 kWh/m2/yr,53.3727082,-6.2373207,Buy,NORTH_CO_DUBLIN_DUBLIN,http://www.daft.ie/for-sale/apartment-apt-21-rosemount-glandore-road-drumcondra-dublin-9/4004624
4004621,112968617,"34 Stationcourt Way, Clonsilla, Dublin 15",265000.0,N/A,,2,1,Apartment,2022-08-10,C2,115379547,180.59 kWh/m2/yr,53.3793927,-6.3949441,Buy,NORTH_CO_DUBLIN_DUBLIN,http://www.daft.ie/for-sale/apartment-34-stationcourt-way-clonsilla-dublin-15/4004621
4003870,112962016,"69 Dun Emer Way, Lusk, Co. Dublin",250000.0,65,65 m²,2,1,Apartment,2022-08-09,C2,,,53.527221,-6.180271,Buy,NORTH_CO_DUBLIN_DUBLIN,http://www.daft.ie/for-sale/apartment-69-dun-emer-way-lusk-co-dublin/4003870
4003507,112958106,"14 Dun Emer Crescent, Lusk, Co. Dublin",250000.0,65,65 m²,2,1,Apartment,2022-08-09,C2,,,53.527047,-6.180568,Buy,NORTH_CO_DUBLIN_DUBLIN,http://www.daft.ie/for-sale/apartment-14-dun-emer-crescent-lusk-co-dublin/4003507
4002691,112953678,"2 Melville View, Finglas, Finglas, Dublin 11",240000.0,N/A,,2,2,Apartment,2022-08-01,B2,,,53.401429,-6.29499,Buy,NORTH_CO_DUBLIN_DUBLIN,http://www.daft.ie/for-sale/apartment-2-melville-view-finglas-finglas-dublin-11/4002691
3995655,112889879,"Apartment 20, The Spinnaker, Alverno, Clontarf, Dublin 3",395000.0,56,56 m²,2,1,Apartment,2022-08-02,C2,113873723,190.62 kWh/m2/yr,53.360628,-6.209926,Buy,NORTH_CO_DUBLIN_DUBLIN,http://www.daft.ie/for-sale/apartment-apartment-20-the-spinnaker-alverno-clontarf-dublin-3/3995655
3998089,112915750,"Apartment 7, Clifden Court, Dublin 7",285000.0,55,55 m²,2,1,Apartment,2022-08-02,C3,115206971,220.34 kWh/m2/yr,53.347096,-6.28349,Buy,NORTH_CO_DUBLIN_DUBLIN,http://www.daft.ie/for-sale/apartment-apartment-7-clifden-court-dublin-7/3998089
4001335,112942717,"8 Grove Gardens, Verdemont, Blanchardstown, Dublin 15",185000.0,53,53 m²,1,1,Apartment,2022-08-10,C3,115371056,206.15 kWh/m2/yr,53.38797,-6.393221,Buy,NORTH_CO_DUBLIN_DUBLIN,http://www.daft.ie/for-sale/apartment-8-grove-gardens-verdemont-blanchardstown-dublin-15/4001335
4001142,112941041,"37 Saunders House, Spencer Dock, IFSC, Dublin 1",475000.0,81,81 m²,2,2,Apartment,2022-08-10,B2,101710440,115.41 kWh/m2/yr,53.349344,-6.237809,Buy,NORTH_CO_DUBLIN_DUBLIN,http://www.daft.ie/for-sale/apartment-37-saunders-house-spencer-dock-ifsc-dublin-1/4001142
4001058,112940997,"Apartment 112, Millrace Road, Phoenix Park Racecourse, Castleknock, Dublin 15",380000.0,84,84 m²,2,2,Apartment,2022-08-10,B3,111444147,128.51 kWh/m2/yr,53.372574,-6.334388,Buy,NORTH_CO_DUBLIN_DUBLIN,http://www.daft.ie/for-sale/apartment-apartment-112-millrace-road-phoenix-park-racecourse-castleknock-dublin-15/4001058
4000965,112938621,"54 Hampton Wood Avenue, Finglas, Finglas, Dublin 11",185000.0,46,46 m²,1,1,Apartment,2022-08-09,C1,,,53.405577,-6.288441,Buy,NORTH_CO_DUBLIN_DUBLIN,http://www.daft.ie/for-sale/apartment-54-hampton-wood-avenue-finglas-finglas-dublin-11/4000965
4000733,112937298,"68 Griffith Hall, Drumcondra, Dublin 9",250000.0,47,47 m²,1,1,Apartment,2022-08-10,D2,115339111,299.15 kWh/m2/yr,53.374297,-6.237035,Buy,NORTH_CO_DUBLIN_DUBLIN,http://www.daft.ie/for-sale/apartment-68-griffith-hall-drumcondra-dublin-9/4000733
4000720,112937275,"25 Kavanagh Hall, Collegewood, Castleknock, Dublin 15",335000.0,82,82 m²,2,2,Apartment,2022-08-10,C1,115007411,155.7 kWh/m2/yr,53.371421,-6.370151,Buy,NORTH_CO_DUBLIN_DUBLIN,http://www.daft.ie/for-sale/apartment-25-kavanagh-hall-collegewood-castleknock-dublin-15/4000720
4000718,112937257,"40 Prospect, Naul Road, Balbriggan, Co. Dublin",295000.0,N/A,,4,3,Apartment,2022-08-10,B3,104356621,102.0 kWh/m2/yr,53.609146,-6.193939,Buy,NORTH_CO_DUBLIN_DUBLIN,http://www.daft.ie/for-sale/apartment-40-prospect-naul-road-balbriggan-co-dublin/4000718
4000591,112935792,"Apartment 16, Holywell Green, Swords, Co. Dublin","AMV: €205,000",N/A,,2,1,Apartment,2022-08-10,C2,109735001,187.08 kWh/m2/yr,53.443106,-6.209122,Buy,NORTH_CO_DUBLIN_DUBLIN,http://www.daft.ie/for-sale/apartment-apartment-16-holywell-green-swords-co-dublin/4000591
4000442,112934394,"23 Castlemill, Hamlet Lane, Balbriggan, Co. Dublin",195000.0,70,70 m²,2,2,Apartment,2022-08-10,D2,115367195,56.1 kWh/m2/yr,53.613605,-6.206254,Buy,NORTH_CO_DUBLIN_DUBLIN,http://www.daft.ie/for-sale/apartment-23-castlemill-hamlet-lane-balbriggan-co-dublin/4000442
4000162,112931880,"Apartment 16, Saint Ive's, Malahide, Co. Dublin",345000.0,65,65 m²,2,1,Apartment,2022-08-10,C2,,,53.451886,-6.159359,Buy,NORTH_CO_DUBLIN_DUBLIN,http://www.daft.ie/for-sale/apartment-apartment-16-saint-ives-malahide-co-dublin/4000162
4000117,112931372,"Apartment 82, Castle Mill, Balbriggan, Co. Dublin",150000.0,43,43 m²,1,1,Apartment,2022-08-10,D1,,,53.613253,-6.206701,Buy,NORTH_CO_DUBLIN_DUBLIN,http://www.daft.ie/for-sale/apartment-apartment-82-castle-mill-balbriggan-co-dublin/4000117
3999586,112925554,"Apartment 340, Castleforbes Square, Dublin 1",390000.0,N/A,,2,2,Apartment,2022-08-10,C3,115377525,204.77 kWh/m2/yr,53.349155,-6.23166,Buy,NORTH_CO_DUBLIN_DUBLIN,http://www.daft.ie/for-sale/apartment-apartment-340-castleforbes-square-dublin-1/3999586
3999980,112930414,"Apartment 30, Beaumont Court, Beaumont, Dublin 9",260000.0,55,55 m²,2,1,Apartment,2022-07-29,D2,115376618,275.32 kWh/m2/yr,53.391941,-6.227202,Buy,NORTH_CO_DUBLIN_DUBLIN,http://www.daft.ie/for-sale/apartment-apartment-30-beaumont-court-beaumont-dublin-9/3999980
3999956,112930022,"Apt 38, Stapleton House, 33 Mountjoy Square, Dublin 1",235000.0,N/A,,1,1,Apartment,2022-08-10,E1,115375925,317.14 kWh/m2/yr,53.35637,-6.255585,Buy,NORTH_CO_DUBLIN_DUBLIN,http://www.daft.ie/for-sale/apartment-apt-38-stapleton-house-33-mountjoy-square-dublin-1/3999956
3999353,112922111,"Apartment 34, Castle Mill, Balbriggan, Co. Dublin",145000.0,65,65 m²,2,2,Apartment,2022-08-10,C3,115207854,219.0 kWh/m2/yr,53.613017,-6.205637,Buy,NORTH_CO_DUBLIN_DUBLIN,http://www.daft.ie/for-sale/apartment-apartment-34-castle-mill-balbriggan-co-dublin/3999353
3998402,112919095,"57 Collins Square, Smithfield, Dublin 7",415000.0,N/A,,2,2,Apartment,2022-08-10,,,,53.348121,-6.284625,Buy,NORTH_CO_DUBLIN_DUBLIN,http://www.daft.ie/for-sale/apartment-57-collins-square-smithfield-dublin-7/3998402
3998323,112918937,"Apartment 14, Block A, Cedar Square, Swords, Co. Dublin",310000.0,75,75 m²,2,2,Apartment,2022-08-09,C1,105847495,161.95 kWh/m2/yr,53.449878,-6.245412,Buy,NORTH_CO_DUBLIN_DUBLIN,http://www.daft.ie/for-sale/apartment-apartment-14-block-a-cedar-square-swords-co-dublin/3998323
3998060,112915731,"Apartment 73, Beaumont Court, Beaumont, Dublin 9",219950.0,N/A,,1,1,Apartment,2022-08-10,D2,115358970,264.83 kWh/m2/yr,53.391924,-6.226502,Buy,NORTH_CO_DUBLIN_DUBLIN,http://www.daft.ie/for-sale/apartment-apartment-73-beaumont-court-beaumont-dublin-9/3998060
3997895,112914341,"63 Cruise Park Avenue, Tyrrelstown, Dublin 15",265000.0,105,105 m²,3,3,Apartment,2022-08-10,C1,,,53.420013,-6.396861,Buy,NORTH_CO_DUBLIN_DUBLIN,http://www.daft.ie/for-sale/apartment-63-cruise-park-avenue-tyrrelstown-dublin-15/3997895
3989622,19720285,"46 Prospect, Naul Road, Balbriggan, Co. Dublin",219950.0,N/A,,2,1,Apartment,2022-08-10,C2,104857835,194.99 kWh/m2/yr,53.609351,-6.194015,Buy,NORTH_CO_DUBLIN_DUBLIN,http://www.daft.ie/for-sale/apartment-46-prospect-naul-road-balbriggan-co-dublin/3989622
3992416,19754611,"Apartment 5, Maple House, 43 Applewood Main Street, Swords, Co. Dublin",224950.0,N/A,,2,2,Apartment,2022-08-10,C1,112488465,171.56 kWh/m2/yr,53.470213,-6.230434,Buy,NORTH_CO_DUBLIN_DUBLIN,http://www.daft.ie/for-sale/apartment-apartment-5-maple-house-43-applewood-main-street-swords-co-dublin/3992416
3997291,112907805,"Apt 8 Parklands, Northwood, Santry, Dublin 9",285000.0,62,62 m²,2,2,Apartment,2022-07-28,B3,115363673,145.6 kWh/m2/yr,53.40569,-6.250476,Buy,NORTH_CO_DUBLIN_DUBLIN,http://www.daft.ie/for-sale/apartment-apt-8-parklands-northwood-santry-dublin-9/3997291
3997059,112905009,"3 Woodbrook Crescent, Castleknock, Dublin 15",295000.0,N/A,,2,2,Apartment,2022-08-09,C1,115197782,159.39 kWh/m2/yr,53.377057,-6.402761,Buy,NORTH_CO_DUBLIN_DUBLIN,http://www.daft.ie/for-sale/apartment-3-woodbrook-crescent-castleknock-dublin-15/3997059
3997027,112904992,"Apartment 2, Ardilaun Court, Raheny, Dublin 5",525000.0,94,94 m²,2,2,Apartment,2022-07-27,A3,111520870,58.65 kWh/m2/yr,53.374855,-6.194319,Buy,NORTH_CO_DUBLIN_DUBLIN,http://www.daft.ie/for-sale/apartment-apartment-2-ardilaun-court-raheny-dublin-5/3997027
3996876,112901591,"148 The Gallery, Turvey Walk, Donabate, Co. Dublin",315000.0,72,72 m²,2,2,Apartment,2022-08-10,C1,112239850,169.13 kWh/m2/yr,53.488334,-6.153555,Buy,NORTH_CO_DUBLIN_DUBLIN,http://www.daft.ie/for-sale/apartment-148-the-gallery-turvey-walk-donabate-co-dublin/3996876
3996882,112902556,"Apartment 35 Beverton Court, Donabate, Co. Dublin",265000.0,80,80 m²,2,1,Apartment,2022-08-10,D1,,,53.488253,-6.15903,Buy,NORTH_CO_DUBLIN_DUBLIN,http://www.daft.ie/for-sale/apartment-apartment-35-beverton-court-donabate-co-dublin/3996882
3989139,19713825,"Apartment 33, The Old Distillery, Dublin 7",324500.0,68,68 m²,2,1,Apartment,2022-08-10,C2,107199937,,53.34941,-6.273318,Buy,NORTH_CO_DUBLIN_DUBLIN,http://www.daft.ie/for-sale/apartment-apartment-33-the-old-distillery-dublin-7/3989139
3996570,112899375,"Apartment 7, Apartment 7, 1 Grange Lodge Avenue, Clongriffin, Dublin 13",270000.0,72,72 m²,2,2,Apartment,2022-08-10,D1,115371684,253.15 kWh/m2/yr,53.402558,-6.154607,Buy,NORTH_CO_DUBLIN_DUBLIN,http://www.daft.ie/for-sale/apartment-apartment-7-apartment-7-1-grange-lodge-avenue-clongriffin-dublin-13/3996570
3996588,112899452,"5 Churchwell Place, Belmayne, Belmayne",265000.0,68,68 m²,2,2,Apartment,2022-08-09,B3,103462545,148.2 kWh/m2/yr,53.404658,-6.171815,Buy,NORTH_CO_DUBLIN_DUBLIN,http://www.daft.ie/for-sale/apartment-5-churchwell-place-belmayne-belmayne/3996588
3996520,112898023,"Apartment 5, Wellington, Riverpark Apartments, Conyngham Road, Dublin 8",275000.0,40,40 m²,1,1,Apartment,2022-08-09,C3,,,53.348053,-6.303046,Buy,NORTH_CO_DUBLIN_DUBLIN,http://www.daft.ie/for-sale/apartment-apartment-5-wellington-riverpark-apartments-conyngham-road-dublin-8/3996520
3995901,112891672,"6 Hill Of Down House, Spencer Dock, IFSC, Co. Dublin",295000.0,62,62 m²,1,2,Apartment,2022-08-10,C1,106625809,172.42 kWh/m2/yr,53.350118,-6.23921,Buy,NORTH_CO_DUBLIN_DUBLIN,http://www.daft.ie/for-sale/apartment-6-hill-of-down-house-spencer-dock-ifsc-co-dublin/3995901
3995891,112891645,"33 Tory Square, Waterville, Blanchardstown, Dublin 15",210000.0,N/A,,1,1,Apartment,2022-07-28,C3,112376991,218.63 kWh/m2/yr,53.39319477,-6.37724079,Buy,NORTH_CO_DUBLIN_DUBLIN,http://www.daft.ie/for-sale/apartment-33-tory-square-waterville-blanchardstown-dublin-15/3995891
3995620,112889861,"Apartment 6, Grove Garden, Blanchardstown, Dublin 15",225000.0,70,70 m²,2,2,Apartment,2022-08-09,D2,,,53.38716,-6.393991,Buy,NORTH_CO_DUBLIN_DUBLIN,http://www.daft.ie/for-sale/apartment-apartment-6-grove-garden-blanchardstown-dublin-15/3995620
3995464,112887857,"32 Portersfield, Clonsilla Road, Clonsilla, Dublin 15",195000.0,N/A,,1,1,Apartment,2022-08-09,D2,,,53.382211,-6.395519,Buy,NORTH_CO_DUBLIN_DUBLIN,http://www.daft.ie/for-sale/apartment-32-portersfield-clonsilla-road-clonsilla-dublin-15/3995464
3995434,112887012,"92 The Watermill, Block 2a, Raheny, Dublin 5",445000.0,94,94 m²,2,2,Apartment,2022-08-10,B3,115372088,143.83 kWh/m2/yr,53.37645,-6.167677,Buy,NORTH_CO_DUBLIN_DUBLIN,http://www.daft.ie/for-sale/apartment-92-the-watermill-block-2a-raheny-dublin-5/3995434
3995426,112886052,"Block G, 281 Sycamores, Carrington, Northwood, Santry, Dublin 9",235000.0,N/A,,1,1,Apartment,2022-08-10,B3,115360448,135.66 kWh/m2/yr,53.404063,-6.253064,Buy,NORTH_CO_DUBLIN_DUBLIN,http://www.daft.ie/for-sale/apartment-block-g-281-sycamores-carrington-northwood-santry-dublin-9/3995426
3995425,112886051,"8 Kingston Lodge, Drumcondra, Dublin 3",240000.0,N/A,,1,1,Apartment,2022-08-10,D1,108901570,257.27 kWh/m2/yr,53.363645,-6.255243,Buy,NORTH_CO_DUBLIN_DUBLIN,http://www.daft.ie/for-sale/apartment-8-kingston-lodge-drumcondra-dublin-3/3995425
3995388,112886022,"Apartment 5, Clonliffe Square, Distillery Road, Drumcondra, Dublin 3",245000.0,40,40 m²,1,1,Apartment,2022-08-08,E2,105355192,355.69 kWh/m2/yr,53.364311,-6.248083,Buy,NORTH_CO_DUBLIN_DUBLIN,http://www.daft.ie/for-sale/apartment-apartment-5-clonliffe-square-distillery-road-drumcondra-dublin-3/3995388
3995231,112885181,"Apartment 54, Clearwater Court South, Lock-Keepers Walk, Ashtown, Dublin 15",295000.0,71,71 m²,2,2,Apartment,2022-08-10,E1,,,53.376779,-6.316934,Buy,NORTH_CO_DUBLIN_DUBLIN,http://www.daft.ie/for-sale/apartment-apartment-54-clearwater-court-south-lock-keepers-walk-ashtown-dublin-15/3995231
3993956,112870139,"Apartment 43, Amiens Square, IFSC, Dublin 1",325000.0,57,57 m²,2,1,Apartment,2022-08-10,C2,115213589,,53.350744,-6.250748,Buy,NORTH_CO_DUBLIN_DUBLIN,http://www.daft.ie/for-sale/apartment-apartment-43-amiens-square-ifsc-dublin-1/3993956
3994874,112880323,"42 Park Crescent House, Blackhourse Avenue, Dublin 7",295000.0,60,60 m²,2,1,Apartment,2022-08-10,E2,114627250,372.0 kWh/m2/yr,53.362356,-6.311523,Buy,NORTH_CO_DUBLIN_DUBLIN,http://www.daft.ie/for-sale/apartment-42-park-crescent-house-blackhourse-avenue-dublin-7/3994874
3994846,112879192,"Apartment 66, Trimleston, Balbriggan, Co. Dublin",200000.0,66,66 m²,2,1,Apartment,2022-07-26,C1,,,53.614203,-6.205423,Buy,NORTH_CO_DUBLIN_DUBLIN,http://www.daft.ie/for-sale/apartment-apartment-66-trimleston-balbriggan-co-dublin/3994846
3986897,19690853,"Apartment 15, Montpelier Mews, Stoneybatter, Dublin 7",225000.0,40,40 m²,1,1,Apartment,2022-07-26,D2,106249394,,53.348667,-6.293548,Buy,NORTH_CO_DUBLIN_DUBLIN,http://www.daft.ie/for-sale/apartment-apartment-15-montpelier-mews-stoneybatter-dublin-7/3986897
3994736,112878362,"26A Ratoath Estate, Cabra, Cabra, Dublin 7",240000.0,65,65 m²,2,1,Apartment,2022-08-04,E2,,,53.37186,-6.305502,Buy,NORTH_CO_DUBLIN_DUBLIN,http://www.daft.ie/for-sale/apartment-26a-ratoath-estate-cabra-cabra-dublin-7/3994736
3994642,112876923,"96 The Island, Chapelizod, Dublin 20",360000.0,84,84 m²,3,1,Apartment,2022-07-26,D1,115169625,249.74 kWh/m2/yr,53.34877,-6.345736,Buy,NORTH_CO_DUBLIN_DUBLIN,http://www.daft.ie/for-sale/apartment-96-the-island-chapelizod-dublin-20/3994642
3994317,112873931,"38 Park Crescent House, Blackhorse Avenue, Dublin 7",300000.0,76,76 m²,2,1,Apartment,2022-08-10,C3,115366031,218.81 kWh/m2/yr,53.3623557,-6.3115231,Buy,NORTH_CO_DUBLIN_DUBLIN,http://www.daft.ie/for-sale/apartment-38-park-crescent-house-blackhorse-avenue-dublin-7/3994317
3994264,112872995,"Apartment 273, Block 5, Parklands, Northwood, Santry, Dublin 9",275000.0,65,65 m²,2,1,Apartment,2022-08-10,B3,115373060,133.65 kWh/m2/yr,53.405983,-6.251682,Buy,NORTH_CO_DUBLIN_DUBLIN,http://www.daft.ie/for-sale/apartment-apartment-273-block-5-parklands-northwood-santry-dublin-9/3994264
3993769,112866485,"48 BLOCK 4B, The Casino, Malahide, Co. Dublin",635000.0,98,98 m²,2,2,Apartment,2022-08-09,B3,115348161,134.42 kWh/m2/yr,53.451154,-6.158332,Buy,NORTH_CO_DUBLIN_DUBLIN,http://www.daft.ie/for-sale/apartment-48-block-4b-the-casino-malahide-co-dublin/3993769
3894002,18894313,"Apartment 41, Ardilaun Court, Raheny, Dublin 5",575000.0,86,86 m²,2,2,Apartment,2022-08-09,A2,,,53.374534,-6.193968,Buy,NORTH_CO_DUBLIN_DUBLIN,http://www.daft.ie/for-sale/apartment-apartment-41-ardilaun-court-raheny-dublin-5/3894002
3992235,19750928,"10 Botanic Square, Glasnevin, Dublin 9",250000.0,40,40 m²,1,1,Apartment,2022-08-10,F,106911886,442.14 kWh/m2/yr,53.369313,-6.263685,Buy,NORTH_CO_DUBLIN_DUBLIN,http://www.daft.ie/for-sale/apartment-10-botanic-square-glasnevin-dublin-9/3992235
3992123,19750866,"Apartment 34, Griffith Hall, Glandore Road, Drumcondra, Dublin 9",299000.0,65,65 m²,2,1,Apartment,2022-07-23,D1,,,53.373671,-6.236701,Buy,NORTH_CO_DUBLIN_DUBLIN,http://www.daft.ie/for-sale/apartment-apartment-34-griffith-hall-glandore-road-drumcondra-dublin-9/3992123
3991985,19748862,"Apartment 24, Beaumont Court, Beaumont, Dublin 9",245000.0,63,63 m²,2,1,Apartment,2022-08-09,C3,,,53.392076,-6.227852,Buy,NORTH_CO_DUBLIN_DUBLIN,http://www.daft.ie/for-sale/apartment-apartment-24-beaumont-court-beaumont-dublin-9/3991985
3991720,19743282,"21 Cardy Rock Close, Balbriggan, Co. Dublin",215000.0,74,74 m²,2,2,Apartment,2022-08-10,B3,110859303,142.0 kWh/m2/yr,53.618286,-6.192846,Buy,NORTH_CO_DUBLIN_DUBLIN,http://www.daft.ie/for-sale/apartment-21-cardy-rock-close-balbriggan-co-dublin/3991720
3991674,19743257,"Apartment 6, Bealing Woods, Bealing Walk, Tyrrelstown, Dublin 15",220000.0,62,62 m²,2,1,Apartment,2022-08-08,C2,103098844,,53.416939,-6.386247,Buy,NORTH_CO_DUBLIN_DUBLIN,http://www.daft.ie/for-sale/apartment-apartment-6-bealing-woods-bealing-walk-tyrrelstown-dublin-15/3991674
3991458,19739668,"272 The Asgard, Custom House Harbour, IFSC, Co. Dublin",495000.0,86,86 m²,2,2,Apartment,2022-08-10,D2,112806203,,53.350487,-6.247546,Buy,NORTH_CO_DUBLIN_DUBLIN,http://www.daft.ie/for-sale/apartment-272-the-asgard-custom-house-harbour-ifsc-co-dublin/3991458
3991448,19739297,"225 The Island, Chapelizod, Dublin 20",339000.0,81,81 m²,3,1,Apartment,2022-08-10,C2,111322608,182.46 kWh/m2/yr,53.348263,-6.344957,Buy,NORTH_CO_DUBLIN_DUBLIN,http://www.daft.ie/for-sale/apartment-225-the-island-chapelizod-dublin-20/3991448
3991352,19738922,"Apartment 1, 35-38 Mountjoy Square South, Dublin 1",225000.0,37,37 m²,1,1,Apartment,2022-08-08,F,100311257,429.17 kWh/m2/yr,53.355952,-6.255889,Buy,NORTH_CO_DUBLIN_DUBLIN,http://www.daft.ie/for-sale/apartment-apartment-1-35-38-mountjoy-square-south-dublin-1/3991352
3991299,19737940,"Apartment 203, Premier Square, Finglas, Dublin 11",275000.0,70,70 m²,2,2,Apartment,2022-08-10,C2,,,53.382281,-6.290155,Buy,NORTH_CO_DUBLIN_DUBLIN,http://www.daft.ie/for-sale/apartment-apartment-203-premier-square-finglas-dublin-11/3991299
3991074,19735533,"Apartment 240, Premier Square, Finglas, Dublin 11",249950.0,N/A,,2,2,Apartment,2022-07-21,E1,,,53.382058,-6.289882,Buy,NORTH_CO_DUBLIN_DUBLIN,http://www.daft.ie/for-sale/apartment-apartment-240-premier-square-finglas-dublin-11/3991074
3991007,19733309,"25 Thornberry Square, Clonee, Dublin 15",245000.0,76,76 m²,2,1,Apartment,2022-08-10,D1,100498625,236.02 kWh/m2/yr,53.403123,-6.411385,Buy,NORTH_CO_DUBLIN_DUBLIN,http://www.daft.ie/for-sale/apartment-25-thornberry-square-clonee-dublin-15/3991007
3990998,19733291,"26 Keane Hall, Collegewood, Castleknock, Dublin 15",335000.0,85,85 m²,2,2,Apartment,2022-08-10,B2,103775409,121.96 kWh/m2/yr,53.371383,-6.369061,Buy,NORTH_CO_DUBLIN_DUBLIN,http://www.daft.ie/for-sale/apartment-26-keane-hall-collegewood-castleknock-dublin-15/3990998
3990495,19729397,"Apartment 3, Temple Gardens, Northwood, Santry, Dublin 9",325000.0,95,95 m²,3,2,Apartment,2022-08-10,C1,,,53.405344,-6.247649,Buy,NORTH_CO_DUBLIN_DUBLIN,http://www.daft.ie/for-sale/apartment-apartment-3-temple-gardens-northwood-santry-dublin-9/3990495
3990279,19727606,"35 Waterville Hall, Waterville, Blanchardstown, Dublin 15",270000.0,74,74 m²,2,2,Apartment,2022-08-10,C2,112727680,190.72 kWh/m2/yr,53.391962,-6.375607,Buy,NORTH_CO_DUBLIN_DUBLIN,http://www.daft.ie/for-sale/apartment-35-waterville-hall-waterville-blanchardstown-dublin-15/3990279
3990257,19727549,"38 Waterside Drive, Waterside, Malahide, Co. Dublin",330000.0,79,79 m²,3,2,Apartment,2022-07-21,B1,,,53.452089,-6.2017,Buy,NORTH_CO_DUBLIN_DUBLIN,http://www.daft.ie/for-sale/apartment-38-waterside-drive-waterside-malahide-co-dublin/3990257
3989924,19723630,"Apartment 18, The Lighthouse, The Crescent, Malahide, Co. Dublin",325000.0,56,56 m²,1,1,Apartment,2022-07-21,C2,115353013,197.35 kWh/m2/yr,53.444367,-6.131314,Buy,NORTH_CO_DUBLIN_DUBLIN,http://www.daft.ie/for-sale/apartment-apartment-18-the-lighthouse-the-crescent-malahide-co-dublin/3989924
3989685,19720340,"9 Westend Village, Blanchardstown, Dublin 15",240000.0,N/A,,2,1,Apartment,2022-07-28,C3,115357410,203.8 kWh/m2/yr,53.3890764,-6.3904885,Buy,NORTH_CO_DUBLIN_DUBLIN,http://www.daft.ie/for-sale/apartment-9-westend-village-blanchardstown-dublin-15/3989685
3989393,19716608,"Apt 15 Weavers Hall, Clonsilla Road, Clonsilla, Dublin 15",270000.0,74,74 m²,2,2,Apartment,2022-08-10,C2,103281317,189.85 kWh/m2/yr,53.382486,-6.397782,Buy,NORTH_CO_DUBLIN_DUBLIN,http://www.daft.ie/for-sale/apartment-apt-15-weavers-hall-clonsilla-road-clonsilla-dublin-15/3989393
3988794,19710124,"Apartment 120, Greeg Court, Dublin 1",425000.0,100,100 m²,3,3,Apartment,2022-08-09,D1,,,53.351117,-6.263792,Buy,NORTH_CO_DUBLIN_DUBLIN,http://www.daft.ie/for-sale/apartment-apartment-120-greeg-court-dublin-1/3988794
3988769,19710111,"24 Ashton Court, Swords, Co. Dublin",250000.0,79,79 m²,2,1,Apartment,2022-08-09,D1,115220907,230.48 kWh/m2/yr,53.475079,-6.239031,Buy,NORTH_CO_DUBLIN_DUBLIN,http://www.daft.ie/for-sale/apartment-24-ashton-court-swords-co-dublin/3988769
3988652,19708598,"Apartment 16, Block 1, Parklands, Northwood, Santry, Dublin 9",300000.0,87,87 m²,2,2,Apartment,2022-08-10,C2,,,53.40569,-6.250476,Buy,NORTH_CO_DUBLIN_DUBLIN,http://www.daft.ie/for-sale/apartment-apartment-16-block-1-parklands-northwood-santry-dublin-9/3988652
3988279,19703164,"135 The Watermill, Raheny, Dublin 5",315000.0,44,44 m²,1,1,Apartment,2022-08-10,B3,,,53.376465,-6.167209,Buy,NORTH_CO_DUBLIN_DUBLIN,http://www.daft.ie/for-sale/apartment-135-the-watermill-raheny-dublin-5/3988279
3981424,19630283,"Apartment 18, Saint Lawrence Building, Howth, Dublin 13",535000.0,69,69 m²,2,2,Apartment,2022-08-08,B3,115212599,135.13 kWh/m2/yr,53.388301,-6.071973,Buy,NORTH_CO_DUBLIN_DUBLIN,http://www.daft.ie/for-sale/apartment-apartment-18-saint-lawrence-building-howth-dublin-13/3981424
3987684,19698165,"17 Kilkee House, Clare Village, Clarehall, Dublin 13",259000.0,76,76 m²,2,2,Apartment,2022-07-30,C2,115217812,188.07 kWh/m2/yr,53.399298,-6.183378,Buy,NORTH_CO_DUBLIN_DUBLIN,http://www.daft.ie/for-sale/apartment-17-kilkee-house-clare-village-clarehall-dublin-13/3987684
3987608,19698125,"Apartment 102, The Gallery, Donabate, Co. Dublin",295000.0,83,83 m²,2,2,Apartment,2022-07-25,B2,100528876,100.23 kWh/m2/yr,53.487847,-6.152948,Buy,NORTH_CO_DUBLIN_DUBLIN,http://www.daft.ie/for-sale/apartment-apartment-102-the-gallery-donabate-co-dublin/3987608
3987582,19698103,"Apartment 118, Block C, Castle Hall, Swords, Co. Dublin",300000.0,N/A,,2,2,Apartment,2022-08-10,D1,115395204,257.84 kWh/m2/yr,53.455313,-6.220207,Buy,NORTH_CO_DUBLIN_DUBLIN,http://www.daft.ie/for-sale/apartment-apartment-118-block-c-castle-hall-swords-co-dublin/3987582
3987426,19695810,"37 Parkgate Place, Islandbridge, Dublin 8",250000.0,51,51 m²,1,1,Apartment,2022-08-10,D1,101522928,,53.347226,-6.295275,Buy,NORTH_CO_DUBLIN_DUBLIN,http://www.daft.ie/for-sale/apartment-37-parkgate-place-islandbridge-dublin-8/3987426
3987206,19695056,"6 The Jetty, Kellys Bay, Skerries, Co. Dublin",275000.0,60,60 m²,2,1,Apartment,2022-08-10,C1,,,53.582134,-6.132797,Buy,NORTH_CO_DUBLIN_DUBLIN,http://www.daft.ie/for-sale/apartment-6-the-jetty-kellys-bay-skerries-co-dublin/3987206
3987098,19694077,"13 Applewood Drive, Applewood, Swords, Co. Dublin",225000.0,62,62 m²,2,2,Apartment,2022-08-10,C1,,,53.470454,-6.234246,Buy,NORTH_CO_DUBLIN_DUBLIN,http://www.daft.ie/for-sale/apartment-13-applewood-drive-applewood-swords-co-dublin/3987098
3986700,19688661,"Apartment 74, Millbank, Portmarnock, Co. Dublin",370000.0,80,80 m²,2,2,Apartment,2022-08-10,C1,115337784,156.66 kWh/m2/yr,53.418651,-6.144455,Buy,NORTH_CO_DUBLIN_DUBLIN,http://www.daft.ie/for-sale/apartment-apartment-74-millbank-portmarnock-co-dublin/3986700
3986704,19688663,"27 Riverbank Hall, Glasnevin, Dublin 11",245000.0,46,46 m²,1,1,Apartment,2022-08-10,C1,115353005,157.26 kWh/m2/yr,53.376828,-6.276674,Buy,NORTH_CO_DUBLIN_DUBLIN,http://www.daft.ie/for-sale/apartment-27-riverbank-hall-glasnevin-dublin-11/3986704
3985676,19681966,"7 The Orchard, Carpenterstown, Dublin 15",255000.0,N/A,,2,1,Apartment,2022-07-29,D1,101040376,236.97 kWh/m2/yr,53.37489,-6.3883377,Buy,NORTH_CO_DUBLIN_DUBLIN,http://www.daft.ie/for-sale/apartment-7-the-orchard-carpenterstown-dublin-15/3985676
3985675,19681964,"79 Rathborne Avenue, Ashtown, Dublin 15",320000.0,N/A,,2,2,Apartment,2022-07-28,D1,115182537,243.29 kWh/m2/yr,53.3774624,-6.3251933,Buy,NORTH_CO_DUBLIN_DUBLIN,http://www.daft.ie/for-sale/apartment-79-rathborne-avenue-ashtown-dublin-15/3985675
3985679,19681972,"Apartment 18, Saint James's, Clontarf, Dublin 3",300000.0,48,48 m²,1,1,Apartment,2022-08-09,C2,113907620,185.91 kWh/m2/yr,53.366936,-6.216912,Buy,NORTH_CO_DUBLIN_DUBLIN,http://www.daft.ie/for-sale/apartment-apartment-18-saint-jamess-clontarf-dublin-3/3985679
3985615,19681928,"Apartment 57, Shackleton House, Archerswood, Clonee, Dublin 15",200000.0,N/A,,1,1,Apartment,2022-08-08,C3,,,53.4032,-6.409184,Buy,NORTH_CO_DUBLIN_DUBLIN,http://www.daft.ie/for-sale/apartment-apartment-57-shackleton-house-archerswood-clonee-dublin-15/3985615
3982841,19648925,"Apartment 13, Cedarhurst Road, Phoenix Park Racecourse, Castleknock, Dublin 15",375000.0,N/A,,2,2,Apartment,2022-08-08,B3,,,53.372168,-6.335019,Buy,NORTH_CO_DUBLIN_DUBLIN,http://www.daft.ie/for-sale/apartment-apartment-13-cedarhurst-road-phoenix-park-racecourse-castleknock-dublin-15/3982841
3985479,19680313,"39 Doolin House, Clare Village, Clarehall, Dublin 13",195000.0,52,52 m²,1,1,Apartment,2022-08-09,C2,,,53.399621,-6.180851,Buy,NORTH_CO_DUBLIN_DUBLIN,http://www.daft.ie/for-sale/apartment-39-doolin-house-clare-village-clarehall-dublin-13/3985479
3983956,19661540,"28 Castleview Walk, Swords, Co. Dublin",250000.0,70,70 m²,2,1,Apartment,2022-08-10,,,,53.4720272,-6.2359281,Buy,NORTH_CO_DUBLIN_DUBLIN,http://www.daft.ie/for-sale/apartment-28-castleview-walk-swords-co-dublin/3983956
3983954,19661539,"44 Holywell Villas, Swords, Co. Dublin",250000.0,57,57 m²,2,2,Apartment,2022-08-10,D1,115195638,235.99 kWh/m2/yr,53.4418228,-6.2129926,Buy,NORTH_CO_DUBLIN_DUBLIN,http://www.daft.ie/for-sale/apartment-44-holywell-villas-swords-co-dublin/3983954
3983952,19661534,"19 Kavanagh Hall, Castleknock, Dublin 15",345000.0,N/A,,2,2,Apartment,2022-08-10,B2,115226474,101.19 kWh/m2/yr,53.3714041,-6.3699573,Buy,NORTH_CO_DUBLIN_DUBLIN,http://www.daft.ie/for-sale/apartment-19-kavanagh-hall-castleknock-dublin-15/3983952
3983801,19659801,"22 The Water Rill, Waterside, Malahide, Co. Dublin",320000.0,90,90 m²,3,2,Apartment,2022-08-10,B2,106848633,112.72 kWh/m2/yr,53.451964,-6.20031,Buy,NORTH_CO_DUBLIN_DUBLIN,http://www.daft.ie/for-sale/apartment-22-the-water-rill-waterside-malahide-co-dublin/3983801
3983370,19654278,"1 Garland Court, Church Street, Howth, Dublin 13",420000.0,70,70 m²,2,2,Apartment,2022-08-10,B3,102457009,28.18 kWh/m2/yr,53.386779,-6.065941,Buy,NORTH_CO_DUBLIN_DUBLIN,http://www.daft.ie/for-sale/apartment-1-garland-court-church-street-howth-dublin-13/3983370
3983402,19655613,"22 Villa Blanchard, Main Street, Blanchardstown, Dublin 15",265000.0,57,57 m²,2,1,Apartment,2022-08-09,E1,,,53.387039,-6.375258,Buy,NORTH_CO_DUBLIN_DUBLIN,http://www.daft.ie/for-sale/apartment-22-villa-blanchard-main-street-blanchardstown-dublin-15/3983402
3983355,19653711,"6 Brackenwood Drive, Balbriggan, Co. Dublin",190000.0,57,57 m²,2,1,Apartment,2022-08-08,C3,,,53.613258,-6.208046,Buy,NORTH_CO_DUBLIN_DUBLIN,http://www.daft.ie/for-sale/apartment-6-brackenwood-drive-balbriggan-co-dublin/3983355
3983357,19653770,"28 Block D, Radcliffe Apartments, Dublin Road, Sutton, Dublin 13",385000.0,89,89 m²,2,1,Apartment,2022-07-21,C3,106510951,219.88 kWh/m2/yr,53.389723,-6.120299,Buy,NORTH_CO_DUBLIN_DUBLIN,http://www.daft.ie/for-sale/apartment-28-block-d-radcliffe-apartments-dublin-road-sutton-dublin-13/3983357
3983373,19653820,"59 Skelligs Court, Waterville, Blanchardstown, Dublin 15",235000.0,56,56 m²,1,1,Apartment,2022-08-09,C3,106650419,210.73 kWh/m2/yr,53.395534,-6.372154,Buy,NORTH_CO_DUBLIN_DUBLIN,http://www.daft.ie/for-sale/apartment-59-skelligs-court-waterville-blanchardstown-dublin-15/3983373
3982950,19650903,"Apartment 27, Montgomery Court, Dublin 1",249950.0,49,49 m²,1,1,Apartment,2022-08-10,C2,,,53.35245,-6.249849,Buy,NORTH_CO_DUBLIN_DUBLIN,http://www.daft.ie/for-sale/apartment-apartment-27-montgomery-court-dublin-1/3982950
3982564,19645882,"Apartment 45, Beaumont Court, Beaumont, Dublin 9",195000.0,40,40 m²,1,1,Apartment,2022-07-15,D2,,,53.391941,-6.227202,Buy,NORTH_CO_DUBLIN_DUBLIN,http://www.daft.ie/for-sale/apartment-apartment-45-beaumont-court-beaumont-dublin-9/3982564
3981968,19637703,"Apartment 40, Holywell Way, Swords, Co. Dublin",235000.0,55,55 m²,2,1,Apartment,2022-08-10,C3,,,53.443513,-6.208414,Buy,NORTH_CO_DUBLIN_DUBLIN,http://www.daft.ie/for-sale/apartment-apartment-40-holywell-way-swords-co-dublin/3981968
3981649,19634363,"Apartment 1 The Landey, Santry, Dublin 9",235000.0,65,65 m²,2,2,Apartment,2022-08-10,D2,102197142,236.32 kWh/m2/yr,53.4006953,-6.2618423,Buy,NORTH_CO_DUBLIN_DUBLIN,http://www.daft.ie/for-sale/apartment-apartment-1-the-landey-santry-dublin-9/3981649
3978524,19612266,"Apartment 1, Larch House, Applewood Avenue, Swords, Co. Dublin",265000.0,78,78 m²,3,1,Apartment,2022-08-10,D1,110578622,228.02 kWh/m2/yr,53.469894,-6.23133,Buy,NORTH_CO_DUBLIN_DUBLIN,http://www.daft.ie/for-sale/apartment-apartment-1-larch-house-applewood-avenue-swords-co-dublin/3978524
3979745,19622817,"Apartment 144, Block E, Blackhall Square, Dublin 7",250000.0,43,43 m²,1,1,Apartment,2022-08-04,E1,,,53.350387,-6.28072,Buy,NORTH_CO_DUBLIN_DUBLIN,http://www.daft.ie/for-sale/apartment-apartment-144-block-e-blackhall-square-dublin-7/3979745
3979723,19622689,"24 Manor Place, Ongar Village, Ongar, Dublin 15",149950.0,N/A,,1,1,Apartment,2022-07-13,D1,,,53.396152,-6.440493,Buy,NORTH_CO_DUBLIN_DUBLIN,http://www.daft.ie/for-sale/apartment-24-manor-place-ongar-village-ongar-dublin-15/3979723
3979714,19622685,"8 Carrig Road, Ballymun, Dublin 11",189950.0,N/A,,2,1,Apartment,2022-08-09,D1,,,53.399888,-6.276583,Buy,NORTH_CO_DUBLIN_DUBLIN,http://www.daft.ie/for-sale/apartment-8-carrig-road-ballymun-dublin-11/3979714
3979656,19622655,"49 BLOCK 3, Marina Village, Malahide, Co. Dublin",490000.0,74,74 m²,2,2,Apartment,2022-08-09,D1,115336117,230.24 kWh/m2/yr,53.453516,-6.153706,Buy,NORTH_CO_DUBLIN_DUBLIN,http://www.daft.ie/for-sale/apartment-49-block-3-marina-village-malahide-co-dublin/3979656
3979595,19620948,"76 The Island, Chapelizod, Dublin 20",275000.0,51,51 m²,1,1,Apartment,2022-08-10,C3,112307160,,53.349022,-6.345921,Buy,NORTH_CO_DUBLIN_DUBLIN,http://www.daft.ie/for-sale/apartment-76-the-island-chapelizod-dublin-20/3979595
3979437,19620518,"Apt 4, 5 Railway Road, Clongriffin, Dublin 13",325000.0,112,112 m²,3,2,Apartment,2022-08-10,B1,100858539,90.1 kWh/m2/yr,53.401664,-6.151425,Buy,NORTH_CO_DUBLIN_DUBLIN,http://www.daft.ie/for-sale/apartment-apt-4-5-railway-road-clongriffin-dublin-13/3979437
3978508,19612257,"Apartment 16, The Lodge, Portmarnock, Co. Dublin",365000.0,N/A,,2,2,Apartment,2022-07-13,C2,106971195,193.25 kWh/m2/yr,53.42122,-6.153998,Buy,NORTH_CO_DUBLIN_DUBLIN,http://www.daft.ie/for-sale/apartment-apartment-16-the-lodge-portmarnock-co-dublin/3978508
3977144,19603652,"Apartment 72, 109 Parnell Street, Dublin 1",220000.0,38,38 m²,1,1,Apartment,2022-08-10,SI_666,,,53.353965,-6.256968,Buy,NORTH_CO_DUBLIN_DUBLIN,http://www.daft.ie/for-sale/apartment-apartment-72-109-parnell-street-dublin-1/3977144
3978285,19611042,"30 Corofin House, Clare hall, Santry, Clarehall, Dublin 17",260000.0,N/A,,2,2,Apartment,2022-08-10,B3,,,53.400001,-6.172969,Buy,NORTH_CO_DUBLIN_DUBLIN,http://www.daft.ie/for-sale/apartment-30-corofin-house-clare-hall-santry-clarehall-dublin-17/3978285
3978267,19609813,"41 Oak Hall, The Hill, Malahide, Co. Dublin",395000.0,67,67 m²,2,2,Apartment,2022-08-10,C1,111124095,171.09 kWh/m2/yr,53.44341,-6.150629,Buy,NORTH_CO_DUBLIN_DUBLIN,http://www.daft.ie/for-sale/apartment-41-oak-hall-the-hill-malahide-co-dublin/3978267
3977680,19609110,"44/45 Kavanagh Hall, Castleknock, Dublin 15",950000.0,187,187 m²,4,5,Apartment,2022-07-28,B3,115334831,143.7 kWh/m2/yr,53.3714041,-6.3699573,Buy,NORTH_CO_DUBLIN_DUBLIN,http://www.daft.ie/for-sale/apartment-44-45-kavanagh-hall-castleknock-dublin-15/3977680
3977373,19606985,"Apartment 23, Chancery Hall, Smithfield, Dublin 1",395000.0,61,61 m²,2,2,Apartment,2022-08-09,D2,106989429,57.37 kWh/m2/yr,53.349973,-6.2738,Buy,NORTH_CO_DUBLIN_DUBLIN,http://www.daft.ie/for-sale/apartment-apartment-23-chancery-hall-smithfield-dublin-1/3977373
3977340,19606758,"112 The Gallery, Turvey Walk, Donabate, Co. Dublin",320000.0,85,85 m²,2,2,Apartment,2022-08-10,B1,111171443,95.41 kWh/m2/yr,53.487847,-6.152948,Buy,NORTH_CO_DUBLIN_DUBLIN,http://www.daft.ie/for-sale/apartment-112-the-gallery-turvey-walk-donabate-co-dublin/3977340
3977142,19603651,"2 Waterville Terrace, Blanchardstown, Blanchardstown, Dublin 15",262500.0,70,70 m²,2,2,Apartment,2022-08-09,C2,,,53.391939,-6.375115,Buy,NORTH_CO_DUBLIN_DUBLIN,http://www.daft.ie/for-sale/apartment-2-waterville-terrace-blanchardstown-blanchardstown-dublin-15/3977142
3972236,19574546,"10 Beverton Court, Donabate, Co. Dublin",215000.0,47,47 m²,1,1,Apartment,2022-07-12,SI_666,,,53.488076,-6.159026,Buy,NORTH_CO_DUBLIN_DUBLIN,http://www.daft.ie/for-sale/apartment-10-beverton-court-donabate-co-dublin/3972236
3975834,19599681,"36 Cloonlara Square, Phoenix Park Racecourse, Castleknock, Dublin 15",475000.0,100,100 m²,2,2,Apartment,2022-08-10,C2,114772270,178.26 kWh/m2/yr,53.373294,-6.337646,Buy,NORTH_CO_DUBLIN_DUBLIN,http://www.daft.ie/for-sale/apartment-36-cloonlara-square-phoenix-park-racecourse-castleknock-dublin-15/3975834
3975814,19599628,"Apartment 236, Block 5, Parklands, Northwood, Santry, Dublin 9",250000.0,54,54 m²,1,1,Apartment,2022-08-10,B2,,,53.406258,-6.251882,Buy,NORTH_CO_DUBLIN_DUBLIN,http://www.daft.ie/for-sale/apartment-apartment-236-block-5-parklands-northwood-santry-dublin-9/3975814
3589891,16669360,"66 Belmayne Park South, Balgriffin, Belmayne",275000.0,70,70 m²,2,2,Apartment,2022-08-10,B3,,,53.404656,-6.172278,Buy,NORTH_CO_DUBLIN_DUBLIN,http://www.daft.ie/for-sale/apartment-66-belmayne-park-south-balgriffin-belmayne/3589891
3975205,19594833,"Apartment 301, Block E, Castleforbes Square, Dublin 1",390000.0,79,79 m²,2,2,Apartment,2022-08-10,C1,101012466,172.2 kWh/m2/yr,53.349108,-6.231422,Buy,NORTH_CO_DUBLIN_DUBLIN,http://www.daft.ie/for-sale/apartment-apartment-301-block-e-castleforbes-square-dublin-1/3975205
3975145,19594091,"1 Venetian Hall, Howth Road, Killester, Dublin 5",350000.0,62,62 m²,2,1,Apartment,2022-08-10,D2,115232076,266.11 kWh/m2/yr,53.3743,-6.199517,Buy,NORTH_CO_DUBLIN_DUBLIN,http://www.daft.ie/for-sale/apartment-1-venetian-hall-howth-road-killester-dublin-5/3975145
3973976,19589748,"Apartment 9, Sycamore Court, Cabra, Dublin 7",220000.0,46,46 m²,2,1,Apartment,2022-08-10,D2,101826360,287.37 kWh/m2/yr,53.36134,-6.296804,Buy,NORTH_CO_DUBLIN_DUBLIN,http://www.daft.ie/for-sale/apartment-apartment-9-sycamore-court-cabra-dublin-7/3973976
3973682,19585988,"Apartment 53, Millfield, Portmarnock, Co. Dublin",448000.0,94,94 m²,3,2,Apartment,2022-08-10,C2,114597578,194.36 kWh/m2/yr,53.418245,-6.14636,Buy,NORTH_CO_DUBLIN_DUBLIN,http://www.daft.ie/for-sale/apartment-apartment-53-millfield-portmarnock-co-dublin/3973682
3973674,19585984,"Apartment 74, The Stockyard, The Steelworks, Dublin 1",495000.0,105,105 m²,3,2,Apartment,2022-08-10,B3,103104154,26.3 kWh/m2/yr,53.35275,-6.25081,Buy,NORTH_CO_DUBLIN_DUBLIN,http://www.daft.ie/for-sale/apartment-apartment-74-the-stockyard-the-steelworks-dublin-1/3973674
3973048,19584055,"Apartment 122, Burnell Court, Mayne River Street, Northern Cross",270000.0,73,73 m²,2,2,Apartment,2022-08-05,C1,,,53.405246,-6.179527,Buy,NORTH_CO_DUBLIN_DUBLIN,http://www.daft.ie/for-sale/apartment-apartment-122-burnell-court-mayne-river-street-northern-cross/3973048
3973014,19583913,"10a The Glen, Bettyglen, Raheny, Dublin 5",245000.0,41,41 m²,1,1,Apartment,2022-08-10,E1,100455658,331.22 kWh/m2/yr,53.375781,-6.166509,Buy,NORTH_CO_DUBLIN_DUBLIN,http://www.daft.ie/for-sale/apartment-10a-the-glen-bettyglen-raheny-dublin-5/3973014
3972370,19574667,"18 Rosedale Crescent, Clonee, Clonee, Dublin 15",260000.0,66,66 m²,2,1,Apartment,2022-08-10,C1,115224115,,53.39884,-6.434282,Buy,NORTH_CO_DUBLIN_DUBLIN,http://www.daft.ie/for-sale/apartment-18-rosedale-crescent-clonee-clonee-dublin-15/3972370
3971458,19569080,"Aran House, Custom House Square, Dublin 1, IFSC, Dublin 1",280000.0,45,45 m²,1,1,Apartment,2022-07-23,A1,,,53.349617,-6.243003,Buy,NORTH_CO_DUBLIN_DUBLIN,http://www.daft.ie/for-sale/apartment-aran-house-custom-house-square-dublin-1-ifsc-dublin-1/3971458
3971435,19569068,"Apartment 3, Beaumont Hall, Beaumont, Dublin 9",295000.0,62,62 m²,2,1,Apartment,2022-08-10,D2,106161128,266.82 kWh/m2/yr,53.386106,-6.229355,Buy,NORTH_CO_DUBLIN_DUBLIN,http://www.daft.ie/for-sale/apartment-apartment-3-beaumont-hall-beaumont-dublin-9/3971435
3971405,19569039,"Apartment 20, Beaumont Hall, Beaumont, Dublin 9",325000.0,81,81 m²,2,1,Apartment,2022-08-10,D2,,,53.386106,-6.229355,Buy,NORTH_CO_DUBLIN_DUBLIN,http://www.daft.ie/for-sale/apartment-apartment-20-beaumont-hall-beaumont-dublin-9/3971405
3971353,19569009,"12 Kavanagh Hall, Castleknock, Dublin 15",365000.0,N/A,,2,2,Apartment,2022-07-28,B3,115227498,147.72 kWh/m2/yr,53.3714041,-6.3699573,Buy,NORTH_CO_DUBLIN_DUBLIN,http://www.daft.ie/for-sale/apartment-12-kavanagh-hall-castleknock-dublin-15/3971353
3970967,19565717,"34 Ashbrook, Ashtown, Dublin 15",295000.0,58,58 m²,2,1,Apartment,2022-08-10,D2,107416679,280.17 kWh/m2/yr,53.372784,-6.330505,Buy,NORTH_CO_DUBLIN_DUBLIN,http://www.daft.ie/for-sale/apartment-34-ashbrook-ashtown-dublin-15/3970967
3970746,19564800,"Apt 58, Block 3, The Watermill, Watermill Road, Raheny, Dublin 5",435000.0,76,76 m²,2,2,Apartment,2022-08-10,B3,105156665,133.08 kWh/m2/yr,53.376163,-6.167823,Buy,NORTH_CO_DUBLIN_DUBLIN,http://www.daft.ie/for-sale/apartment-apt-58-block-3-the-watermill-watermill-road-raheny-dublin-5/3970746
3970622,19563541,"Apartment 7, Curragh Hall House, Curragh Hall Crescent, Tyrrelstown, Dublin 15",209950.0,N/A,,2,1,Apartment,2022-07-12,SI_666,,,53.41678,-6.387787,Buy,NORTH_CO_DUBLIN_DUBLIN,http://www.daft.ie/for-sale/apartment-apartment-7-curragh-hall-house-curragh-hall-crescent-tyrrelstown-dublin-15/3970622
3969430,19553822,"19 Ashton Green, Swords, Co. Dublin",240000.0,N/A,,2,1,Apartment,2022-08-10,C3,107135600,212.1 kWh/m2/yr,53.475430519,-6.23710449,Buy,NORTH_CO_DUBLIN_DUBLIN,http://www.daft.ie/for-sale/apartment-19-ashton-green-swords-co-dublin/3969430
3969808,19555742,"Apartment 8, Brookwood Abbey, Brookwood Grove, Artane, Dublin 5",310000.0,N/A,,2,2,Apartment,2022-08-05,D2,,,53.381509,-6.199975,Buy,NORTH_CO_DUBLIN_DUBLIN,http://www.daft.ie/for-sale/apartment-apartment-8-brookwood-abbey-brookwood-grove-artane-dublin-5/3969808
3970573,19563384,"71 Orchard Way, Ayrfield, Dublin 13",225000.0,73,73 m²,2,1,Apartment,2022-08-10,,,,53.397721,-6.178527,Buy,NORTH_CO_DUBLIN_DUBLIN,http://www.daft.ie/for-sale/apartment-71-orchard-way-ayrfield-dublin-13/3970573
3970237,19558703,"131 Westend Village, Blanchardstown (Penthouse), Blanchardstown, Dublin 15",295000.0,76,76 m²,3,2,Apartment,2022-07-28,D2,104929336,264.45 kWh/m2/yr,53.3886042,-6.3906675,Buy,NORTH_CO_DUBLIN_DUBLIN,http://www.daft.ie/for-sale/apartment-131-westend-village-blanchardstown-penthouse-blanchardstown-dublin-15/3970237
3970051,19557242,"21 Cassian Court South, Royal Canal Park, Ashtown, Dublin 15",310000.0,58,58 m²,2,1,Apartment,2022-08-10,C2,115216392,182.74 kWh/m2/yr,53.376612,-6.31615,Buy,NORTH_CO_DUBLIN_DUBLIN,http://www.daft.ie/for-sale/apartment-21-cassian-court-south-royal-canal-park-ashtown-dublin-15/3970051
3969896,19556201,"170 Burnell Court, Malahide Road, Northern Cross",250000.0,56,56 m²,1,1,Apartment,2022-08-10,D1,,,53.405232,-6.180202,Buy,NORTH_CO_DUBLIN_DUBLIN,http://www.daft.ie/for-sale/apartment-170-burnell-court-malahide-road-northern-cross/3969896
3969565,19555248,"Apartment 16, The Gallery, Donabate, Co. Dublin",330000.0,75,75 m²,2,2,Apartment,2022-07-10,B2,,,53.487338,-6.15187,Buy,NORTH_CO_DUBLIN_DUBLIN,http://www.daft.ie/for-sale/apartment-apartment-16-the-gallery-donabate-co-dublin/3969565
3969522,19555184,"15 Phibblestown House, Clonsilla, Dublin 15",215000.0,66,66 m²,2,1,Apartment,2022-08-09,C1,,,53.399656,-6.436485,Buy,NORTH_CO_DUBLIN_DUBLIN,http://www.daft.ie/for-sale/apartment-15-phibblestown-house-clonsilla-dublin-15/3969522
3967719,19537791,"Apartment 1, Stewart House, Dublin 1",335000.0,56,56 m²,2,1,Apartment,2022-07-06,SI_666,,,53.350963,-6.265324,Buy,NORTH_CO_DUBLIN_DUBLIN,http://www.daft.ie/for-sale/apartment-apartment-1-stewart-house-dublin-1/3967719
3967699,19537782,"99 Latchford Square, Castaheany, Clonee, Dublin 15",290000.0,69,69 m²,2,2,Apartment,2022-08-10,C2,,,53.396223,-6.430231,Buy,NORTH_CO_DUBLIN_DUBLIN,http://www.daft.ie/for-sale/apartment-99-latchford-square-castaheany-clonee-dublin-15/3967699
3965921,19522064,"Apartment 50, Ha'penny Bridge House, Dublin 1",350000.0,57,57 m²,2,1,Apartment,2022-08-03,D2,,,53.346352,-6.265511,Buy,NORTH_CO_DUBLIN_DUBLIN,http://www.daft.ie/for-sale/apartment-apartment-50-hapenny-bridge-house-dublin-1/3965921
3961842,19490385,"80 BLOCK 5A, The Casino, Malahide, Co. Dublin",630000.0,83,83 m²,2,2,Apartment,2022-08-08,B2,107283574,121.64 kWh/m2/yr,53.451258,-6.157128,Buy,NORTH_CO_DUBLIN_DUBLIN,http://www.daft.ie/for-sale/apartment-80-block-5a-the-casino-malahide-co-dublin/3961842
3966456,19527216,"Apartment 52, Clearwater Court South, Royal Canal Park, Ashtown, Dublin 15",324950.0,N/A,,2,2,Apartment,2022-07-06,D1,,,53.376809,-6.31716,Buy,NORTH_CO_DUBLIN_DUBLIN,http://www.daft.ie/for-sale/apartment-apartment-52-clearwater-court-south-royal-canal-park-ashtown-dublin-15/3966456
3966317,19524904,"Apartment 36, Norseman Court, Stoneybatter, Dublin 7",250000.0,55,55 m²,1,1,Apartment,2022-08-10,D1,,,53.351052,-6.28295,Buy,NORTH_CO_DUBLIN_DUBLIN,http://www.daft.ie/for-sale/apartment-apartment-36-norseman-court-stoneybatter-dublin-7/3966317
3943552,19358163,"Apartment 6, Millrace Court, Phoenix Park Racecourse, Castleknock, Dublin 15",350000.0,N/A,,2,1,Apartment,2022-08-10,B3,114846116,133.87 kWh/m2/yr,53.372806,-6.337094,Buy,NORTH_CO_DUBLIN_DUBLIN,http://www.daft.ie/for-sale/apartment-apartment-6-millrace-court-phoenix-park-racecourse-castleknock-dublin-15/3943552
3965860,19520205,"Apartment 79, Riverbank Hall, Addison Avenue, Glasnevin, Dublin 11",370000.0,69,69 m²,2,2,Apartment,2022-07-25,C2,109779215,194.79 kWh/m2/yr,53.376827,-6.276679,Buy,NORTH_CO_DUBLIN_DUBLIN,http://www.daft.ie/for-sale/apartment-apartment-79-riverbank-hall-addison-avenue-glasnevin-dublin-11/3965860
3965396,19518632,"Apartment 157, Raitlin O'Birne, Custom House Harbour Apartments, IFSC, Dublin 1",385000.0,61,61 m²,2,2,Apartment,2022-08-08,C2,,,53.350602,-6.246019,Buy,NORTH_CO_DUBLIN_DUBLIN,http://www.daft.ie/for-sale/apartment-apartment-157-raitlin-obirne-custom-house-harbour-apartments-ifsc-dublin-1/3965396
3965071,19515090,"Apartment 83, Corn Mill, Drumcondra, Dublin 3",375000.0,71,71 m²,2,2,Apartment,2022-07-06,D2,115215956,268.87 kWh/m2/yr,53.363268,-6.249442,Buy,NORTH_CO_DUBLIN_DUBLIN,http://www.daft.ie/for-sale/apartment-apartment-83-corn-mill-drumcondra-dublin-3/3965071
3964213,19508525,"Apartment 8 Malin Hall , Waterville Terrace, Waterville, Blanchardstown, Dublin 15",245000.0,75,75 m²,2,2,Apartment,2022-08-10,C1,,,53.392291,-6.369645,Buy,NORTH_CO_DUBLIN_DUBLIN,http://www.daft.ie/for-sale/apartment-apartment-8-malin-hall-waterville-terrace-waterville-blanchardstown-dublin-15/3964213
3963771,19505677,"56 Ivy Court, Beaumont Woods, Beaumont, Dublin 9",295000.0,75,75 m²,2,2,Apartment,2022-08-10,D1,,,53.39285,-6.228703,Buy,NORTH_CO_DUBLIN_DUBLIN,http://www.daft.ie/for-sale/apartment-56-ivy-court-beaumont-woods-beaumont-dublin-9/3963771
3958493,19454373,"Apartment 23, Cassian Court North, Royal Canal Park, Royal Canal Park, Dublin 15",320000.0,74,74 m²,3,2,Apartment,2022-08-08,C3,,,53.377324,-6.315437,Buy,NORTH_CO_DUBLIN_DUBLIN,http://www.daft.ie/for-sale/apartment-apartment-23-cassian-court-north-royal-canal-park-royal-canal-park-dublin-15/3958493
3961974,19492672,"20D Rathborne Way, Ashtown, Dublin 15",285000.0,75,75 m²,2,2,Apartment,2022-08-09,D1,,,53.377907,-6.328441,Buy,NORTH_CO_DUBLIN_DUBLIN,http://www.daft.ie/for-sale/apartment-20d-rathborne-way-ashtown-dublin-15/3961974
3961638,19489311,"47 Seagrave Drive Meakstown, Finglas, Dublin 11",225000.0,66,66 m²,2,2,Apartment,2022-07-05,B2,115186892,121.72 kWh/m2/yr,53.40561148305062,-6.294319037569778,Buy,NORTH_CO_DUBLIN_DUBLIN,http://www.daft.ie/for-sale/apartment-47-seagrave-drive-meakstown-finglas-dublin-11/3961638
3601206,16783593,"Apartment 16, Carnegie Court, Swords, Co. Dublin",275000.0,71,71 m²,2,1,Apartment,2022-07-01,C1,,,53.461822,-6.217516,Buy,NORTH_CO_DUBLIN_DUBLIN,http://www.daft.ie/for-sale/apartment-apartment-16-carnegie-court-swords-co-dublin/3601206
3616397,16940552,"21 Burton House, Custom House Square, IFSC, Dublin 1",450000.0,N/A,,2,2,Apartment,2022-07-12,C3,,,53.349669,-6.243556,Buy,NORTH_CO_DUBLIN_DUBLIN,http://www.daft.ie/for-sale/apartment-21-burton-house-custom-house-square-ifsc-dublin-1/3616397
3961338,19484773,"54 Boroimhe Cherry, Swords, Co. Dublin",250000.0,56,56 m²,2,2,Apartment,2022-08-10,C2,,,53.445115,-6.235827,Buy,NORTH_CO_DUBLIN_DUBLIN,http://www.daft.ie/for-sale/apartment-54-boroimhe-cherry-swords-co-dublin/3961338
3959509,19466740,"66 Beverton Court, Donabate, Co. Dublin",235000.0,50,50 m²,1,1,Apartment,2022-07-08,C3,,,53.48901,-6.15938,Buy,NORTH_CO_DUBLIN_DUBLIN,http://www.daft.ie/for-sale/apartment-66-beverton-court-donabate-co-dublin/3959509
3946665,19389640,"Apartment 1.2, Boyd House, Howth, Dublin 13",495000.0,60,60 m²,2,1,Apartment,2022-08-10,C2,,,53.3877548,-6.0660799,Buy,NORTH_CO_DUBLIN_DUBLIN,http://www.daft.ie/for-sale/apartment-apartment-1-2-boyd-house-howth-dublin-13/3946665
3959914,19471659,"21 Linnen Hall, Georges Hill, Balbriggan, Co. Dublin",180000.0,59,59 m²,2,2,Apartment,2022-08-08,C2,115012189,198.14 kWh/m2/yr,53.611076,-6.182427,Buy,NORTH_CO_DUBLIN_DUBLIN,http://www.daft.ie/for-sale/apartment-21-linnen-hall-georges-hill-balbriggan-co-dublin/3959914
3959557,19468059,"37 Waterville Terrace, Blanchardstown, Dublin 15",245000.0,72,72 m²,2,1,Apartment,2022-08-03,C3,114673783,207.0 kWh/m2/yr,53.39225,-6.374188,Buy,NORTH_CO_DUBLIN_DUBLIN,http://www.daft.ie/for-sale/apartment-37-waterville-terrace-blanchardstown-dublin-15/3959557
3959421,19466363,"74 Churchwell Drive, Belmayne, Balgriffin, Dublin 13",285000.0,82,82 m²,2,2,Apartment,2022-08-10,C1,100842673,166.03 kWh/m2/yr,53.406795,-6.170789,Buy,NORTH_CO_DUBLIN_DUBLIN,http://www.daft.ie/for-sale/apartment-74-churchwell-drive-belmayne-balgriffin-dublin-13/3959421
3959411,19464798,"Loft 4, Loft 4, The Granary, Distillery Lofts, Drumcondra, Dublin 3",595000.0,135,135 m²,2,2,Apartment,2022-08-10,,,,53.364693,-6.247081,Buy,NORTH_CO_DUBLIN_DUBLIN,http://www.daft.ie/for-sale/apartment-loft-4-loft-4-the-granary-distillery-lofts-drumcondra-dublin-3/3959411
3958817,19459595,"Apartment 6, Stewart House, Dublin 1",250000.0,36,36 m²,1,1,Apartment,2022-07-06,SI_666,,,53.350963,-6.265324,Buy,NORTH_CO_DUBLIN_DUBLIN,http://www.daft.ie/for-sale/apartment-apartment-6-stewart-house-dublin-1/3958817
3958719,19458883,"Block C, 88 Castleforbes Square, IFSC, Dublin 1",315000.0,43,43 m²,1,1,Apartment,2022-08-09,F,,,53.349636,-6.231599,Buy,NORTH_CO_DUBLIN_DUBLIN,http://www.daft.ie/for-sale/apartment-block-c-88-castleforbes-square-ifsc-dublin-1/3958719
3958653,19456587,"12 Castlemill, Balbriggan, Co. Dublin",210000.0,58,58 m²,2,2,Apartment,2022-08-10,C3,114807183,153.0 kWh/m2/yr,53.613605,-6.206254,Buy,NORTH_CO_DUBLIN_DUBLIN,http://www.daft.ie/for-sale/apartment-12-castlemill-balbriggan-co-dublin/3958653
3958610,19456557,"Apartment 75, Block 3, Parklands, Northwood, Santry, Dublin 9",250000.0,60,60 m²,2,2,Apartment,2022-08-10,B3,,,53.406457,-6.250671,Buy,NORTH_CO_DUBLIN_DUBLIN,http://www.daft.ie/for-sale/apartment-apartment-75-block-3-parklands-northwood-santry-dublin-9/3958610
3958533,19456492,"Apartment 5, Claude Hall, 18 Claude Road, Drumcondra, Dublin 9",245000.0,49,49 m²,1,1,Apartment,2022-08-09,D2,112490958,289.56 kWh/m2/yr,53.364517,-6.264912,Buy,NORTH_CO_DUBLIN_DUBLIN,http://www.daft.ie/for-sale/apartment-apartment-5-claude-hall-18-claude-road-drumcondra-dublin-9/3958533
1452158,12329384,"Apartment 59, Block C3, Geraldstown Woods, Santry, Dublin 9",239999.0,N/A,,3,2,Apartment,2022-06-29,B3,,,53.400903,-6.260247,Buy,NORTH_CO_DUBLIN_DUBLIN,http://www.daft.ie/for-sale/apartment-apartment-59-block-c3-geraldstown-woods-santry-dublin-9/1452158
3957243,19445139,"99 Venetian Hall Killester Dublin 5, Killester, Dublin 5",295000.0,73,73 m²,2,1,Apartment,2022-08-10,,,,53.3715595,-6.2026242,Buy,NORTH_CO_DUBLIN_DUBLIN,http://www.daft.ie/for-sale/apartment-99-venetian-hall-killester-dublin-5-killester-dublin-5/3957243
3947527,19399512,"28 Annagh Court, Waterville, Blanchardstown, Dublin 15",225000.0,54,54 m²,1,1,Apartment,2022-08-10,D1,107975245,,53.394672,-6.37506,Buy,NORTH_CO_DUBLIN_DUBLIN,http://www.daft.ie/for-sale/apartment-28-annagh-court-waterville-blanchardstown-dublin-15/3947527
3956159,19434484,"Apartment 1, Corn Mill, Drumcondra, Dublin 3",400000.0,86,86 m²,2,2,Apartment,2022-08-09,C2,105838643,182.27 kWh/m2/yr,53.362888,-6.248639,Buy,NORTH_CO_DUBLIN_DUBLIN,http://www.daft.ie/for-sale/apartment-apartment-1-corn-mill-drumcondra-dublin-3/3956159
3956103,19434431,"Apartment 45, Wellington, Riverpark Apartments, Dublin 8",355000.0,70,70 m²,2,1,Apartment,2022-08-09,D1,,,53.348053,-6.303046,Buy,NORTH_CO_DUBLIN_DUBLIN,http://www.daft.ie/for-sale/apartment-apartment-45-wellington-riverpark-apartments-dublin-8/3956103
3956030,19432813,"Apartment 13 Poppintree Parade , Balbutcher Lane, Ballymun, Dublin 11",175000.0,48,48 m²,1,1,Apartment,2022-08-10,D2,,,53.4,-6.276636,Buy,NORTH_CO_DUBLIN_DUBLIN,http://www.daft.ie/for-sale/apartment-apartment-13-poppintree-parade-balbutcher-lane-ballymun-dublin-11/3956030
3947062,19394639,"Bethany, 18 Saint Joseph's Square, Dublin 3",285000.0,48,48 m²,1,1,Apartment,2022-08-03,F,110882933,394.68 kWh/m2/yr,53.360758,-6.197391,Buy,NORTH_CO_DUBLIN_DUBLIN,http://www.daft.ie/for-sale/apartment-bethany-18-saint-josephs-square-dublin-3/3947062
3947924,19403009,"30 Cedar Lodge, Farmleigh Woods, Castleknock, Dublin 15",695000.0,N/A,,2,2,Apartment,2022-08-10,C1,107980526,160.21 kWh/m2/yr,53.3673818,-6.3608651,Buy,NORTH_CO_DUBLIN_DUBLIN,http://www.daft.ie/for-sale/apartment-30-cedar-lodge-farmleigh-woods-castleknock-dublin-15/3947924
3946916,19393189,"55 Malton House, Custom House Square, IFSC, Dublin 1",275000.0,39,39 m²,1,1,Apartment,2022-08-10,C2,113780837,175.82 kWh/m2/yr,53.349519,-6.245432,Buy,NORTH_CO_DUBLIN_DUBLIN,http://www.daft.ie/for-sale/apartment-55-malton-house-custom-house-square-ifsc-dublin-1/3946916
3946715,19391660,"11 Applewood Court, Applewood, Swords, Co. Dublin",225000.0,50,50 m²,1,1,Apartment,2022-08-10,C3,,,53.46965,-6.230656,Buy,NORTH_CO_DUBLIN_DUBLIN,http://www.daft.ie/for-sale/apartment-11-applewood-court-applewood-swords-co-dublin/3946715
3946627,19389623,"2 Delhurst Avenue, Ongar Park, Ongar, Dublin 15",159000.0,N/A,,1,1,Apartment,2022-08-05,F,,,53.392944,-6.434361,Buy,NORTH_CO_DUBLIN_DUBLIN,http://www.daft.ie/for-sale/apartment-2-delhurst-avenue-ongar-park-ongar-dublin-15/3946627
3937842,19304239,"12D Rathborne Close, Ashtown, Ashtown, Dublin 15",305000.0,N/A,,2,2,Apartment,2022-08-10,C2,,,53.377927,-6.326951,Buy,NORTH_CO_DUBLIN_DUBLIN,http://www.daft.ie/for-sale/apartment-12d-rathborne-close-ashtown-ashtown-dublin-15/3937842
3945471,19377113,"Apartment 73, Russell House, Dublin 1",295000.0,66,66 m²,2,2,Apartment,2022-08-10,E1,105712780,,53.356271,-6.255379,Buy,NORTH_CO_DUBLIN_DUBLIN,http://www.daft.ie/for-sale/apartment-apartment-73-russell-house-dublin-1/3945471
3945544,19377148,"Apartment 19, Millbank, Portmarnock, Co. Dublin",265000.0,51,51 m²,1,1,Apartment,2022-08-10,C3,115177263,202.69 kWh/m2/yr,53.418199,-6.144747,Buy,NORTH_CO_DUBLIN_DUBLIN,http://www.daft.ie/for-sale/apartment-apartment-19-millbank-portmarnock-co-dublin/3945544
3945457,19377104,"Apartment 41, Block A, Lymewood Mews, Northwood, Santry, Dublin 9",275000.0,78,78 m²,2,2,Apartment,2022-08-10,B3,,,53.40278,-6.257834,Buy,NORTH_CO_DUBLIN_DUBLIN,http://www.daft.ie/for-sale/apartment-apartment-41-block-a-lymewood-mews-northwood-santry-dublin-9/3945457
3944623,19371336,"Apartment 122, Block A, Bracken Hall, Swords, Co. Dublin",320000.0,74,74 m²,2,2,Apartment,2022-08-09,D2,110000742,279.26 kWh/m2/yr,53.455555,-6.220322,Buy,NORTH_CO_DUBLIN_DUBLIN,http://www.daft.ie/for-sale/apartment-apartment-122-block-a-bracken-hall-swords-co-dublin/3944623
3936702,19294040,"146 Shannon House, Custom House Square, IFSC, Dublin 1",350000.0,N/A,,2,2,Apartment,2022-08-10,C3,112225966,,53.349287,-6.241594,Buy,NORTH_CO_DUBLIN_DUBLIN,http://www.daft.ie/for-sale/apartment-146-shannon-house-custom-house-square-ifsc-dublin-1/3936702
3943586,19359170,"Apartment 2, Shandon View, Connaught Street, Phibsborough, Dublin 7",170000.0,36,36 m²,1,1,Apartment,2022-08-09,F,,,53.363816,-6.281232,Buy,NORTH_CO_DUBLIN_DUBLIN,http://www.daft.ie/for-sale/apartment-apartment-2-shandon-view-connaught-street-phibsborough-dublin-7/3943586
3943064,19353372,"Apartment 37, Saint Peters Square, Phibsborough, Dublin 7",234950.0,N/A,,1,1,Apartment,2022-06-23,D2,,,53.361584,-6.271922,Buy,NORTH_CO_DUBLIN_DUBLIN,http://www.daft.ie/for-sale/apartment-apartment-37-saint-peters-square-phibsborough-dublin-7/3943064
3943052,19353367,"Apartment 98, Temple Court, Northwood, Santry, Dublin 9",315000.0,88,88 m²,2,2,Apartment,2022-08-10,B3,,,53.406046,-6.249724,Buy,NORTH_CO_DUBLIN_DUBLIN,http://www.daft.ie/for-sale/apartment-apartment-98-temple-court-northwood-santry-dublin-9/3943052
3506837,16046803,"Apartment 21, 35-38 Mountjoy Square South, Dublin 1",270000.0,47,47 m²,2,1,Apartment,2022-08-10,D1,,,53.355952,-6.255889,Buy,NORTH_CO_DUBLIN_DUBLIN,http://www.daft.ie/for-sale/apartment-apartment-21-35-38-mountjoy-square-south-dublin-1/3506837
3942016,19342687,"61 Castleheath, Malahide, Co. Dublin",365000.0,64,64 m²,2,2,Apartment,2022-08-10,C1,,,53.446512,-6.179003,Buy,NORTH_CO_DUBLIN_DUBLIN,http://www.daft.ie/for-sale/apartment-61-castleheath-malahide-co-dublin/3942016
3939171,19315581,"25 Whately Hall, Clonee, Dublin 15",260000.0,N/A,,2,2,Apartment,2022-07-28,B2,108561028,124.65 kWh/m2/yr,53.4043808,-6.4075204,Buy,NORTH_CO_DUBLIN_DUBLIN,http://www.daft.ie/for-sale/apartment-25-whately-hall-clonee-dublin-15/3939171
3938806,19312173,"Apt. 5 Chapelgate, St. Alphonsus' Road Upper, Drumcondra, Dublin 9",395000.0,70,70 m²,2,2,Apartment,2022-08-10,C1,105492417,,53.365276,-6.260431,Buy,NORTH_CO_DUBLIN_DUBLIN,http://www.daft.ie/for-sale/apartment-apt-5-chapelgate-st-alphonsus-road-upper-drumcondra-dublin-9/3938806
3936861,19295384,"5 Melville Drive, Meakstown, Finglas, Dublin 11",215000.0,61,61 m²,2,1,Apartment,2022-08-09,D1,,,53.40153,-6.294275,Buy,NORTH_CO_DUBLIN_DUBLIN,http://www.daft.ie/for-sale/apartment-5-melville-drive-meakstown-finglas-dublin-11/3936861
3936575,19292038,"162 Marina Village, Malahide, Co. Dublin",385000.0,58,58 m²,1,1,Apartment,2022-08-10,D1,,,53.454193,-6.154062,Buy,NORTH_CO_DUBLIN_DUBLIN,http://www.daft.ie/for-sale/apartment-162-marina-village-malahide-co-dublin/3936575
3936562,19292032,"Apartment 44, Block B, Raven Hall, Swords, Co. Dublin",295000.0,81,81 m²,2,2,Apartment,2022-08-10,D1,100275684,256.34 kWh/m2/yr,53.455661,-6.221102,Buy,NORTH_CO_DUBLIN_DUBLIN,http://www.daft.ie/for-sale/apartment-apartment-44-block-b-raven-hall-swords-co-dublin/3936562
3936476,19290118,"17 Brackenwood Drive, Balbriggan, Co. Dublin",150000.0,N/A,,1,1,Apartment,2022-07-27,C3,,,53.613461,-6.207348,Buy,NORTH_CO_DUBLIN_DUBLIN,http://www.daft.ie/for-sale/apartment-17-brackenwood-drive-balbriggan-co-dublin/3936476
3936302,19288076,"1 Lanesborough Castle, Lanesborough Gardens, Finglas, Dublin 11",225000.0,60,60 m²,2,1,Apartment,2022-08-10,D2,,,53.405817,-6.297772,Buy,NORTH_CO_DUBLIN_DUBLIN,http://www.daft.ie/for-sale/apartment-1-lanesborough-castle-lanesborough-gardens-finglas-dublin-11/3936302
3935553,19281100,"Apartment 164, Rathborne Court, Ashtown, Dublin 15","AMV: €285,000",N/A,,2,2,Apartment,2022-08-09,B2,111502332,,53.3766,-6.324101,Buy,NORTH_CO_DUBLIN_DUBLIN,http://www.daft.ie/for-sale/apartment-apartment-164-rathborne-court-ashtown-dublin-15/3935553
3935537,19280207,"35 St Olaves, Chapel Road, Kinsealy, Co. Dublin",360000.0,65,65 m²,2,1,Apartment,2022-08-10,B3,115158255,137.7 kWh/m2/yr,53.426213,-6.175482,Buy,NORTH_CO_DUBLIN_DUBLIN,http://www.daft.ie/for-sale/apartment-35-st-olaves-chapel-road-kinsealy-co-dublin/3935537
3935357,19278111,"Apt 8, Elm House, Applewood, Swords, Co. Dublin",250000.0,N/A,,2,1,Apartment,2022-08-10,D1,105047294,237.44 kWh/m2/yr,53.4693984,-6.230054,Buy,NORTH_CO_DUBLIN_DUBLIN,http://www.daft.ie/for-sale/apartment-apt-8-elm-house-applewood-swords-co-dublin/3935357
3935147,19276647,"Apartment 97, Premier Square, Finglas, Dublin 11",250000.0,N/A,,2,2,Apartment,2022-08-09,C1,,,53.381727,-6.290125,Buy,NORTH_CO_DUBLIN_DUBLIN,http://www.daft.ie/for-sale/apartment-apartment-97-premier-square-finglas-dublin-11/3935147
3934982,19276210,"6 Rosecourt, Cabra Road, Dublin 7",275000.0,N/A,,2,1,Apartment,2022-08-10,G,112432075,630.85 kWh/m2/yr,53.36182,-6.297256,Buy,NORTH_CO_DUBLIN_DUBLIN,http://www.daft.ie/for-sale/apartment-6-rosecourt-cabra-road-dublin-7/3934982
3934954,19275462,"Apartment 42, Block 3, Parklands, Northwood, Santry, Dublin 9",275000.0,73,73 m²,2,2,Apartment,2022-08-10,C2,,,53.406303,-6.250711,Buy,NORTH_CO_DUBLIN_DUBLIN,http://www.daft.ie/for-sale/apartment-apartment-42-block-3-parklands-northwood-santry-dublin-9/3934954
3934870,19275379,"Apartment 69, Carnegie Court, Swords, Co. Dublin",275000.0,66,66 m²,2,1,Apartment,2022-06-28,B3,115007395,128.21 kWh/m2/yr,53.461822,-6.217516,Buy,NORTH_CO_DUBLIN_DUBLIN,http://www.daft.ie/for-sale/apartment-apartment-69-carnegie-court-swords-co-dublin/3934870
3934016,19264262,"4 Newcomen Court, North Strand, Dublin 3",240000.0,56,56 m²,2,1,Apartment,2022-08-10,C3,102840931,,53.357462,-6.243629,Buy,NORTH_CO_DUBLIN_DUBLIN,http://www.daft.ie/for-sale/apartment-4-newcomen-court-north-strand-dublin-3/3934016
3927179,19200316,"Apartment 69, Stewart Hall, Ryder's Row, Dublin 1",275000.0,67,67 m²,2,1,Apartment,2022-08-10,SI_666,,,53.350239,-6.268754,Buy,NORTH_CO_DUBLIN_DUBLIN,http://www.daft.ie/for-sale/apartment-apartment-69-stewart-hall-ryders-row-dublin-1/3927179
3932342,19247127,"1 Timber Mills, Artane, Dublin 5",345000.0,71,71 m²,2,2,Apartment,2022-08-10,D1,110325982,232.69 kWh/m2/yr,53.383033,-6.212228,Buy,NORTH_CO_DUBLIN_DUBLIN,http://www.daft.ie/for-sale/apartment-1-timber-mills-artane-dublin-5/3932342
3931911,19245343,"Apartment 28, Clearwater Court North, River Drive, Ashtown, Dublin 15",285000.0,85,85 m²,3,2,Apartment,2022-08-10,C2,,,53.377511,-6.317334,Buy,NORTH_CO_DUBLIN_DUBLIN,http://www.daft.ie/for-sale/apartment-apartment-28-clearwater-court-north-river-drive-ashtown-dublin-15/3931911
3931558,19241892,"1 Melville Square, Meakstown, Finglas, Dublin 11",260000.0,66,66 m²,2,2,Apartment,2022-06-13,C1,107957482,160.96 kWh/m2/yr,53.402775,-6.301179,Buy,NORTH_CO_DUBLIN_DUBLIN,http://www.daft.ie/for-sale/apartment-1-melville-square-meakstown-finglas-dublin-11/3931558
3931527,19241814,"49 Rosedale Close, Castaheany, Clonee, Dublin 15",230000.0,72,72 m²,2,1,Apartment,2022-07-26,C2,114316417,181.36 kWh/m2/yr,53.4002961,-6.4345375,Buy,NORTH_CO_DUBLIN_DUBLIN,http://www.daft.ie/for-sale/apartment-49-rosedale-close-castaheany-clonee-dublin-15/3931527
3931253,19237637,"Apartment 98, Tolka Vale, Glasnevin, Dublin 11",315000.0,73,73 m²,2,2,Apartment,2022-08-10,D2,108582040,,53.377514,-6.288448,Buy,NORTH_CO_DUBLIN_DUBLIN,http://www.daft.ie/for-sale/apartment-apartment-98-tolka-vale-glasnevin-dublin-11/3931253
3772802,18404788,"Apartment 70, Block D, Raven Hall, Swords, Co. Dublin",220000.0,45,45 m²,1,1,Apartment,2022-08-08,D2,114775059,267.0 kWh/m2/yr,53.45533,-6.221332,Buy,NORTH_CO_DUBLIN_DUBLIN,http://www.daft.ie/for-sale/apartment-apartment-70-block-d-raven-hall-swords-co-dublin/3772802
3929713,19226570,"Apartment 73, Greenview, Portmarnock, Co. Dublin",365000.0,78,78 m²,2,2,Apartment,2022-08-10,B3,115047870,149.67 kWh/m2/yr,53.420561,-6.152813,Buy,NORTH_CO_DUBLIN_DUBLIN,http://www.daft.ie/for-sale/apartment-apartment-73-greenview-portmarnock-co-dublin/3929713
3929771,19226635,"Apt 6 Chesnut House Applewood, Swords, Co. Dublin",235000.0,70,70 m²,2,2,Apartment,2022-08-10,C1,115159287,168.19 kWh/m2/yr,53.470731,-6.232989,Buy,NORTH_CO_DUBLIN_DUBLIN,http://www.daft.ie/for-sale/apartment-apt-6-chesnut-house-applewood-swords-co-dublin/3929771
3929583,19224371,"Apartment 88, Baltray House, The Oaks, Swords, Co. Dublin",300000.0,75,75 m²,2,2,Apartment,2022-08-09,C3,112384185,220.6 kWh/m2/yr,53.446531,-6.242431,Buy,NORTH_CO_DUBLIN_DUBLIN,http://www.daft.ie/for-sale/apartment-apartment-88-baltray-house-the-oaks-swords-co-dublin/3929583
3929402,19223446,"10 Kittiwake, Barnageeragh Cove, Skerries, Co. Dublin",395000.0,70,70 m²,2,2,Apartment,2022-08-10,B3,100549302,149.91 kWh/m2/yr,53.585465,-6.136175,Buy,NORTH_CO_DUBLIN_DUBLIN,http://www.daft.ie/for-sale/apartment-10-kittiwake-barnageeragh-cove-skerries-co-dublin/3929402
3929284,19222618,"71 BLOCK 5A, The Casino, Malahide, Co. Dublin",495000.0,65,65 m²,2,2,Apartment,2022-08-09,B3,101916351,148.46 kWh/m2/yr,53.451258,-6.157128,Buy,NORTH_CO_DUBLIN_DUBLIN,http://www.daft.ie/for-sale/apartment-71-block-5a-the-casino-malahide-co-dublin/3929284
3928803,19217565,"22 Bracken View, Castleknock, Dublin 15",450000.0,81,81 m²,2,2,Apartment,2022-08-10,A3,,,53.373925,-6.37676,Buy,NORTH_CO_DUBLIN_DUBLIN,http://www.daft.ie/for-sale/apartment-22-bracken-view-castleknock-dublin-15/3928803
3928789,19217558,"Apartment 3, Hillcrest Court, Glasnevin, Dublin 9",365000.0,66,66 m²,2,1,Apartment,2022-08-10,D1,,,53.378519,-6.266049,Buy,NORTH_CO_DUBLIN_DUBLIN,http://www.daft.ie/for-sale/apartment-apartment-3-hillcrest-court-glasnevin-dublin-9/3928789
3817115,18791564,"10 Talbot Street, Dublin 1",1650000.0,N/A,,4,2,Apartment,2022-08-09,D1,,,53.350545,-6.256445,Buy,NORTH_CO_DUBLIN_DUBLIN,http://www.daft.ie/for-sale/apartment-10-talbot-street-dublin-1/3817115
3928225,19209573,"16 Botanic Square, Glasnevin, Dublin 9",325000.0,73,73 m²,2,2,Apartment,2022-08-10,D1,115040172,227.84 kWh/m2/yr,53.369313,-6.263685,Buy,NORTH_CO_DUBLIN_DUBLIN,http://www.daft.ie/for-sale/apartment-16-botanic-square-glasnevin-dublin-9/3928225
3928097,19207982,"22 Haddon Court, Clontarf, Dublin 3",350000.0,68,68 m²,2,1,Apartment,2022-08-08,D1,111681698,237.17 kWh/m2/yr,53.36061,-6.211108,Buy,NORTH_CO_DUBLIN_DUBLIN,http://www.daft.ie/for-sale/apartment-22-haddon-court-clontarf-dublin-3/3928097
3927814,19205709,"Apartment 111, Greeg Court, Dublin 1",390000.0,65,65 m²,2,2,Apartment,2022-08-04,C2,,,53.351117,-6.263792,Buy,NORTH_CO_DUBLIN_DUBLIN,http://www.daft.ie/for-sale/apartment-apartment-111-greeg-court-dublin-1/3927814
3927508,19203098,"Apartment 116, Block C, Castle Hall, Swords, Co. Dublin",295000.0,89,89 m²,2,2,Apartment,2022-08-08,C3,114878291,203.42 kWh/m2/yr,53.455313,-6.220207,Buy,NORTH_CO_DUBLIN_DUBLIN,http://www.daft.ie/for-sale/apartment-apartment-116-block-c-castle-hall-swords-co-dublin/3927508
3927102,19198936,"29 Rockabill, Skerries, Co. Dublin",375000.0,70,70 m²,2,1,Apartment,2022-06-10,D1,107444929,,53.575933,-6.10448,Buy,NORTH_CO_DUBLIN_DUBLIN,http://www.daft.ie/for-sale/apartment-29-rockabill-skerries-co-dublin/3927102
3926920,19197055,"33 Woodbrook Crescent, Castleknock, Dublin 15",275000.0,N/A,,2,2,Apartment,2022-07-08,C1,,,53.377435,-6.401769,Buy,NORTH_CO_DUBLIN_DUBLIN,http://www.daft.ie/for-sale/apartment-33-woodbrook-crescent-castleknock-dublin-15/3926920
3926852,19196726,"(Penthouse Apartment) The Weir, Block A, Martins Row, Main Street, Chapelizod, Dublin 20",310000.0,60,60 m²,1,1,Apartment,2022-08-10,D2,,,53.3493218,-6.3452724,Buy,NORTH_CO_DUBLIN_DUBLIN,http://www.daft.ie/for-sale/apartment--penthouse-apartment-the-weir-block-a-martins-row-main-street-chapelizod-dublin-20/3926852
3925377,19179309,"Apartment 33, Windmill Terrace, Clonsilla, Dublin 15",259950.0,N/A,,2,2,Apartment,2022-06-17,C1,106077142,169.5 kWh/m2/yr,53.380132,-6.39992,Buy,NORTH_CO_DUBLIN_DUBLIN,http://www.daft.ie/for-sale/apartment-apartment-33-windmill-terrace-clonsilla-dublin-15/3925377
3924796,19174945,"Apartment 43, Walton Hall, Thornleigh Road, Swords, Co. Dublin",195000.0,60,60 m²,2,2,Apartment,2022-08-09,C3,,,53.474139,-6.233047,Buy,NORTH_CO_DUBLIN_DUBLIN,http://www.daft.ie/for-sale/apartment-apartment-43-walton-hall-thornleigh-road-swords-co-dublin/3924796
3924303,19169276,"Apartment 26, The Oaks, Ashtown, Dublin 15",385000.0,120,120 m²,3,3,Apartment,2022-08-10,B3,114811169,130.14 kWh/m2/yr,53.377173,-6.323471,Buy,NORTH_CO_DUBLIN_DUBLIN,http://www.daft.ie/for-sale/apartment-apartment-26-the-oaks-ashtown-dublin-15/3924303
3924096,19168269,"35 Woodbrook Hall, Castleknock, Dublin 15",270000.0,70,70 m²,2,2,Apartment,2022-08-10,C2,,,53.377285,-6.401504,Buy,NORTH_CO_DUBLIN_DUBLIN,http://www.daft.ie/for-sale/apartment-35-woodbrook-hall-castleknock-dublin-15/3924096
3924136,19168944,"Apartment 78, Block F, The Gateway Student Village, Ballymun, Dublin 9",190000.0,75,75 m²,3,1,Apartment,2022-08-09,C1,,,53.394709,-6.262511,Buy,NORTH_CO_DUBLIN_DUBLIN,http://www.daft.ie/for-sale/apartment-apartment-78-block-f-the-gateway-student-village-ballymun-dublin-9/3924136
3923640,19162840,"Apartment 2, Gracefield, Balbriggan, Co. Dublin",215000.0,59,59 m²,2,1,Apartment,2022-08-04,E1,101749307,,53.609532,-6.191044,Buy,NORTH_CO_DUBLIN_DUBLIN,http://www.daft.ie/for-sale/apartment-apartment-2-gracefield-balbriggan-co-dublin/3923640
3922409,19157469,"Custom House Harbour, IFSC, Dublin 1",315000.0,N/A,,1,1,Apartment,2022-06-11,D2,,,53.350992352452835,-6.248439012932039,Buy,NORTH_CO_DUBLIN_DUBLIN,http://www.daft.ie/for-sale/apartment-custom-house-harbour-ifsc-dublin-1/3922409
3921733,19151943,"14 Kelly's Bay Tide, Skerries, Co. Dublin",295000.0,66,66 m²,2,1,Apartment,2022-08-10,C1,114170657,168.59 kWh/m2/yr,53.583095,-6.133922,Buy,NORTH_CO_DUBLIN_DUBLIN,http://www.daft.ie/for-sale/apartment-14-kellys-bay-tide-skerries-co-dublin/3921733
3922204,19156936,"Apartment 14 Belvedere Court, 30 North Great George's Street, Dublin 1",395000.0,57,57 m²,2,1,Apartment,2022-08-10,D2,105046387,289.61 kWh/m2/yr,53.353863,-6.259638,Buy,NORTH_CO_DUBLIN_DUBLIN,http://www.daft.ie/for-sale/apartment-apartment-14-belvedere-court-30-north-great-georges-street-dublin-1/3922204
3921977,19154485,"51 Burnell Square, Northern Cross, Malahide Road, Balgriffin, Dublin 17",225000.0,53,53 m²,1,1,Apartment,2022-06-21,C2,115053472,,53.40418133533936,-6.1798283829353124,Buy,NORTH_CO_DUBLIN_DUBLIN,http://www.daft.ie/for-sale/apartment-51-burnell-square-northern-cross-malahide-road-balgriffin-dublin-17/3921977
3921179,19147495,"59 Fairview Close, Richmond Avenue, Dublin 3",229950.0,N/A,,1,1,Apartment,2022-06-21,C2,,,53.363398,-6.242789,Buy,NORTH_CO_DUBLIN_DUBLIN,http://www.daft.ie/for-sale/apartment-59-fairview-close-richmond-avenue-dublin-3/3921179
3921096,19146780,"Apartment 29, Mayeston Square, Finglas, Dublin 11",224950.0,66,66 m²,2,2,Apartment,2022-07-12,B2,,,53.406471,-6.288414,Buy,NORTH_CO_DUBLIN_DUBLIN,http://www.daft.ie/for-sale/apartment-apartment-29-mayeston-square-finglas-dublin-11/3921096
3919835,19135583,"Apartment 47, Cloncurry House, Dublin 1",475000.0,90,90 m²,3,2,Apartment,2022-08-10,C2,115017857,198.51 kWh/m2/yr,53.349361,-6.239391,Buy,NORTH_CO_DUBLIN_DUBLIN,http://www.daft.ie/for-sale/apartment-apartment-47-cloncurry-house-dublin-1/3919835
3919391,19131536,"Captains's View, Castleland Park, Balbriggan, Co. Dublin",275000.0,77,77 m²,2,2,Apartment,2022-06-03,A3,,,53.600266,-6.177448,Buy,NORTH_CO_DUBLIN_DUBLIN,http://www.daft.ie/for-sale/apartment-captainss-view-castleland-park-balbriggan-co-dublin/3919391
3919293,19130318,"Apartment 10, Island View Apartments, Howth, Dublin 13",349950.0,58,58 m²,2,1,Apartment,2022-08-09,D2,,,53.387637,-6.067392,Buy,NORTH_CO_DUBLIN_DUBLIN,http://www.daft.ie/for-sale/apartment-apartment-10-island-view-apartments-howth-dublin-13/3919293
3917609,19113075,"Apartment 43, Block B, Smithfield, Dublin 7",400000.0,77,77 m²,2,2,Apartment,2022-06-27,C3,111962825,218.68 kWh/m2/yr,53.347819,-6.279393,Buy,NORTH_CO_DUBLIN_DUBLIN,http://www.daft.ie/for-sale/apartment-apartment-43-block-b-smithfield-dublin-7/3917609
3917081,19107132,"Apartment 14, The Goulding, Santry Cross, Ballymun, Dublin 9",225000.0,61,61 m²,2,2,Apartment,2022-07-01,D1,107736902,253.29 kWh/m2/yr,53.400385,-6.263637,Buy,NORTH_CO_DUBLIN_DUBLIN,http://www.daft.ie/for-sale/apartment-apartment-14-the-goulding-santry-cross-ballymun-dublin-9/3917081
3915864,19098324,"Apt 30, The Moyle, Prospect Hill, Finglas Road, D11PO32, Finglas, Dublin 11",265000.0,70,70 m²,2,2,Apartment,2022-08-10,C2,114872583,196.57 kWh/m2/yr,53.3804835,-6.2906336,Buy,NORTH_CO_DUBLIN_DUBLIN,http://www.daft.ie/for-sale/apartment-apt-30-the-moyle-prospect-hill-finglas-road-d11po32-finglas-dublin-11/3915864
3916182,19101956,"22 Red Arches Drive, The Coast, Baldoyle, Dublin 13",230000.0,54,54 m²,1,1,Apartment,2022-08-10,C2,115017287,191.35 kWh/m2/yr,53.402011,-6.143223,Buy,NORTH_CO_DUBLIN_DUBLIN,http://www.daft.ie/for-sale/apartment-22-red-arches-drive-the-coast-baldoyle-dublin-13/3916182
3916006,19100493,"17 Woodbrook Hall, Castleknock, Dublin 15",280000.0,N/A,,2,2,Apartment,2022-07-01,C2,,,53.376818,-6.401337,Buy,NORTH_CO_DUBLIN_DUBLIN,http://www.daft.ie/for-sale/apartment-17-woodbrook-hall-castleknock-dublin-15/3916006
3915937,19098360,"Apartment 25, 35-38 Mountjoy Square South, Dublin 1",260000.0,42,42 m²,2,1,Apartment,2022-08-10,F,106284094,408.1 kWh/m2/yr,53.355952,-6.255889,Buy,NORTH_CO_DUBLIN_DUBLIN,http://www.daft.ie/for-sale/apartment-apartment-25-35-38-mountjoy-square-south-dublin-1/3915937
3915518,19094535,"Apartment 201, The Distillery Building, Distillery Road, Drumcondra, Dublin 3",325000.0,79,79 m²,2,2,Apartment,2022-06-21,D1,,,53.363769,-6.24874,Buy,NORTH_CO_DUBLIN_DUBLIN,http://www.daft.ie/for-sale/apartment-apartment-201-the-distillery-building-distillery-road-drumcondra-dublin-3/3915518
3915608,19096287,"Apartment 58, Millbank, Portmarnock, Co. Dublin",365000.0,75,75 m²,2,2,Apartment,2022-06-21,B3,115012882,133.97 kWh/m2/yr,53.418348,-6.143952,Buy,NORTH_CO_DUBLIN_DUBLIN,http://www.daft.ie/for-sale/apartment-apartment-58-millbank-portmarnock-co-dublin/3915608
3914898,19085785,"11 Hawthorn House, Farmleigh, Castleknock, Dublin 15",520000.0,N/A,,2,2,Apartment,2022-07-28,C1,113300651,170.08 kWh/m2/yr,53.3671312,-6.3619638,Buy,NORTH_CO_DUBLIN_DUBLIN,http://www.daft.ie/for-sale/apartment-11-hawthorn-house-farmleigh-castleknock-dublin-15/3914898
3913131,19073543,"78 Lanesborough Square, Finglas, Finglas, Dublin 11",259950.0,N/A,,3,2,Apartment,2022-06-09,C1,114876394,154.25 kWh/m2/yr,53.40504,-6.297025,Buy,NORTH_CO_DUBLIN_DUBLIN,http://www.daft.ie/for-sale/apartment-78-lanesborough-square-finglas-finglas-dublin-11/3913131
3622639,17003220,"16 Harbour View, Balbriggan, Co. Dublin",210000.0,57,57 m²,2,1,Apartment,2022-08-10,C3,114436249,204.0 kWh/m2/yr,53.608912,-6.182094,Buy,NORTH_CO_DUBLIN_DUBLIN,http://www.daft.ie/for-sale/apartment-16-harbour-view-balbriggan-co-dublin/3622639
3910748,19056548,"Apartment 3, Greeg Court, Dublin 1",350000.0,57,57 m²,2,1,Apartment,2022-08-10,B3,,,53.350972,-6.264206,Buy,NORTH_CO_DUBLIN_DUBLIN,http://www.daft.ie/for-sale/apartment-apartment-3-greeg-court-dublin-1/3910748
3910404,19052258,"38 Parkview, Malahide, Co. Dublin",395000.0,90,90 m²,2,2,Apartment,2022-08-10,C1,114998826,151.22 kWh/m2/yr,53.444291,-6.136454,Buy,NORTH_CO_DUBLIN_DUBLIN,http://www.daft.ie/for-sale/apartment-38-parkview-malahide-co-dublin/3910404
3909972,19047934,"36 The View, Larch Hill, Santry, Dublin 9",249950.0,N/A,,2,1,Apartment,2022-06-21,C3,,,53.398307,-6.229257,Buy,NORTH_CO_DUBLIN_DUBLIN,http://www.daft.ie/for-sale/apartment-36-the-view-larch-hill-santry-dublin-9/3909972
3909966,19047932,"Apartment 140, Millrace Road, Phoenix Park Racecourse, Castleknock, Dublin 15",395000.0,87,87 m²,2,2,Apartment,2022-06-02,B2,104138268,115.85 kWh/m2/yr,53.3724,-6.333862,Buy,NORTH_CO_DUBLIN_DUBLIN,http://www.daft.ie/for-sale/apartment-apartment-140-millrace-road-phoenix-park-racecourse-castleknock-dublin-15/3909966
3909080,19038319,"107 Bantry Square, Blanchardstown, Dublin 15",249950.0,N/A,,1,1,Apartment,2022-06-21,C3,,,53.392945,-6.370172,Buy,NORTH_CO_DUBLIN_DUBLIN,http://www.daft.ie/for-sale/apartment-107-bantry-square-blanchardstown-dublin-15/3909080
3907931,19027766,"69 Woodbrook Crescent, Castleknock, Dublin 15",275000.0,N/A,,2,2,Apartment,2022-07-01,C2,,,53.37551378146634,-6.391566452384382,Buy,NORTH_CO_DUBLIN_DUBLIN,http://www.daft.ie/for-sale/apartment-69-woodbrook-crescent-castleknock-dublin-15/3907931
3907975,19027787,"Apartment 11, Phoenix, Riverpark Apartments, Islandbridge, Dublin 8",345000.0,65,65 m²,2,2,Apartment,2022-08-09,D1,,,53.347974,-6.30361,Buy,NORTH_CO_DUBLIN_DUBLIN,http://www.daft.ie/for-sale/apartment-apartment-11-phoenix-riverpark-apartments-islandbridge-dublin-8/3907975
3906033,19013680,"Apartment 62, Hampton Wood Road, Finglas, Dublin 11",170000.0,43,43 m²,1,1,Apartment,2022-07-27,C3,,,53.404798,-6.289502,Buy,NORTH_CO_DUBLIN_DUBLIN,http://www.daft.ie/for-sale/apartment-apartment-62-hampton-wood-road-finglas-dublin-11/3906033
3907620,19024619,"5 Castlegrange Gardens, Clonee, Clonee, Dublin 15",245000.0,N/A,,2,2,Apartment,2022-06-21,B3,,,53.398901,-6.429521,Buy,NORTH_CO_DUBLIN_DUBLIN,http://www.daft.ie/for-sale/apartment-5-castlegrange-gardens-clonee-clonee-dublin-15/3907620
3906265,19015957,"3 Broadstone Avenue, Phibsborough, Dublin 7",265000.0,40,40 m²,3,1,Apartment,2022-08-09,C3,,,53.355969,-6.273048,Buy,NORTH_CO_DUBLIN_DUBLIN,http://www.daft.ie/for-sale/apartment-3-broadstone-avenue-phibsborough-dublin-7/3906265
3904147,18993527,"79 The Fairways, Seabrook Manor, Portmarnock, Co. Dublin",355000.0,80,80 m²,2,2,Apartment,2022-08-10,B2,114860471,115.05 kWh/m2/yr,53.42049,-6.153612,Buy,NORTH_CO_DUBLIN_DUBLIN,http://www.daft.ie/for-sale/apartment-79-the-fairways-seabrook-manor-portmarnock-co-dublin/3904147
3903711,18989362,"13 Kittiwake, Barnageeragh Cove, Skerries, Co. Dublin",385000.0,72,72 m²,2,2,Apartment,2022-08-10,B2,108872227,120.5 kWh/m2/yr,53.5854645,-6.1361747,Buy,NORTH_CO_DUBLIN_DUBLIN,http://www.daft.ie/for-sale/apartment-13-kittiwake-barnageeragh-cove-skerries-co-dublin/3903711
3901807,18973211,"Apartment 21, Kirkpatrick House, Dublin 1",365000.0,60,60 m²,2,1,Apartment,2022-08-09,B3,102628898,131.44 kWh/m2/yr,53.350121,-6.238616,Buy,NORTH_CO_DUBLIN_DUBLIN,http://www.daft.ie/for-sale/apartment-apartment-21-kirkpatrick-house-dublin-1/3901807
3900139,18956048,"109 BLOCK 8, Marina Village, Malahide, Co. Dublin",375000.0,65,65 m²,2,2,Apartment,2022-08-09,C2,114884448,192.32 kWh/m2/yr,53.45384,-6.154014,Buy,NORTH_CO_DUBLIN_DUBLIN,http://www.daft.ie/for-sale/apartment-109-block-8-marina-village-malahide-co-dublin/3900139
3900112,18956037,"Apartment 5, Rockabill, Skerries, Co. Dublin",530000.0,N/A,,2,2,Apartment,2022-06-22,C2,,,53.575954,-6.103547,Buy,NORTH_CO_DUBLIN_DUBLIN,http://www.daft.ie/for-sale/apartment-apartment-5-rockabill-skerries-co-dublin/3900112
3900034,18954280,"Apartment 24, Malin Hall, Waterville Terrace, Waterville, Blanchardstown, Dublin 15",249950.0,69,69 m²,2,2,Apartment,2022-08-09,C1,114884844,171.07 kWh/m2/yr,53.392147,-6.369898,Buy,NORTH_CO_DUBLIN_DUBLIN,http://www.daft.ie/for-sale/apartment-apartment-24-malin-hall-waterville-terrace-waterville-blanchardstown-dublin-15/3900034
3899905,18952640,"20 Verville Court, Clontarf, Dublin 3",650000.0,128,128 m²,2,2,Apartment,2022-08-10,D1,112722699,250.67 kWh/m2/yr,53.369576,-6.198373,Buy,NORTH_CO_DUBLIN_DUBLIN,http://www.daft.ie/for-sale/apartment-20-verville-court-clontarf-dublin-3/3899905
3899889,18952604,"Apartment 9, Synod Place, Lusk, Co. Dublin",252500.0,74,74 m²,2,2,Apartment,2022-08-08,C1,,,53.526062,-6.159727,Buy,NORTH_CO_DUBLIN_DUBLIN,http://www.daft.ie/for-sale/apartment-apartment-9-synod-place-lusk-co-dublin/3899889
3898658,18935877,"Apartment 2, McNeill Hall, Balbriggan, Co. Dublin",159000.0,N/A,,1,1,Apartment,2022-06-22,E1,,,53.611225,-6.182056,Buy,NORTH_CO_DUBLIN_DUBLIN,http://www.daft.ie/for-sale/apartment-apartment-2-mcneill-hall-balbriggan-co-dublin/3898658
3899017,18941450,"Apartment 35, Block C, Smithfield, Dublin 1",450000.0,73,73 m²,2,2,Apartment,2022-08-09,C2,114879547,193.32 kWh/m2/yr,53.347758,-6.278864,Buy,NORTH_CO_DUBLIN_DUBLIN,http://www.daft.ie/for-sale/apartment-apartment-35-block-c-smithfield-dublin-1/3899017
3895719,18907534,"51 Abby Well, Chapel Road, Malahide, Co. Dublin",350000.0,82,82 m²,2,2,Apartment,2022-08-10,C1,,,53.426117,-6.175028,Buy,NORTH_CO_DUBLIN_DUBLIN,http://www.daft.ie/for-sale/apartment-51-abby-well-chapel-road-malahide-co-dublin/3895719
3897760,18925605,"6 Valentia House IFSC Dublin 1, IFSC, Dublin 1",595000.0,98,98 m²,3,2,Apartment,2022-08-10,C3,100983402,212.91 kWh/m2/yr,53.349484,-6.24284,Buy,NORTH_CO_DUBLIN_DUBLIN,http://www.daft.ie/for-sale/apartment-6-valentia-house-ifsc-dublin-1-ifsc-dublin-1/3897760
3892050,18880441,"Apartment 57, Ivy Exchange, Dublin 1",275000.0,45,45 m²,1,1,Apartment,2022-08-10,D2,,,53.351819,-6.264151,Buy,NORTH_CO_DUBLIN_DUBLIN,http://www.daft.ie/for-sale/apartment-apartment-57-ivy-exchange-dublin-1/3892050
3894535,18897487,"Apartment 39, Kavanagh Hall, Castleknock, Dublin 15",310000.0,N/A,,2,2,Apartment,2022-08-08,C2,,,53.371421,-6.370151,Buy,NORTH_CO_DUBLIN_DUBLIN,http://www.daft.ie/for-sale/apartment-apartment-39-kavanagh-hall-castleknock-dublin-15/3894535
3893903,18892654,"Apartment 100, College View, Ballymun, Dublin 9",225000.0,N/A,,2,2,Apartment,2022-06-21,SI_666,,,53.39489,-6.26557,Buy,NORTH_CO_DUBLIN_DUBLIN,http://www.daft.ie/for-sale/apartment-apartment-100-college-view-ballymun-dublin-9/3893903
3893534,18892395,"19 Mayeston Rise, Saint Margaret's Road, Finglas, Dublin 11",289000.0,64,64 m²,2,2,Apartment,2022-06-21,B2,,,53.406382,-6.285216,Buy,NORTH_CO_DUBLIN_DUBLIN,http://www.daft.ie/for-sale/apartment-19-mayeston-rise-saint-margarets-road-finglas-dublin-11/3893534
3893471,18891039,"Apartment 25, Merchamp, Seafield Road East, Dublin 3",275000.0,38,38 m²,1,1,Apartment,2022-07-19,D2,101212850,265.02 kWh/m2/yr,53.363297,-6.195052,Buy,NORTH_CO_DUBLIN_DUBLIN,http://www.daft.ie/for-sale/apartment-apartment-25-merchamp-seafield-road-east-dublin-3/3893471
3890149,18862452,"44 Boroimhe Hawthorns, Swords, Co. Dublin",270000.0,65,65 m²,2,2,Apartment,2022-05-13,C2,,,53.44704,-6.236101,Buy,NORTH_CO_DUBLIN_DUBLIN,http://www.daft.ie/for-sale/apartment-44-boroimhe-hawthorns-swords-co-dublin/3890149
3873308,18860691,"14 Gleann Ribh, Lusk, Co. Dublin",225000.0,68,68 m²,2,2,Apartment,2022-08-09,C2,115208324,206.52 kWh/m2/yr,53.523399,-6.166181,Buy,NORTH_CO_DUBLIN_DUBLIN,http://www.daft.ie/for-sale/apartment-14-gleann-ribh-lusk-co-dublin/3873308
3891603,18876501,"55 Stewart Hall, Ryder's Row, Dublin 1",395000.0,62,62 m²,2,2,Apartment,2022-08-10,D1,100699453,243.4 kWh/m2/yr,53.350239,-6.268754,Buy,NORTH_CO_DUBLIN_DUBLIN,http://www.daft.ie/for-sale/apartment-55-stewart-hall-ryders-row-dublin-1/3891603
3772710,18404143,"Apartment 20, Blackwater House, Dublin 1",550000.0,93,93 m²,3,2,Apartment,2022-08-10,C1,,,53.349612,-6.238937,Buy,NORTH_CO_DUBLIN_DUBLIN,http://www.daft.ie/for-sale/apartment-apartment-20-blackwater-house-dublin-1/3772710
3890094,18860893,"Apartment 3, Saint Joseph's Crescent, Clonsilla, Dublin 15",269950.0,N/A,,2,1,Apartment,2022-06-21,A1,,,53.386449,-6.428687,Buy,NORTH_CO_DUBLIN_DUBLIN,http://www.daft.ie/for-sale/apartment-apartment-3-saint-josephs-crescent-clonsilla-dublin-15/3890094
3824734,18858627,"25 Holywell View, Swords, Co. Dublin",240000.0,69,69 m²,2,1,Apartment,2022-08-09,C3,,,53.44664,-6.208722,Buy,NORTH_CO_DUBLIN_DUBLIN,http://www.daft.ie/for-sale/apartment-25-holywell-view-swords-co-dublin/3824734
3823441,18848712,"109 Millrace Road, The Phoenix Park Racecourse, Castleknock, Dublin 15",385000.0,81,81 m²,2,2,Apartment,2022-08-10,B3,106513617,125.32 kWh/m2/yr,53.372574,-6.334388,Buy,NORTH_CO_DUBLIN_DUBLIN,http://www.daft.ie/for-sale/apartment-109-millrace-road-the-phoenix-park-racecourse-castleknock-dublin-15/3823441
3821150,18826485,"Apartment 10, Weir House, Richmond Road, Dublin 3",320000.0,79,79 m²,2,2,Apartment,2022-08-08,C1,114857113,171.55 kWh/m2/yr,53.363981,-6.246145,Buy,NORTH_CO_DUBLIN_DUBLIN,http://www.daft.ie/for-sale/apartment-apartment-10-weir-house-richmond-road-dublin-3/3821150
3821168,18826495,"22 Ceol Na Mara, Lower Main Street, Rush, Co. Dublin",240000.0,68,68 m²,2,1,Apartment,2022-07-06,C2,,,53.5229,-6.086613,Buy,NORTH_CO_DUBLIN_DUBLIN,http://www.daft.ie/for-sale/apartment-22-ceol-na-mara-lower-main-street-rush-co-dublin/3821168
3820704,18821633,"27 Cherry Lodge, Castleknock, Dublin 15",1400000.0,230,230 m²,3,3,Apartment,2022-08-10,B2,114158652,115.17 kWh/m2/yr,53.367231,-6.363135,Buy,NORTH_CO_DUBLIN_DUBLIN,http://www.daft.ie/for-sale/apartment-27-cherry-lodge-castleknock-dublin-15/3820704
3818943,18806771,"12 The Pines, French Park, Tyrrelstown, Dublin 15",199950.0,N/A,,2,2,Apartment,2022-06-21,C2,,,53.420448,-6.385903,Buy,NORTH_CO_DUBLIN_DUBLIN,http://www.daft.ie/for-sale/apartment-12-the-pines-french-park-tyrrelstown-dublin-15/3818943
3483428,15838122,"Apartment 51, The Plaza, Ballymun, Dublin 9",220000.0,55,55 m²,2,2,Apartment,2022-08-02,C1,114153786,,53.397081,-6.263404,Buy,NORTH_CO_DUBLIN_DUBLIN,http://www.daft.ie/for-sale/apartment-apartment-51-the-plaza-ballymun-dublin-9/3483428
3811091,18737702,"38 Holywell Park, Swords, Co. Dublin",240000.0,53,53 m²,2,1,Apartment,2022-08-10,B3,114810138,134.48 kWh/m2/yr,53.443875,-6.211844,Buy,NORTH_CO_DUBLIN_DUBLIN,http://www.daft.ie/for-sale/apartment-38-holywell-park-swords-co-dublin/3811091
3810950,18737600,"Apartment 85, Block D, Cedar Square, Swords, Co. Dublin","AMV: €265,000",72,72 m²,2,2,Apartment,2022-08-09,C2,,,53.449151,-6.246668,Buy,NORTH_CO_DUBLIN_DUBLIN,http://www.daft.ie/for-sale/apartment-apartment-85-block-d-cedar-square-swords-co-dublin/3810950
3807514,18717550,"111 Fairview Close, Richmond Avenue, Fairview, Dublin 3",325000.0,72,72 m²,2,2,Apartment,2022-06-21,C2,,,53.363284,-6.241867,Buy,NORTH_CO_DUBLIN_DUBLIN,http://www.daft.ie/for-sale/apartment-111-fairview-close-richmond-avenue-fairview-dublin-3/3807514
3805551,18694832,"Apartment 34, Clearwater Court South, Ashtown, Dublin 15",294950.0,N/A,,2,2,Apartment,2022-06-21,B3,,,53.376885,-6.317448,Buy,NORTH_CO_DUBLIN_DUBLIN,http://www.daft.ie/for-sale/apartment-apartment-34-clearwater-court-south-ashtown-dublin-15/3805551
3800631,18649385,"Apartment 5, Temple Gardens, Northwood, Santry, Dublin 9",350000.0,76,76 m²,3,2,Apartment,2022-08-10,C1,,,53.405344,-6.247649,Buy,NORTH_CO_DUBLIN_DUBLIN,http://www.daft.ie/for-sale/apartment-apartment-5-temple-gardens-northwood-santry-dublin-9/3800631
3799366,18640663,"6 Keane Hall, Collegewood, Castleknock, Dublin 15",340000.0,80,80 m²,2,2,Apartment,2022-08-10,B3,100281526,129.78 kWh/m2/yr,53.371359,-6.368847,Buy,NORTH_CO_DUBLIN_DUBLIN,http://www.daft.ie/for-sale/apartment-6-keane-hall-collegewood-castleknock-dublin-15/3799366
3796568,18615733,"24 The Mills, Edenmore Park, Raheny, Dublin 5",275000.0,76,76 m²,2,2,Apartment,2022-08-10,D1,104453501,,53.388615,-6.179433,Buy,NORTH_CO_DUBLIN_DUBLIN,http://www.daft.ie/for-sale/apartment-24-the-mills-edenmore-park-raheny-dublin-5/3796568
