id,daftShortcode,title,price,size_meters_squared,propertySize,bedrooms,bathrooms,propertyType,publishDate,ber_rating,ber_code,ber_epi,latitude,longitude,category,location,url_link
3969153,19551369,"Tonaphubble Road, Tonaphubble, Sligo, Co. Sligo",195000.0,158,158 m²,3,2,Detached,2022-08-05,G,115049306,459.11 kWh/m2/yr,54.259026,-8.457645,Buy,SLIGO,http://www.daft.ie/for-sale/detached-house-tonaphubble-road-tonaphubble-sligo-co-sligo/3969153
3967311,19535148,"Bartragh, Enniscrone, Co. Sligo",100000.0,N/A,,4,3,Detached,2022-08-05,SI_666,,,54.205608,-9.101278,Buy,SLIGO,http://www.daft.ie/for-sale/detached-house-bartragh-enniscrone-co-sligo/3967311
3966242,19524867,"Rathbaun South, Ballymote, Co. Sligo",350000.0,N/A,,2,,Detached,2022-08-05,G,,,54.032157,-8.588136,Buy,SLIGO,http://www.daft.ie/for-sale/detached-house-rathbaun-south-ballymote-co-sligo/3966242
3963873,19506934,"Roseraie, 2 The Maples, Strandhill, Co. Sligo",400000.0,125,125 m²,4,3,Detached,2022-07-04,C3,115168767,217.12 kWh/m2/yr,54.269963,-8.600249,Buy,SLIGO,http://www.daft.ie/for-sale/detached-house-roseraie-2-the-maples-strandhill-co-sligo/3963873
3960102,19472752,"Mullaghroe, Cloonloo, Boyle, Co. Sligo",170000.0,170,170 m²,3,3,Detached,2022-07-11,D2,115232050,285.2 kWh/m2/yr,53.986509354894764,-8.461197552029915,Buy,SLIGO,http://www.daft.ie/for-sale/detached-house-mullaghroe-cloonloo-boyle-co-sligo/3960102
3957202,19444789,"Carrownrush, Rathlee, Easkey, Co. Sligo",325000.0,N/A,,4,3,Detached,2022-08-09,C1,,,54.289146,-9.019741,Buy,SLIGO,http://www.daft.ie/for-sale/detached-house-carrownrush-rathlee-easkey-co-sligo/3957202
3949222,19413298,"Rose Cottage, Creevykeel, Cliffoney, Co. Sligo",329950.0,N/A,,3,2,Detached,2022-08-09,D1,,,54.431907,-8.42304,Buy,SLIGO,http://www.daft.ie/for-sale/detached-house-rose-cottage-creevykeel-cliffoney-co-sligo/3949222
3946515,19388087,"6 Knockmuldowney Park, Ballisodare, Co. Sligo",450000.0,N/A,,5,3,Detached,2022-06-24,B3,,,54.215261,-8.511213,Buy,SLIGO,http://www.daft.ie/for-sale/detached-house-6-knockmuldowney-park-ballisodare-co-sligo/3946515
3945454,19377103,"Annagh, Riverstown, Co. Sligo",90000.0,N/A,,3,1,Detached,2022-07-25,D2,,,54.091219,-8.354213,Buy,SLIGO,http://www.daft.ie/for-sale/detached-house-annagh-riverstown-co-sligo/3945454
3938718,19312131,"Carrownyclowan, Geevagh, Co. Sligo",90000.0,209,209 m²,4,3,Detached,2022-06-28,SI_666,,,54.138603928275046,-8.271273090244478,Buy,SLIGO,http://www.daft.ie/for-sale/detached-house-carrownyclowan-geevagh-co-sligo/3938718
3938423,19309880,"Carrownadargny, Geevagh, Co. Sligo",55000.0,90,90 m²,3,1,Detached,2022-07-13,G,,,54.117455,-8.27487,Buy,SLIGO,http://www.daft.ie/for-sale/detached-house-carrownadargny-geevagh-co-sligo/3938423
3938227,19308250,"Down Yonder, Rosses Point, Co. Sligo",2400000.0,753,753 m²,9,10,Detached,2022-08-05,B2,115015117,,54.311663,-8.552404,Buy,SLIGO,http://www.daft.ie/for-sale/detached-house-down-yonder-rosses-point-co-sligo/3938227
3937399,19301135,"Down Yonder, Upper Rosses, Rosses Point, Co. Sligo",2400000.0,754,754 m²,9,10,Detached,2022-08-09,B2,115015117,,54.311663,-8.552404,Buy,SLIGO,http://www.daft.ie/for-sale/detached-house-down-yonder-upper-rosses-rosses-point-co-sligo/3937399
3929048,19219030,"Penny Lane, Cliffoney, Co. Sligo",249950.0,96,96 m²,3,2,Detached,2022-08-09,C2,,,54.430731,-8.451206,Buy,SLIGO,http://www.daft.ie/for-sale/detached-house-penny-lane-cliffoney-co-sligo/3929048
3928629,19215201,"Island Road, Monasteraden, Co. Sligo",69000.0,87,87 m²,3,1,Detached,2022-08-10,G,114290364,1334.07 kWh/m2/yr,53.942172,-8.495958,Buy,SLIGO,http://www.daft.ie/for-sale/detached-house-island-road-monasteraden-co-sligo/3928629
3926069,19189914,"Aeolus, Cartron, Strandhill, Co. Sligo",850000.0,335,335 m²,4,3,Detached,2022-08-09,D1,115022972,,54.273638,-8.558548,Buy,SLIGO,http://www.daft.ie/for-sale/detached-house-aeolus-cartron-strandhill-co-sligo/3926069
3925337,19179236,"Aeolus, Cartron, Strandhill, Co. Sligo",850000.0,335,335 m²,4,2,Detached,2022-06-08,D1,115022972,,54.273638,-8.558548,Buy,SLIGO,http://www.daft.ie/for-sale/detached-house-aeolus-cartron-strandhill-co-sligo/3925337
3924385,19171210,"Aeolus, Cartron, Strandhill, Co. Sligo",850000.0,335,335 m²,4,2,Detached,2022-06-23,D1,115022972,241.73 kWh/m2/yr,54.273638,-8.558548,Buy,SLIGO,http://www.daft.ie/for-sale/detached-house-aeolus-cartron-strandhill-co-sligo/3924385
3921801,19153121,"Lahardan, Riverstown, Co. Sligo",169000.0,79,79 m²,3,2,Detached,2022-06-20,F,108731217,,54.091206,-8.321596,Buy,SLIGO,http://www.daft.ie/for-sale/detached-house-lahardan-riverstown-co-sligo/3921801
3920940,19144629,"17 Highfield Road, Sligo, Co. Sligo",350000.0,N/A,,3,2,Detached,2022-08-05,C3,,,54.258991,-8.469406,Buy,SLIGO,http://www.daft.ie/for-sale/detached-house-17-highfield-road-sligo-co-sligo/3920940
3921151,19147479,"Drum Road, Rathcormac, Co. Sligo",159000.0,82,82 m²,4,1,Detached,2022-07-05,G,113828818,,54.312893,-8.463704,Buy,SLIGO,http://www.daft.ie/for-sale/detached-house-drum-road-rathcormac-co-sligo/3921151
3920501,19141314,"Cline Lodge, Charlestown Road, Tubbercurry, Co. Sligo",240000.0,181,181 m²,6,3,Detached,2022-08-10,E1,115001901,,54.05032,-8.7342676,Buy,SLIGO,http://www.daft.ie/for-sale/detached-house-cline-lodge-charlestown-road-tubbercurry-co-sligo/3920501
3917062,19107123,"Banada, Tourlestrane, Co. Sligo",55000.0,N/A,,3,1,Detached,2022-08-05,G,,,54.039257,-8.835817,Buy,SLIGO,http://www.daft.ie/for-sale/detached-house-banada-tourlestrane-co-sligo/3917062
3917023,19107102,"Coolteen, Lackagh, Drumfin, Co. Sligo",65000.0,N/A,,2,,Detached,2022-08-05,SI_666,,,54.1400787280445,-8.468957331346843,Buy,SLIGO,http://www.daft.ie/for-sale/detached-house-coolteen-lackagh-drumfin-co-sligo/3917023
3903396,18984431,"Cloonlurg, Riverstown, Co. Sligo",140000.0,N/A,,3,1,Detached,2022-08-05,G,,,54.112956,-8.442562,Buy,SLIGO,http://www.daft.ie/for-sale/detached-house-cloonlurg-riverstown-co-sligo/3903396
3910459,19053573,"Mistymorn, Keash, Ballymote, Co. Sligo",90000.0,N/A,,,,Detached,2022-08-10,G,,,54.046288,-8.432141,Buy,SLIGO,http://www.daft.ie/for-sale/detached-house-mistymorn-keash-ballymote-co-sligo/3910459
3910090,19049025,"Cloonloo, Cloonloogh, Co. Sligo",90000.0,51,51 m²,2,1,Detached,2022-08-10,G,115000598,,53.967305981508,-8.3979406930542,Buy,SLIGO,http://www.daft.ie/for-sale/detached-house-cloonloo-cloonloogh-co-sligo/3910090
3908930,19035606,"Clogher, Monasteraden, Co. Sligo",140000.0,N/A,,3,2,Detached,2022-05-26,SI_666,,,53.952536,-8.521845,Buy,SLIGO,http://www.daft.ie/for-sale/detached-house-clogher-monasteraden-co-sligo/3908930
3906452,19017662,"Castletown Arms, Castletown, Easkey, Co. Sligo",130000.0,220,220 m²,3,1,Detached,2022-08-08,G,,,54.28670398655896,-8.997882619096487,Buy,SLIGO,http://www.daft.ie/for-sale/detached-house-castletown-arms-castletown-easkey-co-sligo/3906452
3903801,18989809,"Cabragh, Rathlee, Easkey, Co. Sligo",120000.0,87,87 m²,3,1,Detached,2022-08-04,SI_666,,,54.26019794059101,-9.030794292060506,Buy,SLIGO,http://www.daft.ie/for-sale/detached-house-cabragh-rathlee-easkey-co-sligo/3903801
3892009,18880421,"Battlefield, Culfadda, Co. Sligo",65000.0,N/A,,3,1,Detached,2022-06-20,G,,,54.02335029769989,-8.44400107233102,Buy,SLIGO,http://www.daft.ie/for-sale/detached-house-battlefield-culfadda-co-sligo/3892009
3824491,18856960,"11 Steeple View, Collooney, Co. Sligo",240000.0,N/A,,4,3,Detached,2022-07-06,C3,,,54.184273,-8.489177,Buy,SLIGO,http://www.daft.ie/for-sale/detached-house-11-steeple-view-collooney-co-sligo/3824491
3822639,18842748,"36 Crozon Crescent, Sligo, Co. Sligo",350000.0,188,188 m²,4,2,Detached,2022-06-15,D2,109371526,264.0 kWh/m2/yr,54.261514,-8.474085,Buy,SLIGO,http://www.daft.ie/for-sale/detached-house-36-crozon-crescent-sligo-co-sligo/3822639
3783284,18506257,"Griddle, Culleens, Co. Sligo",220000.0,N/A,,3,1,Detached,2022-08-09,D2,,,54.191303,-8.963176,Buy,SLIGO,http://www.daft.ie/for-sale/detached-house-griddle-culleens-co-sligo/3783284
3807838,18721379,"Drumdiveen, Killavil, Ballymote, Co. Sligo",60000.0,N/A,,2,,Detached,2022-08-05,SI_666,,,54.04700940408995,-8.541663390844832,Buy,SLIGO,http://www.daft.ie/for-sale/detached-house-drumdiveen-killavil-ballymote-co-sligo/3807838
3806983,18712386,"29 The Lodge, Castledargan, Ballygawley, Co. Sligo",350000.0,165,165 m²,4,3,Detached,2022-08-09,C2,,,54.194964,-8.436529,Buy,SLIGO,http://www.daft.ie/for-sale/detached-house-29-the-lodge-castledargan-ballygawley-co-sligo/3806983
3792960,18586543,"DOONMEEGIN, Ballymote, Co. Sligo",150000.0,166,166 m²,4,3,Detached,2022-06-30,SI_666,,,54.08924225997933,-8.444607337176905,Buy,SLIGO,http://www.daft.ie/for-sale/detached-house-doonmeegin-ballymote-co-sligo/3792960
3791347,18578190,"null, Dromore West, Co. Sligo",220000.0,N/A,,1,,Detached,2022-04-15,G,,,54.247976,-8.893139,Buy,SLIGO,http://www.daft.ie/for-sale/detached-house-null-dromore-west-co-sligo/3791347
3790640,18572915,"Killaspugbrone, Strandhill, Co. Sligo",495000.0,193,193 m²,6,3,Detached,2022-08-05,E1,114671282,314.53 kWh/m2/yr,54.269293,-8.594244,Buy,SLIGO,http://www.daft.ie/for-sale/detached-house-killaspugbrone-strandhill-co-sligo/3790640
3790558,18570950,"Kildonagh House, Ballincar, Rosses Point, Co. Sligo",695000.0,374,374 m²,8,8,Detached,2022-08-05,D1,111982534,268.57 kWh/m2/yr,54.297103,-8.503573,Buy,SLIGO,http://www.daft.ie/for-sale/detached-house-kildonagh-house-ballincar-rosses-point-co-sligo/3790558
3788854,18556738,"Moygara, Gurteen, Co. Sligo",75000.0,120,120 m²,3,2,Detached,2022-06-20,G,,,53.969385,-8.47249,Buy,SLIGO,http://www.daft.ie/for-sale/detached-house-moygara-gurteen-co-sligo/3788854
3781932,18491531,"Ard Aras, Tonaphubble, Sligo, Co. Sligo",300000.0,N/A,,3,2,Detached,2022-06-10,E2,114600927,349.59 kWh/m2/yr,54.258469,-8.453435,Buy,SLIGO,http://www.daft.ie/for-sale/detached-house-ard-aras-tonaphubble-sligo-co-sligo/3781932
3734968,18091353,"Killerry, Ballintogher, Co. Sligo",450000.0,72,72 m²,3,1,Detached,2022-03-30,F,,,54.22299,-8.366555,Buy,SLIGO,http://www.daft.ie/for-sale/detached-house-killerry-ballintogher-co-sligo/3734968
3757376,18290319,"Cloonagh, Sooey, Co. Sligo",85000.0,51,51 m²,1,1,Detached,2022-08-10,G,103151270,706.38 kWh/m2/yr,54.166268,-8.365628,Buy,SLIGO,http://www.daft.ie/for-sale/detached-house-cloonagh-sooey-co-sligo/3757376
3717183,17931704,"Ballincurry, Curry, Co. Sligo",199000.0,N/A,,3,1,Detached,2022-08-10,D1,,,54.014946,-8.723902,Buy,SLIGO,http://www.daft.ie/for-sale/detached-house-ballincurry-curry-co-sligo/3717183
3685197,17671122,"Molly's Cottage, Dromore West, Co. Sligo",200000.0,100,100 m²,3,1,Detached,2022-06-23,,,,54.241464376221806,-8.88551875948906,Buy,SLIGO,http://www.daft.ie/for-sale/detached-house-mollys-cottage-dromore-west-co-sligo/3685197
3680358,17632539,"Carrowcarden, Enniscrone, Co. Sligo",360000.0,N/A,,3,2,Detached,2022-08-09,C3,,,54.199927,-9.101332,Buy,SLIGO,http://www.daft.ie/for-sale/detached-house-carrowcarden-enniscrone-co-sligo/3680358
3627410,17043697,"Masreagh, Skreen, Co. Sligo",179000.0,114,114 m²,3,1,Detached,2022-08-10,G,113771844,645.2 kWh/m2/yr,54.252659,-8.716387,Buy,SLIGO,http://www.daft.ie/for-sale/detached-house-masreagh-skreen-co-sligo/3627410
3640560,17143934,"Ballincar, Rosses Point, Co. Sligo",469000.0,260,260 m²,6,4,Detached,2022-06-10,C2,114506553,176.65 kWh/m2/yr,54.30074,-8.512468,Buy,SLIGO,http://www.daft.ie/for-sale/detached-house-ballincar-rosses-point-co-sligo/3640560
3555668,16274817,"Drumcliffe South, Drumcliff, Co. Sligo",480000.0,151,151 m²,4,1,Detached,2022-04-08,C3,109019828,,54.321662,-8.491613,Buy,SLIGO,http://www.daft.ie/for-sale/detached-house-drumcliffe-south-drumcliff-co-sligo/3555668
3969153,19551369,"Tonaphubble Road, Tonaphubble, Sligo, Co. Sligo",195000.0,158,158 m²,3,2,Detached,2022-08-05,G,115049306,459.11 kWh/m2/yr,54.259026,-8.457645,Buy,SLIGO,http://www.daft.ie/for-sale/detached-house-tonaphubble-road-tonaphubble-sligo-co-sligo/3969153
3967311,19535148,"Bartragh, Enniscrone, Co. Sligo",100000.0,N/A,,4,3,Detached,2022-08-05,SI_666,,,54.205608,-9.101278,Buy,SLIGO,http://www.daft.ie/for-sale/detached-house-bartragh-enniscrone-co-sligo/3967311
3966242,19524867,"Rathbaun South, Ballymote, Co. Sligo",350000.0,N/A,,2,,Detached,2022-08-05,G,,,54.032157,-8.588136,Buy,SLIGO,http://www.daft.ie/for-sale/detached-house-rathbaun-south-ballymote-co-sligo/3966242
3963873,19506934,"Roseraie, 2 The Maples, Strandhill, Co. Sligo",400000.0,125,125 m²,4,3,Detached,2022-07-04,C3,115168767,217.12 kWh/m2/yr,54.269963,-8.600249,Buy,SLIGO,http://www.daft.ie/for-sale/detached-house-roseraie-2-the-maples-strandhill-co-sligo/3963873
3960102,19472752,"Mullaghroe, Cloonloo, Boyle, Co. Sligo",170000.0,170,170 m²,3,3,Detached,2022-07-11,D2,115232050,285.2 kWh/m2/yr,53.986509354894764,-8.461197552029915,Buy,SLIGO,http://www.daft.ie/for-sale/detached-house-mullaghroe-cloonloo-boyle-co-sligo/3960102
3957202,19444789,"Carrownrush, Rathlee, Easkey, Co. Sligo",325000.0,N/A,,4,3,Detached,2022-08-09,C1,,,54.289146,-9.019741,Buy,SLIGO,http://www.daft.ie/for-sale/detached-house-carrownrush-rathlee-easkey-co-sligo/3957202
3949222,19413298,"Rose Cottage, Creevykeel, Cliffoney, Co. Sligo",329950.0,N/A,,3,2,Detached,2022-08-09,D1,,,54.431907,-8.42304,Buy,SLIGO,http://www.daft.ie/for-sale/detached-house-rose-cottage-creevykeel-cliffoney-co-sligo/3949222
3946515,19388087,"6 Knockmuldowney Park, Ballisodare, Co. Sligo",450000.0,N/A,,5,3,Detached,2022-06-24,B3,,,54.215261,-8.511213,Buy,SLIGO,http://www.daft.ie/for-sale/detached-house-6-knockmuldowney-park-ballisodare-co-sligo/3946515
3945454,19377103,"Annagh, Riverstown, Co. Sligo",90000.0,N/A,,3,1,Detached,2022-07-25,D2,,,54.091219,-8.354213,Buy,SLIGO,http://www.daft.ie/for-sale/detached-house-annagh-riverstown-co-sligo/3945454
3938718,19312131,"Carrownyclowan, Geevagh, Co. Sligo",90000.0,209,209 m²,4,3,Detached,2022-06-28,SI_666,,,54.138603928275046,-8.271273090244478,Buy,SLIGO,http://www.daft.ie/for-sale/detached-house-carrownyclowan-geevagh-co-sligo/3938718
3938423,19309880,"Carrownadargny, Geevagh, Co. Sligo",55000.0,90,90 m²,3,1,Detached,2022-07-13,G,,,54.117455,-8.27487,Buy,SLIGO,http://www.daft.ie/for-sale/detached-house-carrownadargny-geevagh-co-sligo/3938423
3938227,19308250,"Down Yonder, Rosses Point, Co. Sligo",2400000.0,753,753 m²,9,10,Detached,2022-08-05,B2,115015117,,54.311663,-8.552404,Buy,SLIGO,http://www.daft.ie/for-sale/detached-house-down-yonder-rosses-point-co-sligo/3938227
3937399,19301135,"Down Yonder, Upper Rosses, Rosses Point, Co. Sligo",2400000.0,754,754 m²,9,10,Detached,2022-08-09,B2,115015117,,54.311663,-8.552404,Buy,SLIGO,http://www.daft.ie/for-sale/detached-house-down-yonder-upper-rosses-rosses-point-co-sligo/3937399
3929048,19219030,"Penny Lane, Cliffoney, Co. Sligo",249950.0,96,96 m²,3,2,Detached,2022-08-09,C2,,,54.430731,-8.451206,Buy,SLIGO,http://www.daft.ie/for-sale/detached-house-penny-lane-cliffoney-co-sligo/3929048
3928629,19215201,"Island Road, Monasteraden, Co. Sligo",69000.0,87,87 m²,3,1,Detached,2022-08-10,G,114290364,1334.07 kWh/m2/yr,53.942172,-8.495958,Buy,SLIGO,http://www.daft.ie/for-sale/detached-house-island-road-monasteraden-co-sligo/3928629
3926069,19189914,"Aeolus, Cartron, Strandhill, Co. Sligo",850000.0,335,335 m²,4,3,Detached,2022-08-09,D1,115022972,,54.273638,-8.558548,Buy,SLIGO,http://www.daft.ie/for-sale/detached-house-aeolus-cartron-strandhill-co-sligo/3926069
3925337,19179236,"Aeolus, Cartron, Strandhill, Co. Sligo",850000.0,335,335 m²,4,2,Detached,2022-06-08,D1,115022972,,54.273638,-8.558548,Buy,SLIGO,http://www.daft.ie/for-sale/detached-house-aeolus-cartron-strandhill-co-sligo/3925337
3924385,19171210,"Aeolus, Cartron, Strandhill, Co. Sligo",850000.0,335,335 m²,4,2,Detached,2022-06-23,D1,115022972,241.73 kWh/m2/yr,54.273638,-8.558548,Buy,SLIGO,http://www.daft.ie/for-sale/detached-house-aeolus-cartron-strandhill-co-sligo/3924385
3921801,19153121,"Lahardan, Riverstown, Co. Sligo",169000.0,79,79 m²,3,2,Detached,2022-06-20,F,108731217,,54.091206,-8.321596,Buy,SLIGO,http://www.daft.ie/for-sale/detached-house-lahardan-riverstown-co-sligo/3921801
3920940,19144629,"17 Highfield Road, Sligo, Co. Sligo",350000.0,N/A,,3,2,Detached,2022-08-05,C3,,,54.258991,-8.469406,Buy,SLIGO,http://www.daft.ie/for-sale/detached-house-17-highfield-road-sligo-co-sligo/3920940
3921151,19147479,"Drum Road, Rathcormac, Co. Sligo",159000.0,82,82 m²,4,1,Detached,2022-07-05,G,113828818,,54.312893,-8.463704,Buy,SLIGO,http://www.daft.ie/for-sale/detached-house-drum-road-rathcormac-co-sligo/3921151
3920501,19141314,"Cline Lodge, Charlestown Road, Tubbercurry, Co. Sligo",240000.0,181,181 m²,6,3,Detached,2022-08-10,E1,115001901,,54.05032,-8.7342676,Buy,SLIGO,http://www.daft.ie/for-sale/detached-house-cline-lodge-charlestown-road-tubbercurry-co-sligo/3920501
3917062,19107123,"Banada, Tourlestrane, Co. Sligo",55000.0,N/A,,3,1,Detached,2022-08-05,G,,,54.039257,-8.835817,Buy,SLIGO,http://www.daft.ie/for-sale/detached-house-banada-tourlestrane-co-sligo/3917062
3917023,19107102,"Coolteen, Lackagh, Drumfin, Co. Sligo",65000.0,N/A,,2,,Detached,2022-08-05,SI_666,,,54.1400787280445,-8.468957331346843,Buy,SLIGO,http://www.daft.ie/for-sale/detached-house-coolteen-lackagh-drumfin-co-sligo/3917023
3903396,18984431,"Cloonlurg, Riverstown, Co. Sligo",140000.0,N/A,,3,1,Detached,2022-08-05,G,,,54.112956,-8.442562,Buy,SLIGO,http://www.daft.ie/for-sale/detached-house-cloonlurg-riverstown-co-sligo/3903396
3910459,19053573,"Mistymorn, Keash, Ballymote, Co. Sligo",90000.0,N/A,,,,Detached,2022-08-10,G,,,54.046288,-8.432141,Buy,SLIGO,http://www.daft.ie/for-sale/detached-house-mistymorn-keash-ballymote-co-sligo/3910459
3910090,19049025,"Cloonloo, Cloonloogh, Co. Sligo",90000.0,51,51 m²,2,1,Detached,2022-08-10,G,115000598,,53.967305981508,-8.3979406930542,Buy,SLIGO,http://www.daft.ie/for-sale/detached-house-cloonloo-cloonloogh-co-sligo/3910090
3908930,19035606,"Clogher, Monasteraden, Co. Sligo",140000.0,N/A,,3,2,Detached,2022-05-26,SI_666,,,53.952536,-8.521845,Buy,SLIGO,http://www.daft.ie/for-sale/detached-house-clogher-monasteraden-co-sligo/3908930
3906452,19017662,"Castletown Arms, Castletown, Easkey, Co. Sligo",130000.0,220,220 m²,3,1,Detached,2022-08-08,G,,,54.28670398655896,-8.997882619096487,Buy,SLIGO,http://www.daft.ie/for-sale/detached-house-castletown-arms-castletown-easkey-co-sligo/3906452
3903801,18989809,"Cabragh, Rathlee, Easkey, Co. Sligo",120000.0,87,87 m²,3,1,Detached,2022-08-04,SI_666,,,54.26019794059101,-9.030794292060506,Buy,SLIGO,http://www.daft.ie/for-sale/detached-house-cabragh-rathlee-easkey-co-sligo/3903801
3892009,18880421,"Battlefield, Culfadda, Co. Sligo",65000.0,N/A,,3,1,Detached,2022-06-20,G,,,54.02335029769989,-8.44400107233102,Buy,SLIGO,http://www.daft.ie/for-sale/detached-house-battlefield-culfadda-co-sligo/3892009
3824491,18856960,"11 Steeple View, Collooney, Co. Sligo",240000.0,N/A,,4,3,Detached,2022-07-06,C3,,,54.184273,-8.489177,Buy,SLIGO,http://www.daft.ie/for-sale/detached-house-11-steeple-view-collooney-co-sligo/3824491
3822639,18842748,"36 Crozon Crescent, Sligo, Co. Sligo",350000.0,188,188 m²,4,2,Detached,2022-06-15,D2,109371526,264.0 kWh/m2/yr,54.261514,-8.474085,Buy,SLIGO,http://www.daft.ie/for-sale/detached-house-36-crozon-crescent-sligo-co-sligo/3822639
3783284,18506257,"Griddle, Culleens, Co. Sligo",220000.0,N/A,,3,1,Detached,2022-08-09,D2,,,54.191303,-8.963176,Buy,SLIGO,http://www.daft.ie/for-sale/detached-house-griddle-culleens-co-sligo/3783284
3807838,18721379,"Drumdiveen, Killavil, Ballymote, Co. Sligo",60000.0,N/A,,2,,Detached,2022-08-05,SI_666,,,54.04700940408995,-8.541663390844832,Buy,SLIGO,http://www.daft.ie/for-sale/detached-house-drumdiveen-killavil-ballymote-co-sligo/3807838
3806983,18712386,"29 The Lodge, Castledargan, Ballygawley, Co. Sligo",350000.0,165,165 m²,4,3,Detached,2022-08-09,C2,,,54.194964,-8.436529,Buy,SLIGO,http://www.daft.ie/for-sale/detached-house-29-the-lodge-castledargan-ballygawley-co-sligo/3806983
3792960,18586543,"DOONMEEGIN, Ballymote, Co. Sligo",150000.0,166,166 m²,4,3,Detached,2022-06-30,SI_666,,,54.08924225997933,-8.444607337176905,Buy,SLIGO,http://www.daft.ie/for-sale/detached-house-doonmeegin-ballymote-co-sligo/3792960
3791347,18578190,"null, Dromore West, Co. Sligo",220000.0,N/A,,1,,Detached,2022-04-15,G,,,54.247976,-8.893139,Buy,SLIGO,http://www.daft.ie/for-sale/detached-house-null-dromore-west-co-sligo/3791347
3790640,18572915,"Killaspugbrone, Strandhill, Co. Sligo",495000.0,193,193 m²,6,3,Detached,2022-08-05,E1,114671282,314.53 kWh/m2/yr,54.269293,-8.594244,Buy,SLIGO,http://www.daft.ie/for-sale/detached-house-killaspugbrone-strandhill-co-sligo/3790640
3790558,18570950,"Kildonagh House, Ballincar, Rosses Point, Co. Sligo",695000.0,374,374 m²,8,8,Detached,2022-08-05,D1,111982534,268.57 kWh/m2/yr,54.297103,-8.503573,Buy,SLIGO,http://www.daft.ie/for-sale/detached-house-kildonagh-house-ballincar-rosses-point-co-sligo/3790558
3788854,18556738,"Moygara, Gurteen, Co. Sligo",75000.0,120,120 m²,3,2,Detached,2022-06-20,G,,,53.969385,-8.47249,Buy,SLIGO,http://www.daft.ie/for-sale/detached-house-moygara-gurteen-co-sligo/3788854
3781932,18491531,"Ard Aras, Tonaphubble, Sligo, Co. Sligo",300000.0,N/A,,3,2,Detached,2022-06-10,E2,114600927,349.59 kWh/m2/yr,54.258469,-8.453435,Buy,SLIGO,http://www.daft.ie/for-sale/detached-house-ard-aras-tonaphubble-sligo-co-sligo/3781932
3734968,18091353,"Killerry, Ballintogher, Co. Sligo",450000.0,72,72 m²,3,1,Detached,2022-03-30,F,,,54.22299,-8.366555,Buy,SLIGO,http://www.daft.ie/for-sale/detached-house-killerry-ballintogher-co-sligo/3734968
3757376,18290319,"Cloonagh, Sooey, Co. Sligo",85000.0,51,51 m²,1,1,Detached,2022-08-10,G,103151270,706.38 kWh/m2/yr,54.166268,-8.365628,Buy,SLIGO,http://www.daft.ie/for-sale/detached-house-cloonagh-sooey-co-sligo/3757376
3717183,17931704,"Ballincurry, Curry, Co. Sligo",199000.0,N/A,,3,1,Detached,2022-08-10,D1,,,54.014946,-8.723902,Buy,SLIGO,http://www.daft.ie/for-sale/detached-house-ballincurry-curry-co-sligo/3717183
3685197,17671122,"Molly's Cottage, Dromore West, Co. Sligo",200000.0,100,100 m²,3,1,Detached,2022-06-23,,,,54.241464376221806,-8.88551875948906,Buy,SLIGO,http://www.daft.ie/for-sale/detached-house-mollys-cottage-dromore-west-co-sligo/3685197
3680358,17632539,"Carrowcarden, Enniscrone, Co. Sligo",360000.0,N/A,,3,2,Detached,2022-08-09,C3,,,54.199927,-9.101332,Buy,SLIGO,http://www.daft.ie/for-sale/detached-house-carrowcarden-enniscrone-co-sligo/3680358
3627410,17043697,"Masreagh, Skreen, Co. Sligo",179000.0,114,114 m²,3,1,Detached,2022-08-10,G,113771844,645.2 kWh/m2/yr,54.252659,-8.716387,Buy,SLIGO,http://www.daft.ie/for-sale/detached-house-masreagh-skreen-co-sligo/3627410
3640560,17143934,"Ballincar, Rosses Point, Co. Sligo",469000.0,260,260 m²,6,4,Detached,2022-06-10,C2,114506553,176.65 kWh/m2/yr,54.30074,-8.512468,Buy,SLIGO,http://www.daft.ie/for-sale/detached-house-ballincar-rosses-point-co-sligo/3640560
3555668,16274817,"Drumcliffe South, Drumcliff, Co. Sligo",480000.0,151,151 m²,4,1,Detached,2022-04-08,C3,109019828,,54.321662,-8.491613,Buy,SLIGO,http://www.daft.ie/for-sale/detached-house-drumcliffe-south-drumcliff-co-sligo/3555668
3556548,16286802,"Achonry, Tubbercurry, Co. Sligo",40000.0,90,90 m²,2,,Detached,2022-08-10,,,,54.064256,-8.679656,Buy,SLIGO,http://www.daft.ie/for-sale/detached-house-achonry-tubbercurry-co-sligo/3556548
3537554,16175943,"Bellarush, Castlebaldwin, Co. Sligo",Price on Application,N/A,,3,1,Detached,2022-08-05,F,,,54.091014,-8.361318,Buy,SLIGO,http://www.daft.ie/for-sale/detached-house-bellarush-castlebaldwin-co-sligo/3537554
3535459,16166464,"Greyfield, Culfadda, Culfadda, Co. Sligo",170000.0,104,104 m²,4,1,Detached,2022-06-20,D2,,,54.026056,-8.492573,Buy,SLIGO,http://www.daft.ie/for-sale/detached-house-greyfield-culfadda-culfadda-co-sligo/3535459
3527692,16131150,"Seafields Kileenduff Easkey, Easkey, Co. Sligo",1650000.0,492,492 m²,7,6,Detached,2022-07-17,SI_666,,,54.283864747630616,-8.943022107768002,Buy,SLIGO,http://www.daft.ie/for-sale/detached-house-seafields-kileenduff-easkey-easkey-co-sligo/3527692
3474432,15757218,"Kiltycahill, Sligo, Co. Sligo",699000.0,300,300 m²,4,4,Detached,2022-08-10,B3,,,54.272705,-8.410702,Buy,SLIGO,http://www.daft.ie/for-sale/detached-house-kiltycahill-sligo-co-sligo/3474432
2927759,13884257,"Killoran South, Lavagh, Coolaney, Co. Sligo",Price on Application,N/A,,1,1,Detached,2021-06-18,G,,,54.128454,-8.654318,Buy,SLIGO,http://www.daft.ie/for-sale/detached-house-killoran-south-lavagh-coolaney-co-sligo/2927759
3969547,19555241,"No. 40 Sraid na Mara, Strandhill Road, Sligo, Co. Sligo",379000.0,140,140 m²,4,3,Detached,2022-07-25,C3,,,54.272917,-8.499542,Buy,SLIGO,http://www.daft.ie/for-sale/detached-house-no-40-sraid-na-mara-strandhill-road-sligo-co-sligo/3969547
3969153,19551369,"Tonaphubble Road, Tonaphubble, Sligo, Co. Sligo",195000.0,158,158 m²,3,2,Detached,2022-08-05,G,115049306,459.11 kWh/m2/yr,54.259026,-8.457645,Buy,SLIGO,http://www.daft.ie/for-sale/detached-house-tonaphubble-road-tonaphubble-sligo-co-sligo/3969153
3968836,19548180,"Boyle Road, Gurteen, Co. Sligo",125000.0,N/A,,3,1,Semi-D,2022-07-15,F,,,53.992186,-8.513337,Buy,SLIGO,http://www.daft.ie/for-sale/semi-detached-house-boyle-road-gurteen-co-sligo/3968836
3967311,19535148,"Bartragh, Enniscrone, Co. Sligo",100000.0,N/A,,4,3,Detached,2022-08-05,SI_666,,,54.205608,-9.101278,Buy,SLIGO,http://www.daft.ie/for-sale/detached-house-bartragh-enniscrone-co-sligo/3967311
3966242,19524867,"Rathbaun South, Ballymote, Co. Sligo",350000.0,N/A,,2,,Detached,2022-08-05,G,,,54.032157,-8.588136,Buy,SLIGO,http://www.daft.ie/for-sale/detached-house-rathbaun-south-ballymote-co-sligo/3966242
3966161,19523508,"16 Teeling Grove , Tubbercurry, Co. Sligo",205000.0,124,124 m²,4,3,Semi-D,2022-07-05,C1,115194987,,54.050516570573194,-8.730409943048693,Buy,SLIGO,http://www.daft.ie/for-sale/semi-detached-house-16-teeling-grove-tubbercurry-co-sligo/3966161
3965486,19518676,"Quay St, Sligo, Co. Sligo",300000.0,160,160 m²,1,1,Terrace,2022-07-12,SI_666,,,54.27257444074266,-8.47643294798877,Buy,SLIGO,http://www.daft.ie/for-sale/terraced-house-quay-st-sligo-co-sligo/3965486
3965385,19517408,"Tiratick, Ballintogher, Co. Sligo",100000.0,170,170 m²,1,1,Terrace,2022-07-05,SI_666,,,54.200449,-8.365405,Buy,SLIGO,http://www.daft.ie/for-sale/terraced-house-tiratick-ballintogher-co-sligo/3965385
3963873,19506934,"Roseraie, 2 The Maples, Strandhill, Co. Sligo",400000.0,125,125 m²,4,3,Detached,2022-07-04,C3,115168767,217.12 kWh/m2/yr,54.269963,-8.600249,Buy,SLIGO,http://www.daft.ie/for-sale/detached-house-roseraie-2-the-maples-strandhill-co-sligo/3963873
3962274,19495503,"30 Saint Edwards Terrace, Sligo, Co. Sligo",139000.0,70,70 m²,3,1,End of Terrace,2022-08-08,G,108060963,731.3 kWh/m2/yr,54.276007,-8.472677,Buy,SLIGO,http://www.daft.ie/for-sale/end-of-terrace-house-30-saint-edwards-terrace-sligo-co-sligo/3962274
3961293,19483403,"22 Clara Court, Farmhill, Sligo, Co. Sligo",225000.0,110,110 m²,3,3,Terrace,2022-08-10,C1,114384811,173.04 kWh/m2/yr,54.272113,-8.496495,Buy,SLIGO,http://www.daft.ie/for-sale/terraced-house-22-clara-court-farmhill-sligo-co-sligo/3961293
3960102,19472752,"Mullaghroe, Cloonloo, Boyle, Co. Sligo",170000.0,170,170 m²,3,3,Detached,2022-07-11,D2,115232050,285.2 kWh/m2/yr,53.986509354894764,-8.461197552029915,Buy,SLIGO,http://www.daft.ie/for-sale/detached-house-mullaghroe-cloonloo-boyle-co-sligo/3960102
3958964,19460009,"St Josephs Terrace, Sligo, Co. Sligo",85000.0,N/A,,,,Semi-D,2022-08-09,G,,655.05 kWh/m2/yr,54.265675,-8.473661,Buy,SLIGO,http://www.daft.ie/for-sale/semi-detached-house-st-josephs-terrace-sligo-co-sligo/3958964
3958735,19458893,"11 Saint Anne's Terrace, Sligo, Co. Sligo",165000.0,104,104 m²,4,1,Terrace,2022-08-05,E2,112608245,349.57 kWh/m2/yr,54.269761,-8.467237,Buy,SLIGO,http://www.daft.ie/for-sale/terraced-house-11-saint-annes-terrace-sligo-co-sligo/3958735
3957202,19444789,"Carrownrush, Rathlee, Easkey, Co. Sligo",325000.0,N/A,,4,3,Detached,2022-08-09,C1,,,54.289146,-9.019741,Buy,SLIGO,http://www.daft.ie/for-sale/detached-house-carrownrush-rathlee-easkey-co-sligo/3957202
3949874,19422104,"185 River Road, Cartron, Sligo, Co. Sligo",175000.0,91,91 m²,3,1,Semi-D,2022-08-05,D2,102473667,287.05 kWh/m2/yr,54.280616,-8.485337,Buy,SLIGO,http://www.daft.ie/for-sale/semi-detached-house-185-river-road-cartron-sligo-co-sligo/3949874
3949222,19413298,"Rose Cottage, Creevykeel, Cliffoney, Co. Sligo",329950.0,N/A,,3,2,Detached,2022-08-09,D1,,,54.431907,-8.42304,Buy,SLIGO,http://www.daft.ie/for-sale/detached-house-rose-cottage-creevykeel-cliffoney-co-sligo/3949222
3947547,19399523,"41 Springfield, Sligo, Co. Sligo",210000.0,80,80 m²,2,2,Semi-D,2022-08-05,E1,106283070,360.39 kWh/m2/yr,54.305375,-8.47372,Buy,SLIGO,http://www.daft.ie/for-sale/semi-detached-house-41-springfield-sligo-co-sligo/3947547
3946515,19388087,"6 Knockmuldowney Park, Ballisodare, Co. Sligo",450000.0,N/A,,5,3,Detached,2022-06-24,B3,,,54.215261,-8.511213,Buy,SLIGO,http://www.daft.ie/for-sale/detached-house-6-knockmuldowney-park-ballisodare-co-sligo/3946515
3946070,19381151,"Bramley, 1 Saint Kevin's Avenue, Sligo, Co. Sligo",565000.0,142,142 m²,5,2,Semi-D,2022-08-05,B3,100970987,131.75 kWh/m2/yr,54.271897,-8.499115,Buy,SLIGO,http://www.daft.ie/for-sale/semi-detached-house-bramley-1-saint-kevins-avenue-sligo-co-sligo/3946070
3945454,19377103,"Annagh, Riverstown, Co. Sligo",90000.0,N/A,,3,1,Detached,2022-07-25,D2,,,54.091219,-8.354213,Buy,SLIGO,http://www.daft.ie/for-sale/detached-house-annagh-riverstown-co-sligo/3945454
3945009,19373319,"9 Sandycove, Strandhill, Co. Sligo",420000.0,95,95 m²,3,3,Semi-D,2022-08-10,C2,109948240,195.97 kWh/m2/yr,54.272631,-8.580361,Buy,SLIGO,http://www.daft.ie/for-sale/semi-detached-house-9-sandycove-strandhill-co-sligo/3945009
3940096,19323227,"20 Knoxville Manor, Bellaghy, Co. Sligo",160000.0,120,120 m²,3,3,Semi-D,2022-07-19,C2,114873854,,53.968208,-8.798614,Buy,SLIGO,http://www.daft.ie/for-sale/semi-detached-house-20-knoxville-manor-bellaghy-co-sligo/3940096
3938718,19312131,"Carrownyclowan, Geevagh, Co. Sligo",90000.0,209,209 m²,4,3,Detached,2022-06-28,SI_666,,,54.138603928275046,-8.271273090244478,Buy,SLIGO,http://www.daft.ie/for-sale/detached-house-carrownyclowan-geevagh-co-sligo/3938718
3938423,19309880,"Carrownadargny, Geevagh, Co. Sligo",55000.0,90,90 m²,3,1,Detached,2022-07-13,G,,,54.117455,-8.27487,Buy,SLIGO,http://www.daft.ie/for-sale/detached-house-carrownadargny-geevagh-co-sligo/3938423
3938227,19308250,"Down Yonder, Rosses Point, Co. Sligo",2400000.0,753,753 m²,9,10,Detached,2022-08-05,B2,115015117,,54.311663,-8.552404,Buy,SLIGO,http://www.daft.ie/for-sale/detached-house-down-yonder-rosses-point-co-sligo/3938227
3937399,19301135,"Down Yonder, Upper Rosses, Rosses Point, Co. Sligo",2400000.0,754,754 m²,9,10,Detached,2022-08-09,B2,115015117,,54.311663,-8.552404,Buy,SLIGO,http://www.daft.ie/for-sale/detached-house-down-yonder-upper-rosses-rosses-point-co-sligo/3937399
3934459,19270553,"22 Yeats Heights, Ballinode, Co. Sligo",225000.0,121,121 m²,5,2,Semi-D,2022-08-05,D1,109944785,240.69 kWh/m2/yr,54.281455,-8.450272,Buy,SLIGO,http://www.daft.ie/for-sale/semi-detached-house-22-yeats-heights-ballinode-co-sligo/3934459
3933948,19264151,"River Road, Cartron, Sligo, Co. Sligo",220000.0,114,114 m²,3,1,Semi-D,2022-06-16,C2,115044117,181.05 kWh/m2/yr,54.279169,-8.481211,Buy,SLIGO,http://www.daft.ie/for-sale/semi-detached-house-river-road-cartron-sligo-co-sligo/3933948
3933627,19259910,"6 Ashbury Lawn, Ballinode, Sligo, Co. Sligo",195000.0,96,96 m²,3,2,Semi-D,2022-07-25,D1,,,54.278388,-8.450505,Buy,SLIGO,http://www.daft.ie/for-sale/semi-detached-house-6-ashbury-lawn-ballinode-sligo-co-sligo/3933627
3933105,19255741,"46 Gurteen View, Gurteen, Co. Sligo",139000.0,100,100 m²,3,2,Semi-D,2022-08-10,C1,115166910,172.76 kWh/m2/yr,53.9967599,-8.5273953,Buy,SLIGO,http://www.daft.ie/for-sale/semi-detached-house-46-gurteen-view-gurteen-co-sligo/3933105
3558979,16317397,"Farmhill Manor, Strandhill Road , Strandhill, Co. Sligo",Price on Application,N/A,,3,3,Semi-D,2022-08-05,NA,,,54.27219541996297,-8.488526888531624,New Homes,SLIGO,http://www.daft.ie/new-home-for-sale/semi-detached-house-farmhill-manor-farmhill-manor-farmhill-manor-strandhill-road-strandhill-co-sligo/3558979
3930461,19233590,"3 St Patrick's Terrace, Sligo, Co. Sligo",160000.0,N/A,,3,1,Semi-D,2022-08-03,E2,114819147,94.78 kWh/m2/yr,54.26723371713078,-8.473731965375151,Buy,SLIGO,http://www.daft.ie/for-sale/semi-detached-house-3-st-patricks-terrace-sligo-co-sligo/3930461
3929048,19219030,"Penny Lane, Cliffoney, Co. Sligo",249950.0,96,96 m²,3,2,Detached,2022-08-09,C2,,,54.430731,-8.451206,Buy,SLIGO,http://www.daft.ie/for-sale/detached-house-penny-lane-cliffoney-co-sligo/3929048
3928629,19215201,"Island Road, Monasteraden, Co. Sligo",69000.0,87,87 m²,3,1,Detached,2022-08-10,G,114290364,1334.07 kWh/m2/yr,53.942172,-8.495958,Buy,SLIGO,http://www.daft.ie/for-sale/detached-house-island-road-monasteraden-co-sligo/3928629
3926773,19195227,"2 Inagh Court, Aclare, Co. Sligo",87500.0,N/A,,2,2,Terrace,2022-08-10,E1,114710270,300.0 kWh/m2/yr,54.035766,-8.899649,Buy,SLIGO,http://www.daft.ie/for-sale/terraced-house-2-inagh-court-aclare-co-sligo/3926773
3926069,19189914,"Aeolus, Cartron, Strandhill, Co. Sligo",850000.0,335,335 m²,4,3,Detached,2022-08-09,D1,115022972,,54.273638,-8.558548,Buy,SLIGO,http://www.daft.ie/for-sale/detached-house-aeolus-cartron-strandhill-co-sligo/3926069
3925337,19179236,"Aeolus, Cartron, Strandhill, Co. Sligo",850000.0,335,335 m²,4,2,Detached,2022-06-08,D1,115022972,,54.273638,-8.558548,Buy,SLIGO,http://www.daft.ie/for-sale/detached-house-aeolus-cartron-strandhill-co-sligo/3925337
3924385,19171210,"Aeolus, Cartron, Strandhill, Co. Sligo",850000.0,335,335 m²,4,2,Detached,2022-06-23,D1,115022972,241.73 kWh/m2/yr,54.273638,-8.558548,Buy,SLIGO,http://www.daft.ie/for-sale/detached-house-aeolus-cartron-strandhill-co-sligo/3924385
3923642,19162841,"2 Old Bundoran Road, Sligo, Co. Sligo",170000.0,N/A,,3,1,Semi-D,2022-06-09,D1,108403296,,54.286022,-8.46715,Buy,SLIGO,http://www.daft.ie/for-sale/semi-detached-house-2-old-bundoran-road-sligo-co-sligo/3923642
3921801,19153121,"Lahardan, Riverstown, Co. Sligo",169000.0,79,79 m²,3,2,Detached,2022-06-20,F,108731217,,54.091206,-8.321596,Buy,SLIGO,http://www.daft.ie/for-sale/detached-house-lahardan-riverstown-co-sligo/3921801
3921408,19149177,"70 Summerhill Village, Sligo, Co. Sligo",165000.0,84,84 m²,3,1,Terrace,2022-08-05,C1,100649722,155.58 kWh/m2/yr,54.266235,-8.474798,Buy,SLIGO,http://www.daft.ie/for-sale/terraced-house-70-summerhill-village-sligo-co-sligo/3921408
3920940,19144629,"17 Highfield Road, Sligo, Co. Sligo",350000.0,N/A,,3,2,Detached,2022-08-05,C3,,,54.258991,-8.469406,Buy,SLIGO,http://www.daft.ie/for-sale/detached-house-17-highfield-road-sligo-co-sligo/3920940
3921151,19147479,"Drum Road, Rathcormac, Co. Sligo",159000.0,82,82 m²,4,1,Detached,2022-07-05,G,113828818,,54.312893,-8.463704,Buy,SLIGO,http://www.daft.ie/for-sale/detached-house-drum-road-rathcormac-co-sligo/3921151
3920501,19141314,"Cline Lodge, Charlestown Road, Tubbercurry, Co. Sligo",240000.0,181,181 m²,6,3,Detached,2022-08-10,E1,115001901,,54.05032,-8.7342676,Buy,SLIGO,http://www.daft.ie/for-sale/detached-house-cline-lodge-charlestown-road-tubbercurry-co-sligo/3920501
3917762,19114975,"6 Cluaé­n Dara, Gurteen, Co. Sligo",180000.0,118,118 m²,3,3,Semi-D,2022-06-16,D1,115047516,232.65 kWh/m2/yr,53.997604,-8.525317,Buy,SLIGO,http://www.daft.ie/for-sale/semi-detached-house-6-clua-n-dara-gurteen-co-sligo/3917762
3917062,19107123,"Banada, Tourlestrane, Co. Sligo",55000.0,N/A,,3,1,Detached,2022-08-05,G,,,54.039257,-8.835817,Buy,SLIGO,http://www.daft.ie/for-sale/detached-house-banada-tourlestrane-co-sligo/3917062
3917023,19107102,"Coolteen, Lackagh, Drumfin, Co. Sligo",65000.0,N/A,,2,,Detached,2022-08-05,SI_666,,,54.1400787280445,-8.468957331346843,Buy,SLIGO,http://www.daft.ie/for-sale/detached-house-coolteen-lackagh-drumfin-co-sligo/3917023
3903396,18984431,"Cloonlurg, Riverstown, Co. Sligo",140000.0,N/A,,3,1,Detached,2022-08-05,G,,,54.112956,-8.442562,Buy,SLIGO,http://www.daft.ie/for-sale/detached-house-cloonlurg-riverstown-co-sligo/3903396
3913268,19075145,"27 The Dunes, Enniscrone, Co. Sligo",115000.0,90,90 m²,3,2,Terrace,2022-05-30,D2,100626290,261.4 kWh/m2/yr,54.21344986800809,-9.085964933037758,Buy,SLIGO,http://www.daft.ie/for-sale/terraced-house-27-the-dunes-enniscrone-co-sligo/3913268
4004271,112965079,"Ardabrone, Dromard, Co. Sligo",275000.0,N/A,,4,2,Detached,2022-08-02,SI_666,,,54.257897,-8.708493,Buy,SLIGO,http://www.daft.ie/for-sale/detached-house-ardabrone-dromard-co-sligo/4004271
4004033,112963451,"Carrowmorris, Dromard, Co. Sligo",160000.0,N/A,,3,2,Detached,2022-08-02,D1,,,54.229843,-8.680742,Buy,SLIGO,http://www.daft.ie/for-sale/detached-house-carrowmorris-dromard-co-sligo/4004033
4001540,112944178,"13 Kingsfort Manor, Ballintogher, Co. Sligo",179000.0,126,126 m²,4,3,Semi-D,2022-07-29,C1,,,54.198129,-8.367455,Buy,SLIGO,http://www.daft.ie/for-sale/semi-detached-house-13-kingsfort-manor-ballintogher-co-sligo/4001540
4000129,112931860,"43 Whitestrand, Aylesbury Park, Sligo, Co. Sligo",250000.0,88,88 m²,3,3,Semi-D,2022-08-05,C1,115367690,160.29 kWh/m2/yr,54.274526,-8.51367,Buy,SLIGO,http://www.daft.ie/for-sale/semi-detached-house-43-whitestrand-aylesbury-park-sligo-co-sligo/4000129
4000156,112931877,"Ballyweelin, Rosses Point, Co. Sligo",225000.0,62,62 m²,3,1,Semi-D,2022-08-05,F,102696465,404.03 kWh/m2/yr,54.304883,-8.542017,Buy,SLIGO,http://www.daft.ie/for-sale/semi-detached-house-ballyweelin-rosses-point-co-sligo/4000156
4000851,112938564,"Grange East, Ransboro, Co. Sligo",445000.0,205,205 m²,4,2,Detached,2022-08-05,D1,108759341,237.54 kWh/m2/yr,54.25724,-8.543716,Buy,SLIGO,http://www.daft.ie/for-sale/detached-house-grange-east-ransboro-co-sligo/4000851
4000693,112937206,"32 Bushy Park, Ballisodare, Co. Sligo",195000.0,108,108 m²,4,3,Semi-D,2022-08-05,C2,115357956,191.17 kWh/m2/yr,54.212569,-8.506648,Buy,SLIGO,http://www.daft.ie/for-sale/semi-detached-house-32-bushy-park-ballisodare-co-sligo/4000693
4000447,112934434,"Sooey, Ballygawley, Co. Sligo",275000.0,185,185 m²,3,2,Detached,2022-07-29,B2,,,54.168046,-8.418284,Buy,SLIGO,http://www.daft.ie/for-sale/detached-house-sooey-ballygawley-co-sligo/4000447
4000413,112934372,"58 Cartron Estate, Sligo, Co. Sligo",120000.0,N/A,,3,1,End of Terrace,2022-08-05,E2,,,54.280558,-8.470491,Buy,SLIGO,http://www.daft.ie/for-sale/end-of-terrace-house-58-cartron-estate-sligo-co-sligo/4000413
4000398,112934363,"18 Saint Joseph's Terrace, Sligo, Co. Sligo",189000.0,72,72 m²,2,1,Townhouse,2022-08-05,E1,,,54.265887,-8.473358,Buy,SLIGO,http://www.daft.ie/for-sale/townhouse-18-saint-josephs-terrace-sligo-co-sligo/4000398
4000388,112934359,"12 Knoxville Manor, Bellahy, Co. Sligo",172000.0,150,150 m²,4,3,Detached,2022-07-29,C2,114852684,,53.967424,-8.79827,Buy,SLIGO,http://www.daft.ie/for-sale/detached-house-12-knoxville-manor-bellahy-co-sligo/4000388
3996708,112899519,"Kilkilloge, Mullaghmore, Co. Sligo",Price on Application,N/A,,4,2,Detached,2022-08-04,C1,114171473,163.25 kWh/m2/yr,54.462579,-8.460409,Buy,SLIGO,http://www.daft.ie/for-sale/detached-house-kilkilloge-mullaghmore-co-sligo/3996708
3995617,112889860,"24 Dromroe, Castlebaldwin, Co. Sligo",169000.0,N/A,,3,3,Semi-D,2022-08-09,B3,,,54.078398,-8.380914,Buy,SLIGO,http://www.daft.ie/for-sale/semi-detached-house-24-dromroe-castlebaldwin-co-sligo/3995617
3994306,112874200,"Parochial House, Tourlestrane, Tubbercurry, Sligo, Co. Sligo",175000.0,180,180 m²,4,1,Detached,2022-08-10,G,,,54.0404628,-8.8448537,Buy,SLIGO,http://www.daft.ie/for-sale/detached-house-parochial-house-tourlestrane-tubbercurry-sligo-co-sligo/3994306
3992157,19750883,"Halfquarter, Dromard, Co. Sligo",265000.0,224,224 m²,4,3,Detached,2022-08-05,D1,110859881,237.6 kWh/m2/yr,54.236901,-8.678128,Buy,SLIGO,http://www.daft.ie/for-sale/detached-house-halfquarter-dromard-co-sligo/3992157
3992095,19750058,"17 The Laurels, Woodtown Lodge, Sligo, Co. Sligo",195000.0,98,98 m²,4,2,Semi-D,2022-08-10,D1,109813968,243.88 kWh/m2/yr,54.254085,-8.468511,Buy,SLIGO,http://www.daft.ie/for-sale/semi-detached-house-17-the-laurels-woodtown-lodge-sligo-co-sligo/3992095
3991870,19746337,"Carrowwilkin, Curry, Co. Sligo",Price on Application,109,109 m²,2,1,Detached,2022-07-22,G,115225872,702.7 kWh/m2/yr,54.017864,-8.758076,Buy,SLIGO,http://www.daft.ie/for-sale/detached-house-carrowwilkin-curry-co-sligo/3991870
3991283,19737654,"Portaghbradagh, Dromore West, Co. Sligo",380000.0,279,279 m²,5,5,Detached,2022-08-10,B2,115352965,106.14 kWh/m2/yr,54.2541,-8.902142,Buy,SLIGO,http://www.daft.ie/for-sale/detached-house-portaghbradagh-dromore-west-co-sligo/3991283
3991172,19735606,"Kilkere, Kilmactranny, Kilmactranny, Co. Sligo",399000.0,123,123 m²,4,2,Detached,2022-07-29,D2,,,54.063703,-8.268436,Buy,SLIGO,http://www.daft.ie/for-sale/detached-house-kilkere-kilmactranny-kilmactranny-co-sligo/3991172
3990466,19729386,"Saint Martin's, Rathscanlan, Tubbercurry, Co. Sligo",150000.0,109,109 m²,3,2,Detached,2022-07-21,E1,114635832,321.41 kWh/m2/yr,54.043464,-8.743579,Buy,SLIGO,http://www.daft.ie/for-sale/detached-house-saint-martins-rathscanlan-tubbercurry-co-sligo/3990466
3989994,19723732,"Orchard Road, Sligo, Co. Sligo",435000.0,N/A,,4,3,Detached,2022-08-10,E2,115351405,368.22 kWh/m2/yr,54.272417,-8.490466,Buy,SLIGO,http://www.daft.ie/for-sale/detached-house-orchard-road-sligo-co-sligo/3989994
3987083,19694069,"null, Dromore West, Co. Sligo",130000.0,100,100 m²,3,1,Detached,2022-08-03,D2,,,54.241264,-8.886453,Buy,SLIGO,http://www.daft.ie/for-sale/detached-house-null-dromore-west-co-sligo/3987083
3986766,19690126,"15 Bé³thar An Corran, Ballymote, Co. Sligo",145000.0,N/A,,3,1,Semi-D,2022-08-05,C2,,,54.082436,-8.506627,Buy,SLIGO,http://www.daft.ie/for-sale/semi-detached-house-15-b-thar-an-corran-ballymote-co-sligo/3986766
3986346,19686468,"Beltichburne, Mounttemple, Moneygold, Grange, Co. Sligo",2000000.0,390,390 m²,4,4,Detached,2022-08-09,B1,,,54.417876,-8.484108,Buy,SLIGO,http://www.daft.ie/for-sale/detached-house-beltichburne-mounttemple-moneygold-grange-co-sligo/3986346
3985606,19681924,"243 Sunset Drive, Cartron, Sligo, Co. Sligo",199000.0,112,112 m²,3,2,Semi-D,2022-07-21,D1,113277743,,54.280277,-8.483278,Buy,SLIGO,http://www.daft.ie/for-sale/semi-detached-house-243-sunset-drive-cartron-sligo-co-sligo/3985606
3985566,19681472,"44 Ard Aisling, Charlestown Road, TUBBERCURRY, Sligo, Co. Sligo",170000.0,110,110 m²,3,2,Semi-D,2022-08-10,C2,109670729,,54.0485715,-8.7309006,Buy,SLIGO,http://www.daft.ie/for-sale/semi-detached-house-44-ard-aisling-charlestown-road-tubbercurry-sligo-co-sligo/3985566
3985193,19675671,"Tully, Strandhill, Co. Sligo",850000.0,166,166 m²,4,1,Detached,2022-08-10,D2,102189388,274.12 kWh/m2/yr,54.273491,-8.571043,Buy,SLIGO,http://www.daft.ie/for-sale/detached-house-tully-strandhill-co-sligo/3985193
3985051,19675494,"23 Frankford Close, Enniscrone, Co. Sligo",235000.0,125,125 m²,4,2,Detached,2022-08-09,D1,,,54.213706,-9.081114,Buy,SLIGO,http://www.daft.ie/for-sale/detached-house-23-frankford-close-enniscrone-co-sligo/3985051
3983339,19653806,"Derrynaneane, Kilmactranny, Kilmactranny, Co. Sligo",95000.0,78,78 m²,2,1,Detached,2022-07-18,G,114285190,,54.046813,-8.251996,Buy,SLIGO,http://www.daft.ie/for-sale/detached-house-derrynaneane-kilmactranny-kilmactranny-co-sligo/3983339
3983390,19655583,"Sligo Road, Tubbercurry, Co. Sligo",50000.0,105,105 m²,4,1,Detached,2022-07-15,F,115047623,410.35 kWh/m2/yr,54.057042,-8.725751,Buy,SLIGO,http://www.daft.ie/for-sale/detached-house-sligo-road-tubbercurry-co-sligo/3983390
3460928,15625808,"Knockgrania, Bunnanadden, Co. Sligo",57500.0,98,98 m²,3,1,Detached,2022-07-15,G,113897003,594.13 kWh/m2/yr,54.025371,-8.569668,Buy,SLIGO,http://www.daft.ie/for-sale/detached-house-knockgrania-bunnanadden-co-sligo/3460928
3983410,19656501,"3 Hazel Grove, Brooklawns, First Sea Road, Sligo, Co. Sligo",229000.0,97,97 m²,3,2,Semi-D,2022-08-10,B3,102148731,142.29 kWh/m2/yr,54.275773,-8.504215,Buy,SLIGO,http://www.daft.ie/for-sale/semi-detached-house-3-hazel-grove-brooklawns-first-sea-road-sligo-co-sligo/3983410
3981850,19635265,"5 Highfield, Charlestown Road, Tubbercurry, Tubbercurry, Co. Sligo",190000.0,N/A,,3,3,Detached,2022-08-10,C2,,,54.0487078,-8.7345972,Buy,SLIGO,http://www.daft.ie/for-sale/detached-house-5-highfield-charlestown-road-tubbercurry-tubbercurry-co-sligo/3981850
3981989,19637713,"28 Crozon Crescent, Sligo, Co. Sligo",230000.0,116,116 m²,4,2,Semi-D,2022-07-14,D2,,,54.260718,-8.473665,Buy,SLIGO,http://www.daft.ie/for-sale/semi-detached-house-28-crozon-crescent-sligo-co-sligo/3981989
3981237,19628429,"110 Saint Brigid's Place, Sligo, Co. Sligo",110000.0,7,7 m²,3,1,Terrace,2022-07-14,E2,115337834,341.0 kWh/m2/yr,54.265016,-8.470561,Buy,SLIGO,http://www.daft.ie/for-sale/terraced-house-110-saint-brigids-place-sligo-co-sligo/3981237
3979725,19622690,"Ummeryroe, Geevagh, Co. Sligo",120000.0,80,80 m²,3,1,Detached,2022-08-08,F,,,54.126849,-8.299726,Buy,SLIGO,http://www.daft.ie/for-sale/detached-house-ummeryroe-geevagh-co-sligo/3979725
3979513,19620829,"Chapel Road, Cliffoney, Co. Sligo",290000.0,109,109 m²,3,2,Detached,2022-08-05,C2,112345392,194.76 kWh/m2/yr,54.429589,-8.453541,Buy,SLIGO,http://www.daft.ie/for-sale/detached-house-chapel-road-cliffoney-co-sligo/3979513
3979183,19618357,"21 Stella Maris, Ballisodare, Co. Sligo",149000.0,95,95 m²,3,1,Semi-D,2022-07-25,E1,,,54.211874,-8.518001,Buy,SLIGO,http://www.daft.ie/for-sale/semi-detached-house-21-stella-maris-ballisodare-co-sligo/3979183
3978599,19614316,"22 Knocknarea Villas, Sligo, Co. Sligo",230000.0,105,105 m²,3,2,Semi-D,2022-07-25,E1,,,54.266945,-8.496759,Buy,SLIGO,http://www.daft.ie/for-sale/semi-detached-house-22-knocknarea-villas-sligo-co-sligo/3978599
3978513,19612260,"8 Gort Na Sé­, Coolaney, Co. Sligo",170000.0,N/A,,4,3,Terrace,2022-07-19,C1,,,54.170133,-8.607344,Buy,SLIGO,http://www.daft.ie/for-sale/terraced-house-8-gort-na-s-coolaney-co-sligo/3978513
3977323,19605333,"null, Gurteen, Co. Sligo",75000.0,46,46 m²,2,1,Detached,2022-08-05,SI_666,,,53.99457,-8.518938,Buy,SLIGO,http://www.daft.ie/for-sale/detached-house-null-gurteen-co-sligo/3977323
3975250,19595498,"Abbey Terrace, Ballymote, Co. Sligo",125000.0,93,93 m²,2,1,Detached,2022-08-05,G,,,54.09046885345177,-8.519867057022964,Buy,SLIGO,http://www.daft.ie/for-sale/detached-house-abbey-terrace-ballymote-co-sligo/3975250
3974122,19591794,"Tully Hill, Rathcormac, Co. Sligo",259000.0,N/A,,3,3,Semi-D,2022-07-25,D2,,,54.312345,-8.475613,Buy,SLIGO,http://www.daft.ie/for-sale/semi-detached-house-tully-hill-rathcormac-co-sligo/3974122
3971520,19569798,"Lough Talt, Aclare, Ballymote, Co. Sligo",595000.0,204,204 m²,3,3,Detached,2022-08-09,C2,,,54.088572,-8.935447,Buy,SLIGO,http://www.daft.ie/for-sale/detached-house-lough-talt-aclare-ballymote-co-sligo/3971520
3971472,19569089,"7 Church Hill, Sligo, Co. Sligo",95000.0,80,80 m²,3,1,Terrace,2022-08-05,F,113637052,415.69 kWh/m2/yr,54.269796,-8.481941,Buy,SLIGO,http://www.daft.ie/for-sale/terraced-house-7-church-hill-sligo-co-sligo/3971472
3971427,19569064,"Main Street, Enniscrone, Co. Sligo",175000.0,N/A,,3,1,Townhouse,2022-08-03,G,115021503,1514.16 kWh/m2/yr,54.213535,-9.090822,Buy,SLIGO,http://www.daft.ie/for-sale/townhouse-main-street-enniscrone-co-sligo/3971427
3971424,19569063,"23 Rocklands, Tubbercurry, Co. Sligo",130000.0,10,10 m²,3,3,Terrace,2022-07-08,C2,107184137,186.03 kWh/m2/yr,54.051333,-8.724085,Buy,SLIGO,http://www.daft.ie/for-sale/terraced-house-23-rocklands-tubbercurry-co-sligo/3971424
3970561,19561823,"9 Prospect Drive, Brooklawns, First Sea Road, Sligo, Co. Sligo",229000.0,114,114 m²,3,3,End of Terrace,2022-08-10,B3,109902569,136.43 kWh/m2/yr,54.276877,-8.506156,Buy,SLIGO,http://www.daft.ie/for-sale/end-of-terrace-house-9-prospect-drive-brooklawns-first-sea-road-sligo-co-sligo/3970561
3970247,19558995,"206 River Oaks, Ballisodare, Sligo, Co. Sligo",200000.0,130,130 m²,3,3,Semi-D,2022-08-09,B2,105426779,108.94 kWh/m2/yr,54.208745,-8.506534,Buy,SLIGO,http://www.daft.ie/for-sale/semi-detached-house-206-river-oaks-ballisodare-sligo-co-sligo/3970247
3969977,19557145,"Carrownadargny, Geevagh, Co. Sligo","AMV: €55,000",N/A,,3,1,Detached,2022-08-10,SI_666,,,54.117455,-8.27487,Buy,SLIGO,http://www.daft.ie/for-sale/detached-house-carrownadargny-geevagh-co-sligo/3969977
3969547,19555241,"No. 40 Sraid na Mara, Strandhill Road, Sligo, Co. Sligo",379000.0,140,140 m²,4,3,Detached,2022-07-25,C3,,,54.272917,-8.499542,Buy,SLIGO,http://www.daft.ie/for-sale/detached-house-no-40-sraid-na-mara-strandhill-road-sligo-co-sligo/3969547
3969153,19551369,"Tonaphubble Road, Tonaphubble, Sligo, Co. Sligo",195000.0,158,158 m²,3,2,Detached,2022-08-05,G,115049306,459.11 kWh/m2/yr,54.259026,-8.457645,Buy,SLIGO,http://www.daft.ie/for-sale/detached-house-tonaphubble-road-tonaphubble-sligo-co-sligo/3969153
3968836,19548180,"Boyle Road, Gurteen, Co. Sligo",125000.0,N/A,,3,1,Semi-D,2022-07-15,F,,,53.992186,-8.513337,Buy,SLIGO,http://www.daft.ie/for-sale/semi-detached-house-boyle-road-gurteen-co-sligo/3968836
3967311,19535148,"Bartragh, Enniscrone, Co. Sligo",100000.0,N/A,,4,3,Detached,2022-08-05,SI_666,,,54.205608,-9.101278,Buy,SLIGO,http://www.daft.ie/for-sale/detached-house-bartragh-enniscrone-co-sligo/3967311
3966242,19524867,"Rathbaun South, Ballymote, Co. Sligo",350000.0,N/A,,2,,Detached,2022-08-05,G,,,54.032157,-8.588136,Buy,SLIGO,http://www.daft.ie/for-sale/detached-house-rathbaun-south-ballymote-co-sligo/3966242
3966161,19523508,"16 Teeling Grove , Tubbercurry, Co. Sligo",205000.0,124,124 m²,4,3,Semi-D,2022-07-05,C1,115194987,,54.050516570573194,-8.730409943048693,Buy,SLIGO,http://www.daft.ie/for-sale/semi-detached-house-16-teeling-grove-tubbercurry-co-sligo/3966161
3965486,19518676,"Quay St, Sligo, Co. Sligo",300000.0,160,160 m²,1,1,Terrace,2022-07-12,SI_666,,,54.27257444074266,-8.47643294798877,Buy,SLIGO,http://www.daft.ie/for-sale/terraced-house-quay-st-sligo-co-sligo/3965486
3965385,19517408,"Tiratick, Ballintogher, Co. Sligo",100000.0,170,170 m²,1,1,Terrace,2022-07-05,SI_666,,,54.200449,-8.365405,Buy,SLIGO,http://www.daft.ie/for-sale/terraced-house-tiratick-ballintogher-co-sligo/3965385
3963873,19506934,"Roseraie, 2 The Maples, Strandhill, Co. Sligo",400000.0,125,125 m²,4,3,Detached,2022-07-04,C3,115168767,217.12 kWh/m2/yr,54.269963,-8.600249,Buy,SLIGO,http://www.daft.ie/for-sale/detached-house-roseraie-2-the-maples-strandhill-co-sligo/3963873
3962274,19495503,"30 Saint Edwards Terrace, Sligo, Co. Sligo",139000.0,70,70 m²,3,1,End of Terrace,2022-08-08,G,108060963,731.3 kWh/m2/yr,54.276007,-8.472677,Buy,SLIGO,http://www.daft.ie/for-sale/end-of-terrace-house-30-saint-edwards-terrace-sligo-co-sligo/3962274
3961293,19483403,"22 Clara Court, Farmhill, Sligo, Co. Sligo",225000.0,110,110 m²,3,3,Terrace,2022-08-10,C1,114384811,173.04 kWh/m2/yr,54.272113,-8.496495,Buy,SLIGO,http://www.daft.ie/for-sale/terraced-house-22-clara-court-farmhill-sligo-co-sligo/3961293
3960102,19472752,"Mullaghroe, Cloonloo, Boyle, Co. Sligo",170000.0,170,170 m²,3,3,Detached,2022-07-11,D2,115232050,285.2 kWh/m2/yr,53.986509354894764,-8.461197552029915,Buy,SLIGO,http://www.daft.ie/for-sale/detached-house-mullaghroe-cloonloo-boyle-co-sligo/3960102
3958964,19460009,"St Josephs Terrace, Sligo, Co. Sligo",85000.0,N/A,,,,Semi-D,2022-08-09,G,,655.05 kWh/m2/yr,54.265675,-8.473661,Buy,SLIGO,http://www.daft.ie/for-sale/semi-detached-house-st-josephs-terrace-sligo-co-sligo/3958964
3958735,19458893,"11 Saint Anne's Terrace, Sligo, Co. Sligo",165000.0,104,104 m²,4,1,Terrace,2022-08-05,E2,112608245,349.57 kWh/m2/yr,54.269761,-8.467237,Buy,SLIGO,http://www.daft.ie/for-sale/terraced-house-11-saint-annes-terrace-sligo-co-sligo/3958735
3957202,19444789,"Carrownrush, Rathlee, Easkey, Co. Sligo",325000.0,N/A,,4,3,Detached,2022-08-09,C1,,,54.289146,-9.019741,Buy,SLIGO,http://www.daft.ie/for-sale/detached-house-carrownrush-rathlee-easkey-co-sligo/3957202
3949874,19422104,"185 River Road, Cartron, Sligo, Co. Sligo",175000.0,91,91 m²,3,1,Semi-D,2022-08-05,D2,102473667,287.05 kWh/m2/yr,54.280616,-8.485337,Buy,SLIGO,http://www.daft.ie/for-sale/semi-detached-house-185-river-road-cartron-sligo-co-sligo/3949874
3949222,19413298,"Rose Cottage, Creevykeel, Cliffoney, Co. Sligo",329950.0,N/A,,3,2,Detached,2022-08-09,D1,,,54.431907,-8.42304,Buy,SLIGO,http://www.daft.ie/for-sale/detached-house-rose-cottage-creevykeel-cliffoney-co-sligo/3949222
3947547,19399523,"41 Springfield, Sligo, Co. Sligo",210000.0,80,80 m²,2,2,Semi-D,2022-08-05,E1,106283070,360.39 kWh/m2/yr,54.305375,-8.47372,Buy,SLIGO,http://www.daft.ie/for-sale/semi-detached-house-41-springfield-sligo-co-sligo/3947547
3946515,19388087,"6 Knockmuldowney Park, Ballisodare, Co. Sligo",450000.0,N/A,,5,3,Detached,2022-06-24,B3,,,54.215261,-8.511213,Buy,SLIGO,http://www.daft.ie/for-sale/detached-house-6-knockmuldowney-park-ballisodare-co-sligo/3946515
3946070,19381151,"Bramley, 1 Saint Kevin's Avenue, Sligo, Co. Sligo",565000.0,142,142 m²,5,2,Semi-D,2022-08-05,B3,100970987,131.75 kWh/m2/yr,54.271897,-8.499115,Buy,SLIGO,http://www.daft.ie/for-sale/semi-detached-house-bramley-1-saint-kevins-avenue-sligo-co-sligo/3946070
3945454,19377103,"Annagh, Riverstown, Co. Sligo",90000.0,N/A,,3,1,Detached,2022-07-25,D2,,,54.091219,-8.354213,Buy,SLIGO,http://www.daft.ie/for-sale/detached-house-annagh-riverstown-co-sligo/3945454
3945009,19373319,"9 Sandycove, Strandhill, Co. Sligo",420000.0,95,95 m²,3,3,Semi-D,2022-08-10,C2,109948240,195.97 kWh/m2/yr,54.272631,-8.580361,Buy,SLIGO,http://www.daft.ie/for-sale/semi-detached-house-9-sandycove-strandhill-co-sligo/3945009
3940096,19323227,"20 Knoxville Manor, Bellaghy, Co. Sligo",160000.0,120,120 m²,3,3,Semi-D,2022-07-19,C2,114873854,,53.968208,-8.798614,Buy,SLIGO,http://www.daft.ie/for-sale/semi-detached-house-20-knoxville-manor-bellaghy-co-sligo/3940096
3938718,19312131,"Carrownyclowan, Geevagh, Co. Sligo",90000.0,209,209 m²,4,3,Detached,2022-06-28,SI_666,,,54.138603928275046,-8.271273090244478,Buy,SLIGO,http://www.daft.ie/for-sale/detached-house-carrownyclowan-geevagh-co-sligo/3938718
3938423,19309880,"Carrownadargny, Geevagh, Co. Sligo",55000.0,90,90 m²,3,1,Detached,2022-07-13,G,,,54.117455,-8.27487,Buy,SLIGO,http://www.daft.ie/for-sale/detached-house-carrownadargny-geevagh-co-sligo/3938423
3938227,19308250,"Down Yonder, Rosses Point, Co. Sligo",2400000.0,753,753 m²,9,10,Detached,2022-08-05,B2,115015117,,54.311663,-8.552404,Buy,SLIGO,http://www.daft.ie/for-sale/detached-house-down-yonder-rosses-point-co-sligo/3938227
3937399,19301135,"Down Yonder, Upper Rosses, Rosses Point, Co. Sligo",2400000.0,754,754 m²,9,10,Detached,2022-08-09,B2,115015117,,54.311663,-8.552404,Buy,SLIGO,http://www.daft.ie/for-sale/detached-house-down-yonder-upper-rosses-rosses-point-co-sligo/3937399
3934459,19270553,"22 Yeats Heights, Ballinode, Co. Sligo",225000.0,121,121 m²,5,2,Semi-D,2022-08-05,D1,109944785,240.69 kWh/m2/yr,54.281455,-8.450272,Buy,SLIGO,http://www.daft.ie/for-sale/semi-detached-house-22-yeats-heights-ballinode-co-sligo/3934459
3933948,19264151,"River Road, Cartron, Sligo, Co. Sligo",220000.0,114,114 m²,3,1,Semi-D,2022-06-16,C2,115044117,181.05 kWh/m2/yr,54.279169,-8.481211,Buy,SLIGO,http://www.daft.ie/for-sale/semi-detached-house-river-road-cartron-sligo-co-sligo/3933948
3933627,19259910,"6 Ashbury Lawn, Ballinode, Sligo, Co. Sligo",195000.0,96,96 m²,3,2,Semi-D,2022-07-25,D1,,,54.278388,-8.450505,Buy,SLIGO,http://www.daft.ie/for-sale/semi-detached-house-6-ashbury-lawn-ballinode-sligo-co-sligo/3933627
3933105,19255741,"46 Gurteen View, Gurteen, Co. Sligo",139000.0,100,100 m²,3,2,Semi-D,2022-08-10,C1,115166910,172.76 kWh/m2/yr,53.9967599,-8.5273953,Buy,SLIGO,http://www.daft.ie/for-sale/semi-detached-house-46-gurteen-view-gurteen-co-sligo/3933105
3558979,16317397,"Farmhill Manor, Strandhill Road , Strandhill, Co. Sligo",Price on Application,N/A,,3,3,Semi-D,2022-08-05,NA,,,54.27219541996297,-8.488526888531624,New Homes,SLIGO,http://www.daft.ie/new-home-for-sale/semi-detached-house-farmhill-manor-farmhill-manor-farmhill-manor-strandhill-road-strandhill-co-sligo/3558979
3930461,19233590,"3 St Patrick's Terrace, Sligo, Co. Sligo",160000.0,N/A,,3,1,Semi-D,2022-08-03,E2,114819147,94.78 kWh/m2/yr,54.26723371713078,-8.473731965375151,Buy,SLIGO,http://www.daft.ie/for-sale/semi-detached-house-3-st-patricks-terrace-sligo-co-sligo/3930461
3929048,19219030,"Penny Lane, Cliffoney, Co. Sligo",249950.0,96,96 m²,3,2,Detached,2022-08-09,C2,,,54.430731,-8.451206,Buy,SLIGO,http://www.daft.ie/for-sale/detached-house-penny-lane-cliffoney-co-sligo/3929048
3928629,19215201,"Island Road, Monasteraden, Co. Sligo",69000.0,87,87 m²,3,1,Detached,2022-08-10,G,114290364,1334.07 kWh/m2/yr,53.942172,-8.495958,Buy,SLIGO,http://www.daft.ie/for-sale/detached-house-island-road-monasteraden-co-sligo/3928629
3926773,19195227,"2 Inagh Court, Aclare, Co. Sligo",87500.0,N/A,,2,2,Terrace,2022-08-10,E1,114710270,300.0 kWh/m2/yr,54.035766,-8.899649,Buy,SLIGO,http://www.daft.ie/for-sale/terraced-house-2-inagh-court-aclare-co-sligo/3926773
3926069,19189914,"Aeolus, Cartron, Strandhill, Co. Sligo",850000.0,335,335 m²,4,3,Detached,2022-08-09,D1,115022972,,54.273638,-8.558548,Buy,SLIGO,http://www.daft.ie/for-sale/detached-house-aeolus-cartron-strandhill-co-sligo/3926069
3925337,19179236,"Aeolus, Cartron, Strandhill, Co. Sligo",850000.0,335,335 m²,4,2,Detached,2022-06-08,D1,115022972,,54.273638,-8.558548,Buy,SLIGO,http://www.daft.ie/for-sale/detached-house-aeolus-cartron-strandhill-co-sligo/3925337
3924385,19171210,"Aeolus, Cartron, Strandhill, Co. Sligo",850000.0,335,335 m²,4,2,Detached,2022-06-23,D1,115022972,241.73 kWh/m2/yr,54.273638,-8.558548,Buy,SLIGO,http://www.daft.ie/for-sale/detached-house-aeolus-cartron-strandhill-co-sligo/3924385
3923642,19162841,"2 Old Bundoran Road, Sligo, Co. Sligo",170000.0,N/A,,3,1,Semi-D,2022-06-09,D1,108403296,,54.286022,-8.46715,Buy,SLIGO,http://www.daft.ie/for-sale/semi-detached-house-2-old-bundoran-road-sligo-co-sligo/3923642
3921801,19153121,"Lahardan, Riverstown, Co. Sligo",169000.0,79,79 m²,3,2,Detached,2022-06-20,F,108731217,,54.091206,-8.321596,Buy,SLIGO,http://www.daft.ie/for-sale/detached-house-lahardan-riverstown-co-sligo/3921801
3921408,19149177,"70 Summerhill Village, Sligo, Co. Sligo",165000.0,84,84 m²,3,1,Terrace,2022-08-05,C1,100649722,155.58 kWh/m2/yr,54.266235,-8.474798,Buy,SLIGO,http://www.daft.ie/for-sale/terraced-house-70-summerhill-village-sligo-co-sligo/3921408
3920940,19144629,"17 Highfield Road, Sligo, Co. Sligo",350000.0,N/A,,3,2,Detached,2022-08-05,C3,,,54.258991,-8.469406,Buy,SLIGO,http://www.daft.ie/for-sale/detached-house-17-highfield-road-sligo-co-sligo/3920940
3921151,19147479,"Drum Road, Rathcormac, Co. Sligo",159000.0,82,82 m²,4,1,Detached,2022-07-05,G,113828818,,54.312893,-8.463704,Buy,SLIGO,http://www.daft.ie/for-sale/detached-house-drum-road-rathcormac-co-sligo/3921151
3920501,19141314,"Cline Lodge, Charlestown Road, Tubbercurry, Co. Sligo",240000.0,181,181 m²,6,3,Detached,2022-08-10,E1,115001901,,54.05032,-8.7342676,Buy,SLIGO,http://www.daft.ie/for-sale/detached-house-cline-lodge-charlestown-road-tubbercurry-co-sligo/3920501
3917762,19114975,"6 Cluaé­n Dara, Gurteen, Co. Sligo",180000.0,118,118 m²,3,3,Semi-D,2022-06-16,D1,115047516,232.65 kWh/m2/yr,53.997604,-8.525317,Buy,SLIGO,http://www.daft.ie/for-sale/semi-detached-house-6-clua-n-dara-gurteen-co-sligo/3917762
3917062,19107123,"Banada, Tourlestrane, Co. Sligo",55000.0,N/A,,3,1,Detached,2022-08-05,G,,,54.039257,-8.835817,Buy,SLIGO,http://www.daft.ie/for-sale/detached-house-banada-tourlestrane-co-sligo/3917062
3917023,19107102,"Coolteen, Lackagh, Drumfin, Co. Sligo",65000.0,N/A,,2,,Detached,2022-08-05,SI_666,,,54.1400787280445,-8.468957331346843,Buy,SLIGO,http://www.daft.ie/for-sale/detached-house-coolteen-lackagh-drumfin-co-sligo/3917023
3903396,18984431,"Cloonlurg, Riverstown, Co. Sligo",140000.0,N/A,,3,1,Detached,2022-08-05,G,,,54.112956,-8.442562,Buy,SLIGO,http://www.daft.ie/for-sale/detached-house-cloonlurg-riverstown-co-sligo/3903396
3913268,19075145,"27 The Dunes, Enniscrone, Co. Sligo",115000.0,90,90 m²,3,2,Terrace,2022-05-30,D2,100626290,261.4 kWh/m2/yr,54.21344986800809,-9.085964933037758,Buy,SLIGO,http://www.daft.ie/for-sale/terraced-house-27-the-dunes-enniscrone-co-sligo/3913268
3911543,19063692,"2 Inagh Court, Aclare, Co. Sligo","AMV: €87,500",N/A,,2,2,Townhouse,2022-08-10,E1,,,54.035766,-8.899649,Buy,SLIGO,http://www.daft.ie/for-sale/townhouse-2-inagh-court-aclare-co-sligo/3911543
3910459,19053573,"Mistymorn, Keash, Ballymote, Co. Sligo",90000.0,N/A,,,,Detached,2022-08-10,G,,,54.046288,-8.432141,Buy,SLIGO,http://www.daft.ie/for-sale/detached-house-mistymorn-keash-ballymote-co-sligo/3910459
3910090,19049025,"Cloonloo, Cloonloogh, Co. Sligo",90000.0,51,51 m²,2,1,Detached,2022-08-10,G,115000598,,53.967305981508,-8.3979406930542,Buy,SLIGO,http://www.daft.ie/for-sale/detached-house-cloonloo-cloonloogh-co-sligo/3910090
3908200,19030335,"12 Cairns Road, Sligo, Co. Sligo",199000.0,93,93 m²,3,1,Semi-D,2022-07-21,C3,102723608,,54.25635,-8.466664,Buy,SLIGO,http://www.daft.ie/for-sale/semi-detached-house-12-cairns-road-sligo-co-sligo/3908200
3908930,19035606,"Clogher, Monasteraden, Co. Sligo",140000.0,N/A,,3,2,Detached,2022-05-26,SI_666,,,53.952536,-8.521845,Buy,SLIGO,http://www.daft.ie/for-sale/detached-house-clogher-monasteraden-co-sligo/3908930
3243241,14967753,"25 Wolfe Tone Street, Sligo, Co. Sligo",200000.0,107,107 m²,5,2,Townhouse,2022-06-01,E2,113831143,93.55 kWh/m2/yr,54.27078,-8.481949,Buy,SLIGO,http://www.daft.ie/for-sale/townhouse-25-wolfe-tone-street-sligo-co-sligo/3243241
3908487,19032260,"2 Ballytivnan Road, Ballytivnan, Sligo, Co. Sligo",190000.0,85,85 m²,3,2,Semi-D,2022-07-25,D2,,,54.278911,-8.471179,Buy,SLIGO,http://www.daft.ie/for-sale/semi-detached-house-2-ballytivnan-road-ballytivnan-sligo-co-sligo/3908487
3906452,19017662,"Castletown Arms, Castletown, Easkey, Co. Sligo",130000.0,220,220 m²,3,1,Detached,2022-08-08,G,,,54.28670398655896,-8.997882619096487,Buy,SLIGO,http://www.daft.ie/for-sale/detached-house-castletown-arms-castletown-easkey-co-sligo/3906452
3905273,19005784,"61 Saint Anne's Terrace, Sligo, Co. Sligo",160000.0,80,80 m²,3,1,End of Terrace,2022-07-21,E2,103646402,,54.270818,-8.468498,Buy,SLIGO,http://www.daft.ie/for-sale/end-of-terrace-house-61-saint-annes-terrace-sligo-co-sligo/3905273
3903960,18992150,"1 & 2 Dominick St. & 1 Church St, Sligo, Co. Sligo",380000.0,N/A,,9,5,Terrace,2022-08-10,G,114827652,622.61 kWh/m2/yr,54.269478,-8.47491,Buy,SLIGO,http://www.daft.ie/for-sale/terraced-house-1-2-dominick-st-1-church-st-sligo-co-sligo/3903960
3903801,18989809,"Cabragh, Rathlee, Easkey, Co. Sligo",120000.0,87,87 m²,3,1,Detached,2022-08-04,SI_666,,,54.26019794059101,-9.030794292060506,Buy,SLIGO,http://www.daft.ie/for-sale/detached-house-cabragh-rathlee-easkey-co-sligo/3903801
3902817,18982274,"16 kiernan avenue, Collooney, Co. Sligo",155000.0,N/A,,3,2,Semi-D,2022-07-30,D1,,,54.181204,-8.4936916,Buy,SLIGO,http://www.daft.ie/for-sale/semi-detached-house-16-kiernan-avenue-collooney-co-sligo/3902817
3901674,18971486,"Stoneparks, Ballymote, Co. Sligo",79500.0,119,119 m²,2,1,Semi-D,2022-08-05,G,,,54.090454,-8.517341,Buy,SLIGO,http://www.daft.ie/for-sale/semi-detached-house-stoneparks-ballymote-co-sligo/3901674
3892009,18880421,"Battlefield, Culfadda, Co. Sligo",65000.0,N/A,,3,1,Detached,2022-06-20,G,,,54.02335029769989,-8.44400107233102,Buy,SLIGO,http://www.daft.ie/for-sale/detached-house-battlefield-culfadda-co-sligo/3892009
3824491,18856960,"11 Steeple View, Collooney, Co. Sligo",240000.0,N/A,,4,3,Detached,2022-07-06,C3,,,54.184273,-8.489177,Buy,SLIGO,http://www.daft.ie/for-sale/detached-house-11-steeple-view-collooney-co-sligo/3824491
3823320,18847054,"5 Corradoo Cottages, Ballinafad, Ballinafad, Co. Sligo",139000.0,82,82 m²,3,3,Semi-D,2022-06-20,D1,114740111,,54.019914,-8.358273,Buy,SLIGO,http://www.daft.ie/for-sale/semi-detached-house-5-corradoo-cottages-ballinafad-ballinafad-co-sligo/3823320
3822639,18842748,"36 Crozon Crescent, Sligo, Co. Sligo",350000.0,188,188 m²,4,2,Detached,2022-06-15,D2,109371526,264.0 kWh/m2/yr,54.261514,-8.474085,Buy,SLIGO,http://www.daft.ie/for-sale/detached-house-36-crozon-crescent-sligo-co-sligo/3822639
3822517,18840942,"25 Holborn Street, Sligo, Co. Sligo",60000.0,42,42 m²,2,,Terrace,2022-08-10,G,114864283,539.72 kWh/m2/yr,54.273876,-8.473452,Buy,SLIGO,http://www.daft.ie/for-sale/terraced-house-25-holborn-street-sligo-co-sligo/3822517
3816447,18786108,"102 Heather View, Tonaphubble, Sligo, Co. Sligo",210000.0,110,110 m²,3,2,Semi-D,2022-06-15,D1,114809833,234.0 kWh/m2/yr,54.256432,-8.462642,Buy,SLIGO,http://www.daft.ie/for-sale/semi-detached-house-102-heather-view-tonaphubble-sligo-co-sligo/3816447
3815224,18774086,"6 Oak Lawn, Pearse Road, Sligo, Co. Sligo",259000.0,124,124 m²,4,3,Semi-D,2022-07-01,D1,107802522,,54.255247,-8.473063,Buy,SLIGO,http://www.daft.ie/for-sale/semi-detached-house-6-oak-lawn-pearse-road-sligo-co-sligo/3815224
3815384,18775510,"10 Radharc Na Habhann, Coolaney, Co. Sligo",Price on Application,95,95 m²,3,3,Terrace,2022-07-25,C2,,,54.174442,-8.599875,Buy,SLIGO,http://www.daft.ie/for-sale/terraced-house-10-radharc-na-habhann-coolaney-co-sligo/3815384
3783284,18506257,"Griddle, Culleens, Co. Sligo",220000.0,N/A,,3,1,Detached,2022-08-09,D2,,,54.191303,-8.963176,Buy,SLIGO,http://www.daft.ie/for-sale/detached-house-griddle-culleens-co-sligo/3783284
3807838,18721379,"Drumdiveen, Killavil, Ballymote, Co. Sligo",60000.0,N/A,,2,,Detached,2022-08-05,SI_666,,,54.04700940408995,-8.541663390844832,Buy,SLIGO,http://www.daft.ie/for-sale/detached-house-drumdiveen-killavil-ballymote-co-sligo/3807838
3806983,18712386,"29 The Lodge, Castledargan, Ballygawley, Co. Sligo",350000.0,165,165 m²,4,3,Detached,2022-08-09,C2,,,54.194964,-8.436529,Buy,SLIGO,http://www.daft.ie/for-sale/detached-house-29-the-lodge-castledargan-ballygawley-co-sligo/3806983
3800190,18645835,"3 Kiernan Avenue, Collooney, Co. Sligo",125000.0,N/A,,2,2,Semi-D,2022-06-10,D1,114135296,259.16 kWh/m2/yr,54.181787,-8.493154,Buy,SLIGO,http://www.daft.ie/for-sale/semi-detached-house-3-kiernan-avenue-collooney-co-sligo/3800190
3792960,18586543,"DOONMEEGIN, Ballymote, Co. Sligo",150000.0,166,166 m²,4,3,Detached,2022-06-30,SI_666,,,54.08924225997933,-8.444607337176905,Buy,SLIGO,http://www.daft.ie/for-sale/detached-house-doonmeegin-ballymote-co-sligo/3792960
3791347,18578190,"null, Dromore West, Co. Sligo",220000.0,N/A,,1,,Detached,2022-04-15,G,,,54.247976,-8.893139,Buy,SLIGO,http://www.daft.ie/for-sale/detached-house-null-dromore-west-co-sligo/3791347
3790640,18572915,"Killaspugbrone, Strandhill, Co. Sligo",495000.0,193,193 m²,6,3,Detached,2022-08-05,E1,114671282,314.53 kWh/m2/yr,54.269293,-8.594244,Buy,SLIGO,http://www.daft.ie/for-sale/detached-house-killaspugbrone-strandhill-co-sligo/3790640
3790558,18570950,"Kildonagh House, Ballincar, Rosses Point, Co. Sligo",695000.0,374,374 m²,8,8,Detached,2022-08-05,D1,111982534,268.57 kWh/m2/yr,54.297103,-8.503573,Buy,SLIGO,http://www.daft.ie/for-sale/detached-house-kildonagh-house-ballincar-rosses-point-co-sligo/3790558
3788854,18556738,"Moygara, Gurteen, Co. Sligo",75000.0,120,120 m²,3,2,Detached,2022-06-20,G,,,53.969385,-8.47249,Buy,SLIGO,http://www.daft.ie/for-sale/detached-house-moygara-gurteen-co-sligo/3788854
3781932,18491531,"Ard Aras, Tonaphubble, Sligo, Co. Sligo",300000.0,N/A,,3,2,Detached,2022-06-10,E2,114600927,349.59 kWh/m2/yr,54.258469,-8.453435,Buy,SLIGO,http://www.daft.ie/for-sale/detached-house-ard-aras-tonaphubble-sligo-co-sligo/3781932
3734968,18091353,"Killerry, Ballintogher, Co. Sligo",450000.0,72,72 m²,3,1,Detached,2022-03-30,F,,,54.22299,-8.366555,Buy,SLIGO,http://www.daft.ie/for-sale/detached-house-killerry-ballintogher-co-sligo/3734968
3765329,18353181,"28 Knoxville Manor, Bellaghy, Co. Sligo",167000.0,121,121 m²,3,3,Semi-D,2022-07-19,C1,114752462,,53.968341,-8.799683,Buy,SLIGO,http://www.daft.ie/for-sale/semi-detached-house-28-knoxville-manor-bellaghy-co-sligo/3765329
3757376,18290319,"Cloonagh, Sooey, Co. Sligo",85000.0,51,51 m²,1,1,Detached,2022-08-10,G,103151270,706.38 kWh/m2/yr,54.166268,-8.365628,Buy,SLIGO,http://www.daft.ie/for-sale/detached-house-cloonagh-sooey-co-sligo/3757376
3751899,18256428,"3 Rusheen é�rd, Caltragh, Sligo, Co. Sligo",215000.0,90,90 m²,3,3,Semi-D,2022-07-25,C2,,,54.259488,-8.474788,Buy,SLIGO,http://www.daft.ie/for-sale/semi-detached-house-3-rusheen-rd-caltragh-sligo-co-sligo/3751899
3748986,18224898,"43 Mountain Close, Cartron, Sligo, Co. Sligo",195000.0,N/A,,4,1,Semi-D,2022-06-13,E1,,,54.281328,-8.479468,Buy,SLIGO,http://www.daft.ie/for-sale/semi-detached-house-43-mountain-close-cartron-sligo-co-sligo/3748986
3744385,18179912,"2 Prospect Drive, Brooklawns, First Sea Road, Sligo, Co. Sligo",230000.0,105,105 m²,3,2,Terrace,2022-08-10,B2,100408285,112.32 kWh/m2/yr,54.276714,-8.505427,Buy,SLIGO,http://www.daft.ie/for-sale/terraced-house-2-prospect-drive-brooklawns-first-sea-road-sligo-co-sligo/3744385
3733504,18073261,"Main Street, Gurteen, Co. Sligo",89000.0,N/A,,3,1,End of Terrace,2022-06-20,E1,,,53.993468,-8.516924,Buy,SLIGO,http://www.daft.ie/for-sale/end-of-terrace-house-main-street-gurteen-co-sligo/3733504
3733150,18067425,"12 Rocklands, Tubbercurry, Co. Sligo",Price on Application,100,100 m²,3,3,Semi-D,2022-02-28,C3,114691330,202.8 kWh/m2/yr,54.05118,-8.722842,Buy,SLIGO,http://www.daft.ie/for-sale/semi-detached-house-12-rocklands-tubbercurry-co-sligo/3733150
3717183,17931704,"Ballincurry, Curry, Co. Sligo",199000.0,N/A,,3,1,Detached,2022-08-10,D1,,,54.014946,-8.723902,Buy,SLIGO,http://www.daft.ie/for-sale/detached-house-ballincurry-curry-co-sligo/3717183
3656516,17369811,"23 Seaview Park, First Sea Road, Sligo, Co. Sligo",185000.0,83,83 m²,3,2,Semi-D,2022-08-10,E1,108041567,317.47 kWh/m2/yr,54.274208,-8.505453,Buy,SLIGO,http://www.daft.ie/for-sale/semi-detached-house-23-seaview-park-first-sea-road-sligo-co-sligo/3656516
3700852,17801105,"9 Radharc Na Habhann, Coolaney, Co. Sligo",Price on Application,90,90 m²,3,3,Townhouse,2022-07-25,C2,,,54.174489,-8.599969,Buy,SLIGO,http://www.daft.ie/for-sale/townhouse-9-radharc-na-habhann-coolaney-co-sligo/3700852
3696189,17756424,"46 Ard Aisling, Charlestown Road, Tubbercurry, Co. Sligo",170000.0,101,101 m²,3,3,Semi-D,2022-05-18,C2,112998554,185.52 kWh/m2/yr,54.048346,-8.731114,Buy,SLIGO,http://www.daft.ie/for-sale/semi-detached-house-46-ard-aisling-charlestown-road-tubbercurry-co-sligo/3696189
3688141,17691115,"10 Highwood Park, Collooney, Co. Sligo",195000.0,N/A,,3,3,Semi-D,2022-01-25,C1,,,54.18043079,-8.49008709,Buy,SLIGO,http://www.daft.ie/for-sale/semi-detached-house-10-highwood-park-collooney-co-sligo/3688141
3686769,17681387,"35 Thornhill, Sligo, Co. Sligo",309000.0,145,145 m²,5,2,Semi-D,2022-08-08,E2,114530561,343.59 kWh/m2/yr,54.26946,-8.491508,Buy,SLIGO,http://www.daft.ie/for-sale/semi-detached-house-35-thornhill-sligo-co-sligo/3686769
3685197,17671122,"Molly's Cottage, Dromore West, Co. Sligo",200000.0,100,100 m²,3,1,Detached,2022-06-23,,,,54.241464376221806,-8.88551875948906,Buy,SLIGO,http://www.daft.ie/for-sale/detached-house-mollys-cottage-dromore-west-co-sligo/3685197
3680358,17632539,"Carrowcarden, Enniscrone, Co. Sligo",360000.0,N/A,,3,2,Detached,2022-08-09,C3,,,54.199927,-9.101332,Buy,SLIGO,http://www.daft.ie/for-sale/detached-house-carrowcarden-enniscrone-co-sligo/3680358
3627410,17043697,"Masreagh, Skreen, Co. Sligo",179000.0,114,114 m²,3,1,Detached,2022-08-10,G,113771844,645.2 kWh/m2/yr,54.252659,-8.716387,Buy,SLIGO,http://www.daft.ie/for-sale/detached-house-masreagh-skreen-co-sligo/3627410
3640560,17143934,"Ballincar, Rosses Point, Co. Sligo",469000.0,260,260 m²,6,4,Detached,2022-06-10,C2,114506553,176.65 kWh/m2/yr,54.30074,-8.512468,Buy,SLIGO,http://www.daft.ie/for-sale/detached-house-ballincar-rosses-point-co-sligo/3640560
3628549,17058067,"Doonally, Calry, Co. Sligo",380000.0,97,97 m²,3,2,Semi-D,2022-07-05,D1,,,54.294373,-8.439335,Buy,SLIGO,http://www.daft.ie/for-sale/semi-detached-house-doonally-calry-co-sligo/3628549
3610651,16895741,"8 Corradoo Cottages, Boyle, Ballinafad, Co. Sligo","AMV: €100,000",85,85 m²,3,1,Terrace,2022-08-10,C1,,,54.020108,-8.358466,Buy,SLIGO,http://www.daft.ie/for-sale/terraced-house-8-corradoo-cottages-boyle-ballinafad-co-sligo/3610651
3555668,16274817,"Drumcliffe South, Drumcliff, Co. Sligo",480000.0,151,151 m²,4,1,Detached,2022-04-08,C3,109019828,,54.321662,-8.491613,Buy,SLIGO,http://www.daft.ie/for-sale/detached-house-drumcliffe-south-drumcliff-co-sligo/3555668
3556548,16286802,"Achonry, Tubbercurry, Co. Sligo",40000.0,90,90 m²,2,,Detached,2022-08-10,,,,54.064256,-8.679656,Buy,SLIGO,http://www.daft.ie/for-sale/detached-house-achonry-tubbercurry-co-sligo/3556548
3537554,16175943,"Bellarush, Castlebaldwin, Co. Sligo",Price on Application,N/A,,3,1,Detached,2022-08-05,F,,,54.091014,-8.361318,Buy,SLIGO,http://www.daft.ie/for-sale/detached-house-bellarush-castlebaldwin-co-sligo/3537554
3535459,16166464,"Greyfield, Culfadda, Culfadda, Co. Sligo",170000.0,104,104 m²,4,1,Detached,2022-06-20,D2,,,54.026056,-8.492573,Buy,SLIGO,http://www.daft.ie/for-sale/detached-house-greyfield-culfadda-culfadda-co-sligo/3535459
3527692,16131150,"Seafields Kileenduff Easkey, Easkey, Co. Sligo",1650000.0,492,492 m²,7,6,Detached,2022-07-17,SI_666,,,54.283864747630616,-8.943022107768002,Buy,SLIGO,http://www.daft.ie/for-sale/detached-house-seafields-kileenduff-easkey-easkey-co-sligo/3527692
3474432,15757218,"Kiltycahill, Sligo, Co. Sligo",699000.0,300,300 m²,4,4,Detached,2022-08-10,B3,,,54.272705,-8.410702,Buy,SLIGO,http://www.daft.ie/for-sale/detached-house-kiltycahill-sligo-co-sligo/3474432
2927759,13884257,"Killoran South, Lavagh, Coolaney, Co. Sligo",Price on Application,N/A,,1,1,Detached,2021-06-18,G,,,54.128454,-8.654318,Buy,SLIGO,http://www.daft.ie/for-sale/detached-house-killoran-south-lavagh-coolaney-co-sligo/2927759
1531045,12431486,"Emmet Street, Tubbercurry, Co. Sligo",53500.0,N/A,,1,2,Terrace,2022-08-10,,,,54.053962,-8.728201,Buy,SLIGO,http://www.daft.ie/for-sale/terraced-house-emmet-street-tubbercurry-co-sligo/1531045
30348,11584278,"Humbert Street, Tubbercurry, Co. Sligo",60000.0,N/A,,3,1,Terrace,2022-06-21,G,110362282,500.2 kWh/m2/yr,54.05478402582016,-8.729179501533508,Buy,SLIGO,http://www.daft.ie/for-sale/terraced-house-humbert-street-tubbercurry-co-sligo/30348
3987867,19700280,"Four bedroomed Semi-Detached, Owenmore Paddock, Ballinacarrow, Co. Sligo",245000.0,113,113 m²,4,1,,2022-07-19,A3,,,54.132717171997854,-8.561570985917427,New Homes,SLIGO,http://www.daft.ie/new-home-for-sale/semi-detached-house-four-bedroomed-semi-detached-owenmore-paddock-ballinacarrow-co-sligo/3987867
3908487,19032260,"2 Ballytivnan Road, Ballytivnan, Sligo, Co. Sligo",190000.0,85,85 m²,3,2,Semi-D,2022-07-25,D2,,,54.278911,-8.471179,Buy,SLIGO,http://www.daft.ie/for-sale/semi-detached-house-2-ballytivnan-road-ballytivnan-sligo-co-sligo/3908487
3902817,18982274,"16 kiernan avenue, Collooney, Co. Sligo",155000.0,N/A,,3,2,Semi-D,2022-07-30,D1,,,54.181204,-8.4936916,Buy,SLIGO,http://www.daft.ie/for-sale/semi-detached-house-16-kiernan-avenue-collooney-co-sligo/3902817
3901674,18971486,"Stoneparks, Ballymote, Co. Sligo",79500.0,119,119 m²,2,1,Semi-D,2022-08-05,G,,,54.090454,-8.517341,Buy,SLIGO,http://www.daft.ie/for-sale/semi-detached-house-stoneparks-ballymote-co-sligo/3901674
3823320,18847054,"5 Corradoo Cottages, Ballinafad, Ballinafad, Co. Sligo",139000.0,82,82 m²,3,3,Semi-D,2022-06-20,D1,114740111,,54.019914,-8.358273,Buy,SLIGO,http://www.daft.ie/for-sale/semi-detached-house-5-corradoo-cottages-ballinafad-ballinafad-co-sligo/3823320
3816447,18786108,"102 Heather View, Tonaphubble, Sligo, Co. Sligo",210000.0,110,110 m²,3,2,Semi-D,2022-06-15,D1,114809833,234.0 kWh/m2/yr,54.256432,-8.462642,Buy,SLIGO,http://www.daft.ie/for-sale/semi-detached-house-102-heather-view-tonaphubble-sligo-co-sligo/3816447
3815224,18774086,"6 Oak Lawn, Pearse Road, Sligo, Co. Sligo",259000.0,124,124 m²,4,3,Semi-D,2022-07-01,D1,107802522,,54.255247,-8.473063,Buy,SLIGO,http://www.daft.ie/for-sale/semi-detached-house-6-oak-lawn-pearse-road-sligo-co-sligo/3815224
3800190,18645835,"3 Kiernan Avenue, Collooney, Co. Sligo",125000.0,N/A,,2,2,Semi-D,2022-06-10,D1,114135296,259.16 kWh/m2/yr,54.181787,-8.493154,Buy,SLIGO,http://www.daft.ie/for-sale/semi-detached-house-3-kiernan-avenue-collooney-co-sligo/3800190
3765329,18353181,"28 Knoxville Manor, Bellaghy, Co. Sligo",167000.0,121,121 m²,3,3,Semi-D,2022-07-19,C1,114752462,,53.968341,-8.799683,Buy,SLIGO,http://www.daft.ie/for-sale/semi-detached-house-28-knoxville-manor-bellaghy-co-sligo/3765329
3751899,18256428,"3 Rusheen é�rd, Caltragh, Sligo, Co. Sligo",215000.0,90,90 m²,3,3,Semi-D,2022-07-25,C2,,,54.259488,-8.474788,Buy,SLIGO,http://www.daft.ie/for-sale/semi-detached-house-3-rusheen-rd-caltragh-sligo-co-sligo/3751899
3748986,18224898,"43 Mountain Close, Cartron, Sligo, Co. Sligo",195000.0,N/A,,4,1,Semi-D,2022-06-13,E1,,,54.281328,-8.479468,Buy,SLIGO,http://www.daft.ie/for-sale/semi-detached-house-43-mountain-close-cartron-sligo-co-sligo/3748986
3733150,18067425,"12 Rocklands, Tubbercurry, Co. Sligo",Price on Application,100,100 m²,3,3,Semi-D,2022-02-28,C3,114691330,202.8 kWh/m2/yr,54.05118,-8.722842,Buy,SLIGO,http://www.daft.ie/for-sale/semi-detached-house-12-rocklands-tubbercurry-co-sligo/3733150
3656516,17369811,"23 Seaview Park, First Sea Road, Sligo, Co. Sligo",185000.0,83,83 m²,3,2,Semi-D,2022-08-10,E1,108041567,317.47 kWh/m2/yr,54.274208,-8.505453,Buy,SLIGO,http://www.daft.ie/for-sale/semi-detached-house-23-seaview-park-first-sea-road-sligo-co-sligo/3656516
3696189,17756424,"46 Ard Aisling, Charlestown Road, Tubbercurry, Co. Sligo",170000.0,101,101 m²,3,3,Semi-D,2022-05-18,C2,112998554,185.52 kWh/m2/yr,54.048346,-8.731114,Buy,SLIGO,http://www.daft.ie/for-sale/semi-detached-house-46-ard-aisling-charlestown-road-tubbercurry-co-sligo/3696189
3688141,17691115,"10 Highwood Park, Collooney, Co. Sligo",195000.0,N/A,,3,3,Semi-D,2022-01-25,C1,,,54.18043079,-8.49008709,Buy,SLIGO,http://www.daft.ie/for-sale/semi-detached-house-10-highwood-park-collooney-co-sligo/3688141
3686769,17681387,"35 Thornhill, Sligo, Co. Sligo",309000.0,145,145 m²,5,2,Semi-D,2022-08-08,E2,114530561,343.59 kWh/m2/yr,54.26946,-8.491508,Buy,SLIGO,http://www.daft.ie/for-sale/semi-detached-house-35-thornhill-sligo-co-sligo/3686769
3628549,17058067,"Doonally, Calry, Co. Sligo",380000.0,97,97 m²,3,2,Semi-D,2022-07-05,D1,,,54.294373,-8.439335,Buy,SLIGO,http://www.daft.ie/for-sale/semi-detached-house-doonally-calry-co-sligo/3628549
3987867,19700280,"Four bedroomed Semi-Detached, Owenmore Paddock, Ballinacarrow, Co. Sligo",245000.0,113,113 m²,4,1,,2022-07-19,A3,,,54.132717171997854,-8.561570985917427,New Homes,SLIGO,http://www.daft.ie/new-home-for-sale/semi-detached-house-four-bedroomed-semi-detached-owenmore-paddock-ballinacarrow-co-sligo/3987867
