id,daftShortcode,title,price,size_meters_squared,propertySize,bedrooms,bathrooms,propertyType,publishDate,ber_rating,ber_code,ber_epi,latitude,longitude,category,location,url_link
3973724,19587936,"Haven, Haven, Crosthwaite Park South, Dun Laoghaire, Co. Dublin",1200000.0,152,152 m²,4,2,Semi-D,2022-08-10,E1,115164543,327.2 kWh/m2/yr,53.284481,-6.135073,Buy,ST_NICHOLAS_MONTESSORI_COLLEGE_IRELAND_DUBLIN,http://www.daft.ie/for-sale/semi-detached-house-haven-haven-crosthwaite-park-south-dun-laoghaire-co-dublin/3973724
3970856,19564929,"54 Highthorn Park, Glenageary, Dun Laoghaire, Co. Dublin",725000.0,130,130 m²,3,2,Terrace,2022-07-08,B3,115225815,146.56 kWh/m2/yr,53.284771,-6.143876,Buy,ST_NICHOLAS_MONTESSORI_COLLEGE_IRELAND_DUBLIN,http://www.daft.ie/for-sale/terraced-house-54-highthorn-park-glenageary-dun-laoghaire-co-dublin/3970856
3969861,19556185,"3 Patrician Park, Kill Avenue, Dun Laoghaire, Co. Dublin",530000.0,95,95 m²,3,1,Semi-D,2022-08-10,G,,,53.282951,-6.149696,Buy,ST_NICHOLAS_MONTESSORI_COLLEGE_IRELAND_DUBLIN,http://www.daft.ie/for-sale/semi-detached-house-3-patrician-park-kill-avenue-dun-laoghaire-co-dublin/3969861
3968244,19544273,"100 Silchester Park, Glenageary, Co. Dublin",835000.0,125,125 m²,3,2,Semi-D,2022-08-10,E1,105792,332.9 kWh/m2/yr,53.280155,-6.130019,Buy,ST_NICHOLAS_MONTESSORI_COLLEGE_IRELAND_DUBLIN,http://www.daft.ie/for-sale/semi-detached-house-100-silchester-park-glenageary-co-dublin/3968244
3967896,19539571,"75 Sallynoggin Park, Sallynoggin, Co. Dublin",475000.0,101,101 m²,3,,End of Terrace,2022-08-10,E2,115204505,344.06 kWh/m2/yr,53.276944,-6.146188,Buy,ST_NICHOLAS_MONTESSORI_COLLEGE_IRELAND_DUBLIN,http://www.daft.ie/for-sale/end-of-terrace-house-75-sallynoggin-park-sallynoggin-co-dublin/3967896
3967144,19532711,"45 The Beeches, Monkstown Valley, Monkstown, Co. Dublin",645000.0,95,95 m²,3,2,End of Terrace,2022-08-10,D1,114813280,242.03 kWh/m2/yr,53.291534,-6.161529,Buy,ST_NICHOLAS_MONTESSORI_COLLEGE_IRELAND_DUBLIN,http://www.daft.ie/for-sale/end-of-terrace-house-45-the-beeches-monkstown-valley-monkstown-co-dublin/3967144
3958067,19451784,"Dun na Ri, 4 Barnhill Lawn, Dalkey, Co. Dublin",1395000.0,252,252 m²,3,3,Detached,2022-08-10,A3,,,53.278764,-6.111803,Buy,ST_NICHOLAS_MONTESSORI_COLLEGE_IRELAND_DUBLIN,http://www.daft.ie/for-sale/detached-house-dun-na-ri-4-barnhill-lawn-dalkey-co-dublin/3958067
3965213,19517191,"Tewkesbury, Ballinclea Road, Killiney, Co. Dublin",1500000.0,260,260 m²,5,3,Detached,2022-07-05,D2,103385001,267.54 kWh/m2/yr,53.267206,-6.129276,Buy,ST_NICHOLAS_MONTESSORI_COLLEGE_IRELAND_DUBLIN,http://www.daft.ie/for-sale/detached-house-tewkesbury-ballinclea-road-killiney-co-dublin/3965213
3964865,19513415,"25 Park Road, Glenageary Heights, Glenageary, Co. Dublin",625000.0,103,103 m²,3,2,Semi-D,2022-08-10,D2,115212847,261.74 kWh/m2/yr,53.275606,-6.135371,Buy,ST_NICHOLAS_MONTESSORI_COLLEGE_IRELAND_DUBLIN,http://www.daft.ie/for-sale/semi-detached-house-25-park-road-glenageary-heights-glenageary-co-dublin/3964865
3964862,19513405,"20 Kill Avenue, Dun Laoghaire, Co. Dublin",550000.0,142,142 m²,4,2,Semi-D,2022-08-10,D2,114402498,286.08 kWh/m2/yr,53.28265,-6.148958,Buy,ST_NICHOLAS_MONTESSORI_COLLEGE_IRELAND_DUBLIN,http://www.daft.ie/for-sale/semi-detached-house-20-kill-avenue-dun-laoghaire-co-dublin/3964862
3962526,19497881,"6 Pakenham Road, Monkstown, Co. Dublin",800000.0,115,115 m²,3,1,Detached,2022-08-10,G,115208423,841.92 kWh/m2/yr,53.293232,-6.149293,Buy,ST_NICHOLAS_MONTESSORI_COLLEGE_IRELAND_DUBLIN,http://www.daft.ie/for-sale/detached-house-6-pakenham-road-monkstown-co-dublin/3962526
3960271,19474744,"58 Eden Villas, Glasthule, Co. Dublin",449950.0,64,64 m²,2,1,Terrace,2022-08-05,D2,113795256,279.27 kWh/m2/yr,53.284018,-6.126809,Buy,ST_NICHOLAS_MONTESSORI_COLLEGE_IRELAND_DUBLIN,http://www.daft.ie/for-sale/terraced-house-58-eden-villas-glasthule-co-dublin/3960271
3956696,19440005,"10 Barnhill Grove, Barnhill Road, Dalkey, Co. Dublin",1200000.0,195,195 m²,4,3,Semi-D,2022-08-10,E2,113718977,363.93 kWh/m2/yr,53.278234,-6.111237,Buy,ST_NICHOLAS_MONTESSORI_COLLEGE_IRELAND_DUBLIN,http://www.daft.ie/for-sale/semi-detached-house-10-barnhill-grove-barnhill-road-dalkey-co-dublin/3956696
3956257,19434868,"51 Mackintosh Park, Dun Laoghaire, Co. Dublin",465000.0,98,98 m²,3,1,Detached,2022-08-10,E1,108708330,315.99 kWh/m2/yr,53.273735,-6.155763,Buy,ST_NICHOLAS_MONTESSORI_COLLEGE_IRELAND_DUBLIN,http://www.daft.ie/for-sale/detached-house-51-mackintosh-park-dun-laoghaire-co-dublin/3956257
3956078,19432916,"1 Glengarriff, Dun Laoghaire, Co. Dublin",875000.0,158,158 m²,4,3,Detached,2022-08-10,C2,106280688,198.49 kWh/m2/yr,53.266389,-6.137272,Buy,ST_NICHOLAS_MONTESSORI_COLLEGE_IRELAND_DUBLIN,http://www.daft.ie/for-sale/detached-house-1-glengarriff-dun-laoghaire-co-dublin/3956078
3955829,19429133,"10 Ulverton Close, Dalkey, Co. Dublin",1275000.0,164,164 m²,5,3,Detached,2022-08-10,E1,107216400,303.78 kWh/m2/yr,53.2812,-6.107945,Buy,ST_NICHOLAS_MONTESSORI_COLLEGE_IRELAND_DUBLIN,http://www.daft.ie/for-sale/detached-house-10-ulverton-close-dalkey-co-dublin/3955829
3955680,19427047,"12 Brook Court Monkstown, Monkstown, Co. Dublin",895000.0,157,157 m²,4,3,Detached,2022-08-10,F,101274009,399.0 kWh/m2/yr,53.289011,-6.158611,Buy,ST_NICHOLAS_MONTESSORI_COLLEGE_IRELAND_DUBLIN,http://www.daft.ie/for-sale/detached-house-12-brook-court-monkstown-monkstown-co-dublin/3955680
3949335,19414915,"83 Pearse Gardens, Sallynoggin, Co. Dublin",370000.0,72,72 m²,2,1,Terrace,2022-08-10,F,,,53.275708,-6.143336,Buy,ST_NICHOLAS_MONTESSORI_COLLEGE_IRELAND_DUBLIN,http://www.daft.ie/for-sale/terraced-house-83-pearse-gardens-sallynoggin-co-dublin/3949335
3949310,19413351,"35 Hillside Dalkey, Dalkey, Co. Dublin",795000.0,124,124 m²,3,2,Semi-D,2022-08-10,F,115168387,410.23 kWh/m2/yr,53.275695,-6.113411,Buy,ST_NICHOLAS_MONTESSORI_COLLEGE_IRELAND_DUBLIN,http://www.daft.ie/for-sale/semi-detached-house-35-hillside-dalkey-dalkey-co-dublin/3949310
3947119,19394697,"3 Traverslea Close, Glenageary Road Lower, Glenageary, Dun Laoghaire, Co. Dublin",1595000.0,218,218 m²,3,3,Detached,2022-08-10,B2,115049413,124.07 kWh/m2/yr,53.285133,-6.132146,Buy,ST_NICHOLAS_MONTESSORI_COLLEGE_IRELAND_DUBLIN,http://www.daft.ie/for-sale/detached-house-3-traverslea-close-glenageary-road-lower-glenageary-dun-laoghaire-co-dublin/3947119
3946684,19389705,"26 Claremont Avenue, Honeypark, Dun Laoghaire, Co. Dublin",950000.0,186,186 m²,4,3,Terrace,2022-08-10,A3,104324462,55.91 kWh/m2/yr,53.282077,-6.145836,Buy,ST_NICHOLAS_MONTESSORI_COLLEGE_IRELAND_DUBLIN,http://www.daft.ie/for-sale/terraced-house-26-claremont-avenue-honeypark-dun-laoghaire-co-dublin/3946684
3946359,19385396,"Kyle, 9 Arkendale Road Glenageary, Glenageary, Co. Dublin",1750000.0,242,242 m²,5,3,Semi-D,2022-08-10,C1,108611328,167.53 kWh/m2/yr,53.280869,-6.118292,Buy,ST_NICHOLAS_MONTESSORI_COLLEGE_IRELAND_DUBLIN,http://www.daft.ie/for-sale/semi-detached-house-kyle-9-arkendale-road-glenageary-glenageary-co-dublin/3946359
3945916,19380234,"51 Thomastown Road, Glenageary, Co. Dublin",699950.0,125,125 m²,4,2,Semi-D,2022-08-05,E2,115039331,361.08 kWh/m2/yr,53.268627,-6.134233,Buy,ST_NICHOLAS_MONTESSORI_COLLEGE_IRELAND_DUBLIN,http://www.daft.ie/for-sale/semi-detached-house-51-thomastown-road-glenageary-co-dublin/3945916
3944371,19366765,"18 Fairway Drive, Cualanor, Glenageary Road Upper, Dun Laoghaire, Co. Dublin",995000.0,213,213 m²,5,4,End of Terrace,2022-08-10,A2,112297460,46.4 kWh/m2/yr,53.284805,-6.13949,Buy,ST_NICHOLAS_MONTESSORI_COLLEGE_IRELAND_DUBLIN,http://www.daft.ie/for-sale/end-of-terrace-house-18-fairway-drive-cualanor-glenageary-road-upper-dun-laoghaire-co-dublin/3944371
3940769,19332161,"The Mews, 1a Richmond Hill, Monkstown, Co. Dublin",795000.0,161,161 m²,1,1,Detached,2022-08-10,A3,109831461,66.2 kWh/m2/yr,53.291975,-6.152037,Buy,ST_NICHOLAS_MONTESSORI_COLLEGE_IRELAND_DUBLIN,http://www.daft.ie/for-sale/detached-house-the-mews-1a-richmond-hill-monkstown-co-dublin/3940769
3938205,19307047,"55a Patrick Street, Dun Laoghaire, Co. Dublin",695000.0,120,120 m²,2,1,Terrace,2022-08-10,C3,106958549,213.93 kWh/m2/yr,53.288413,-6.138624,Buy,ST_NICHOLAS_MONTESSORI_COLLEGE_IRELAND_DUBLIN,http://www.daft.ie/for-sale/terraced-house-55a-patrick-street-dun-laoghaire-co-dublin/3938205
3937911,19304315,"62 Kill Avenue, Dun Laoghaire, Co. Dublin",445000.0,80,80 m²,3,1,End of Terrace,2022-08-10,E2,115162059,374.95 kWh/m2/yr,53.281345,-6.157185,Buy,ST_NICHOLAS_MONTESSORI_COLLEGE_IRELAND_DUBLIN,http://www.daft.ie/for-sale/end-of-terrace-house-62-kill-avenue-dun-laoghaire-co-dublin/3937911
3936619,19292122,"183 Clonkeen Crescent, Dun Laoghaire, Co. Dublin",650000.0,170,170 m²,4,3,Semi-D,2022-07-26,D1,105704266,231.39 kWh/m2/yr,53.277078,-6.158824,Buy,ST_NICHOLAS_MONTESSORI_COLLEGE_IRELAND_DUBLIN,http://www.daft.ie/for-sale/semi-detached-house-183-clonkeen-crescent-dun-laoghaire-co-dublin/3936619
3936106,19284505,"1 Crofton Avenue, Dun Laoghaire, Co. Dublin",1575000.0,250,250 m²,4,3,End of Terrace,2022-08-10,,,,53.295051,-6.138249,Buy,ST_NICHOLAS_MONTESSORI_COLLEGE_IRELAND_DUBLIN,http://www.daft.ie/for-sale/end-of-terrace-house-1-crofton-avenue-dun-laoghaire-co-dublin/3936106
3932168,19246682,"The Mews, 15A Longford Terrace, Monkstown, Co. Dublin",850000.0,115,115 m²,3,1,Detached,2022-06-29,E1,105556286,306.5 kWh/m2/yr,53.294153,-6.151693,Buy,ST_NICHOLAS_MONTESSORI_COLLEGE_IRELAND_DUBLIN,http://www.daft.ie/for-sale/detached-house-the-mews-15a-longford-terrace-monkstown-co-dublin/3932168
3934317,19268508,"22 Corrig Park, Dun Laoghaire, Co. Dublin",600000.0,69,69 m²,2,1,Semi-D,2022-07-12,E1,104325410,326.95 kWh/m2/yr,53.288014,-6.135866,Buy,ST_NICHOLAS_MONTESSORI_COLLEGE_IRELAND_DUBLIN,http://www.daft.ie/for-sale/semi-detached-house-22-corrig-park-dun-laoghaire-co-dublin/3934317
3932130,19246174,"83 Rockford Park, Blackrock, Co. Dublin",475000.0,76,76 m²,3,1,Semi-D,2022-07-14,D2,,,53.286622,-6.164646,Buy,ST_NICHOLAS_MONTESSORI_COLLEGE_IRELAND_DUBLIN,http://www.daft.ie/for-sale/semi-detached-house-83-rockford-park-blackrock-co-dublin/3932130
3930061,19230963,"40 Silchester Park, Glenageary, Co. Dublin",995000.0,133,133 m²,5,2,Semi-D,2022-08-10,C3,115004491,217.34 kWh/m2/yr,53.28231,-6.132791,Buy,ST_NICHOLAS_MONTESSORI_COLLEGE_IRELAND_DUBLIN,http://www.daft.ie/for-sale/semi-detached-house-40-silchester-park-glenageary-co-dublin/3930061
3929422,19224228,"241D, Pottery Road, Dun Laoghaire, Co. Dublin",570000.0,N/A,,3,1,Semi-D,2022-08-10,D2,114875925,271.31 kWh/m2/yr,53.268751,-6.150569,Buy,ST_NICHOLAS_MONTESSORI_COLLEGE_IRELAND_DUBLIN,http://www.daft.ie/for-sale/semi-detached-house-241d-pottery-road-dun-laoghaire-co-dublin/3929422
3928908,19217676,"64 Arnold Park, Glenageary, Co. Dublin",825000.0,152,152 m²,4,2,Semi-D,2022-08-10,D2,112924642,277.7 kWh/m2/yr,53.272747,-6.131339,Buy,ST_NICHOLAS_MONTESSORI_COLLEGE_IRELAND_DUBLIN,http://www.daft.ie/for-sale/semi-detached-house-64-arnold-park-glenageary-co-dublin/3928908
3928452,19211342,"Rathbarry, Silchester Road, Glenageary, Co. Dublin",4500000.0,274,274 m²,5,2,Detached,2022-08-10,F,114860174,384.81 kWh/m2/yr,53.281179,-6.126927,Buy,ST_NICHOLAS_MONTESSORI_COLLEGE_IRELAND_DUBLIN,http://www.daft.ie/for-sale/detached-house-rathbarry-silchester-road-glenageary-co-dublin/3928452
3928451,19211341,"31 Oakdale Drive, Glenageary, Co. Dublin",695000.0,138,138 m²,4,3,Semi-D,2022-08-10,G,115026726,524.55 kWh/m2/yr,53.271179,-6.14568,Buy,ST_NICHOLAS_MONTESSORI_COLLEGE_IRELAND_DUBLIN,http://www.daft.ie/for-sale/semi-detached-house-31-oakdale-drive-glenageary-co-dublin/3928451
3926525,19192848,"Thorndene, 87 Monkstown Road, Monkstown, Co. Dublin",3500000.0,279,279 m²,4,2,Detached,2022-08-10,C3,113813935,203.81 kWh/m2/yr,53.293391,-6.155638,Buy,ST_NICHOLAS_MONTESSORI_COLLEGE_IRELAND_DUBLIN,http://www.daft.ie/for-sale/detached-house-thorndene-87-monkstown-road-monkstown-co-dublin/3926525
3925156,19176723,"Fieldhouse 44 Silchester Road Glenageary, Glenageary, Co. Dublin",1395000.0,219,219 m²,4,2,Detached,2022-08-10,G,114885676,570.15 kWh/m2/yr,53.283715,-6.13147,Buy,ST_NICHOLAS_MONTESSORI_COLLEGE_IRELAND_DUBLIN,http://www.daft.ie/for-sale/detached-house-fieldhouse-44-silchester-road-glenageary-glenageary-co-dublin/3925156
3924660,19173213,"SPRING VIEW, Springhill Park, Dalkey, Co. Dublin",925000.0,150,150 m²,4,4,Detached,2022-08-10,B2,,,53.27422804516482,-6.120459986468518,Buy,ST_NICHOLAS_MONTESSORI_COLLEGE_IRELAND_DUBLIN,http://www.daft.ie/for-sale/detached-house-spring-view-springhill-park-dalkey-co-dublin/3924660
3922662,19159002,"42 Windsor Park, Monkstown, Co. Dublin",795000.0,124,124 m²,3,3,Semi-D,2022-08-10,F,115021941,388.45 kWh/m2/yr,53.288101,-6.160308,Buy,ST_NICHOLAS_MONTESSORI_COLLEGE_IRELAND_DUBLIN,http://www.daft.ie/for-sale/semi-detached-house-42-windsor-park-monkstown-co-dublin/3922662
3921515,19149309,"Meer, Church Road, Killiney, Co. Dublin",1299950.0,269,269 m²,4,3,Detached,2022-08-05,SI_666,,,53.262746,-6.129369,Buy,ST_NICHOLAS_MONTESSORI_COLLEGE_IRELAND_DUBLIN,http://www.daft.ie/for-sale/detached-house-meer-church-road-killiney-co-dublin/3921515
3755968,18280316,"1 Bayswater Terrace, Breffni Road, Sandycove, Co. Dublin",2500000.0,370,370 m²,4,4,End of Terrace,2022-08-10,,,,53.285522,-6.111312,Buy,ST_NICHOLAS_MONTESSORI_COLLEGE_IRELAND_DUBLIN,http://www.daft.ie/for-sale/end-of-terrace-house-1-bayswater-terrace-breffni-road-sandycove-co-dublin/3755968
3919170,19128983,"11 Woodlands Drive, Cabinteely, Dublin 18",730000.0,146,146 m²,6,2,Semi-D,2022-08-10,E1,,,53.264718,-6.144217,Buy,ST_NICHOLAS_MONTESSORI_COLLEGE_IRELAND_DUBLIN,http://www.daft.ie/for-sale/semi-detached-house-11-woodlands-drive-cabinteely-dublin-18/3919170
3919350,19130354,"26 Rockford Manor, Stradbrook Road, Blackrock, Co. Dublin",625000.0,112,112 m²,3,2,Terrace,2022-08-10,C1,106882343,174.0 kWh/m2/yr,53.287715,-6.16437,Buy,ST_NICHOLAS_MONTESSORI_COLLEGE_IRELAND_DUBLIN,http://www.daft.ie/for-sale/terraced-house-26-rockford-manor-stradbrook-road-blackrock-co-dublin/3919350
3917597,19112497,"2 Crosthwaite Hall, Glenageary Road Lower, Glenageary, Co. Dublin",1045000.0,183,183 m²,3,2,Terrace,2022-08-03,C1,108717331,161.99 kWh/m2/yr,53.284508,-6.133177,Buy,ST_NICHOLAS_MONTESSORI_COLLEGE_IRELAND_DUBLIN,http://www.daft.ie/for-sale/terraced-house-2-crosthwaite-hall-glenageary-road-lower-glenageary-co-dublin/3917597
3916785,19105627,"Ebani Lower Glenageary Road Glenageary, Glenageary, Co. Dublin",1795000.0,236,236 m²,4,3,Detached,2022-08-10,D2,115010076,276.74 kWh/m2/yr,53.281588,-6.135144,Buy,ST_NICHOLAS_MONTESSORI_COLLEGE_IRELAND_DUBLIN,http://www.daft.ie/for-sale/detached-house-ebani-lower-glenageary-road-glenageary-glenageary-co-dublin/3916785
3916652,19104136,"Weatheroak, 46 Killiney Road, Killiney, Co. Dublin",1400000.0,190,190 m²,4,1,Semi-D,2022-08-10,D1,109715698,241.97 kWh/m2/yr,53.272357,-6.121487,Buy,ST_NICHOLAS_MONTESSORI_COLLEGE_IRELAND_DUBLIN,http://www.daft.ie/for-sale/semi-detached-house-weatheroak-46-killiney-road-killiney-co-dublin/3916652
3916133,19100656,"23 Library Road, Dun Laoghaire, Co. Dublin",350000.0,60,60 m²,2,1,Terrace,2022-08-10,F,115017337,420.62 kWh/m2/yr,53.292345,-6.141073,Buy,ST_NICHOLAS_MONTESSORI_COLLEGE_IRELAND_DUBLIN,http://www.daft.ie/for-sale/terraced-house-23-library-road-dun-laoghaire-co-dublin/3916133
3913194,19075012,"84 Windsor Drive, Monkstown, Co. Dublin",795000.0,141,141 m²,4,1,Semi-D,2022-05-30,E2,115009847,340.8 kWh/m2/yr,53.288343,-6.158665,Buy,ST_NICHOLAS_MONTESSORI_COLLEGE_IRELAND_DUBLIN,http://www.daft.ie/for-sale/semi-detached-house-84-windsor-drive-monkstown-co-dublin/3913194
3913190,19073923,"5 Beeches Park, Off Station Road, Glenageary, Co. Dublin",975000.0,141,141 m²,4,2,Detached,2022-08-10,F,115013146,448.2 kWh/m2/yr,53.279717,-6.121989,Buy,ST_NICHOLAS_MONTESSORI_COLLEGE_IRELAND_DUBLIN,http://www.daft.ie/for-sale/detached-house-5-beeches-park-off-station-road-glenageary-co-dublin/3913190
3910659,19056493,"37 Richmond Park, Monkstown, Co. Dublin",595000.0,66,66 m²,2,1,Terrace,2022-08-09,C3,114807423,214.04 kWh/m2/yr,53.290615,-6.15746,Buy,ST_NICHOLAS_MONTESSORI_COLLEGE_IRELAND_DUBLIN,http://www.daft.ie/for-sale/terraced-house-37-richmond-park-monkstown-co-dublin/3910659
3908605,19032323,"Kremasti, 12 Beech Court, Killiney, Co. Dublin",1295000.0,260,260 m²,5,4,Detached,2022-08-10,D1,114877772,241.74 kWh/m2/yr,53.265464,-6.132615,Buy,ST_NICHOLAS_MONTESSORI_COLLEGE_IRELAND_DUBLIN,http://www.daft.ie/for-sale/detached-house-kremasti-12-beech-court-killiney-co-dublin/3908605
3902477,18977669,"Martinez Upper Glenageary Road Glenageary, Glenageary, Co. Dublin",1150000.0,N/A,,4,3,Semi-D,2022-05-30,C2,100798461,199.47 kWh/m2/yr,53.279209,-6.132258,Buy,ST_NICHOLAS_MONTESSORI_COLLEGE_IRELAND_DUBLIN,http://www.daft.ie/for-sale/semi-detached-house-martinez-upper-glenageary-road-glenageary-glenageary-co-dublin/3902477
3902475,18977668,"Radharc Na Mara Upper Glenageary Road Glenageary, Glenageary, Co. Dublin",1100000.0,N/A,,4,3,Semi-D,2022-08-10,C2,114795842,195.85 kWh/m2/yr,53.279209,-6.132258,Buy,ST_NICHOLAS_MONTESSORI_COLLEGE_IRELAND_DUBLIN,http://www.daft.ie/for-sale/semi-detached-house-radharc-na-mara-upper-glenageary-road-glenageary-glenageary-co-dublin/3902475
3900058,18954327,"Langdale, 36 Silchester Road, Glenageary, Co. Dublin",3000000.0,355,355 m²,5,3,Detached,2022-08-10,D2,114651193,269.8 kWh/m2/yr,53.283159,-6.129861,Buy,ST_NICHOLAS_MONTESSORI_COLLEGE_IRELAND_DUBLIN,http://www.daft.ie/for-sale/detached-house-langdale-36-silchester-road-glenageary-co-dublin/3900058
3899806,18951028,"Cathleens, Cathleens, 45 Northumberland Avenue, Dun Laoghaire, Co. Dublin",10500000.0,252,252 m²,5,3,Detached,2022-08-09,F,114884067,395.67 kWh/m2/yr,53.290737,-6.135189,Buy,ST_NICHOLAS_MONTESSORI_COLLEGE_IRELAND_DUBLIN,http://www.daft.ie/for-sale/detached-house-cathleens-cathleens-45-northumberland-avenue-dun-laoghaire-co-dublin/3899806
3822748,18844428,"6 Myrtle Park, Dun Laoghaire, Co. Dublin",1200000.0,198,198 m²,4,3,Semi-D,2022-08-08,C1,114561715,152.22 kWh/m2/yr,53.285352,-6.136396,Buy,ST_NICHOLAS_MONTESSORI_COLLEGE_IRELAND_DUBLIN,http://www.daft.ie/for-sale/semi-detached-house-6-myrtle-park-dun-laoghaire-co-dublin/3822748
3820219,18816758,"33 Kill Avenue, Dun Laoghaire, Co. Dublin",675000.0,106,106 m²,3,1,Semi-D,2022-08-10,C3,103411377,211.62 kWh/m2/yr,53.282377,-6.151804,Buy,ST_NICHOLAS_MONTESSORI_COLLEGE_IRELAND_DUBLIN,http://www.daft.ie/for-sale/semi-detached-house-33-kill-avenue-dun-laoghaire-co-dublin/3820219
3819916,18814996,"2 Cliff Terrace, Breffni Road, Sandycove, Co. Dublin",2500000.0,252,252 m²,5,3,Terrace,2022-08-10,,,,53.285784,-6.111676,Buy,ST_NICHOLAS_MONTESSORI_COLLEGE_IRELAND_DUBLIN,http://www.daft.ie/for-sale/terraced-house-2-cliff-terrace-breffni-road-sandycove-co-dublin/3819916
3815531,18775644,"St David's, 9 Marine Terrace, Dun Laoghaire, Co. Dublin",1975000.0,334,334 m²,5,4,Terrace,2022-08-10,,,,53.29109,-6.128944,Buy,ST_NICHOLAS_MONTESSORI_COLLEGE_IRELAND_DUBLIN,http://www.daft.ie/for-sale/terraced-house-st-davids-9-marine-terrace-dun-laoghaire-co-dublin/3815531
3815174,18772212,"1 Maypark Avenue, Honey Park, Dun Laoghaire, Co. Dublin",995000.0,188,188 m²,5,3,End of Terrace,2022-08-10,A3,105882898,55.3 kWh/m2/yr,53.281414,-6.14415,Buy,ST_NICHOLAS_MONTESSORI_COLLEGE_IRELAND_DUBLIN,http://www.daft.ie/for-sale/end-of-terrace-house-1-maypark-avenue-honey-park-dun-laoghaire-co-dublin/3815174
3806237,18703292,"51 Arnold Grove, Glenageary, Co. Dublin",995000.0,222,222 m²,5,4,Semi-D,2022-08-10,C2,114371271,184.18 kWh/m2/yr,53.273656,-6.131479,Buy,ST_NICHOLAS_MONTESSORI_COLLEGE_IRELAND_DUBLIN,http://www.daft.ie/for-sale/semi-detached-house-51-arnold-grove-glenageary-co-dublin/3806237
3805858,18698512,"Crosthwaite Park House, 2 Crosthwaite Park East, Dun Laoghaire, Co. Dublin",2100000.0,415,415 m²,6,3,End of Terrace,2022-08-10,,,,53.286798,-6.133285,Buy,ST_NICHOLAS_MONTESSORI_COLLEGE_IRELAND_DUBLIN,http://www.daft.ie/for-sale/end-of-terrace-house-crosthwaite-park-house-2-crosthwaite-park-east-dun-laoghaire-co-dublin/3805858
3805373,18692782,"6 O'Donnell Gardens, Glasthule, Co. Dublin",675000.0,85,85 m²,3,2,End of Terrace,2022-08-10,B3,,,53.286238,-6.126941,Buy,ST_NICHOLAS_MONTESSORI_COLLEGE_IRELAND_DUBLIN,http://www.daft.ie/for-sale/end-of-terrace-house-6-odonnell-gardens-glasthule-co-dublin/3805373
3805246,18691778,"16 Longford Terrace, Monkstown, Co. Dublin",1750000.0,469,469 m²,6,3,End of Terrace,2022-08-10,,,,53.294409,-6.151208,Buy,ST_NICHOLAS_MONTESSORI_COLLEGE_IRELAND_DUBLIN,http://www.daft.ie/for-sale/end-of-terrace-house-16-longford-terrace-monkstown-co-dublin/3805246
3797034,18621351,"Rose Cottage, 10 Rochestown Avenue, Dun Laoghaire, Co. Dublin",575000.0,63,63 m²,3,1,Detached,2022-08-08,C3,114364458,209.44 kWh/m2/yr,53.278773,-6.156298,Buy,ST_NICHOLAS_MONTESSORI_COLLEGE_IRELAND_DUBLIN,http://www.daft.ie/for-sale/detached-house-rose-cottage-10-rochestown-avenue-dun-laoghaire-co-dublin/3797034
3795684,18609339,"Bohy, 13 Sandycove Road, Sandycove, Co. Dublin",1500000.0,210,210 m²,4,2,Semi-D,2022-07-13,C1,100281021,166.96 kWh/m2/yr,53.285934,-6.118295,Buy,ST_NICHOLAS_MONTESSORI_COLLEGE_IRELAND_DUBLIN,http://www.daft.ie/for-sale/semi-detached-house-bohy-13-sandycove-road-sandycove-co-dublin/3795684
3780083,18476477,"14 Vesey Place, Dun Laoghaire, Co. Dublin",1695000.0,333,333 m²,5,2,Terrace,2022-08-10,,,,53.291991,-6.144078,Buy,ST_NICHOLAS_MONTESSORI_COLLEGE_IRELAND_DUBLIN,http://www.daft.ie/for-sale/terraced-house-14-vesey-place-dun-laoghaire-co-dublin/3780083
3778664,18462472,"10 Sefton Rochestown Avenue Dun Laoghaire, Dun Laoghaire, Co. Dublin",995000.0,186,186 m²,4,3,Detached,2022-08-10,E1,114769870,315.41 kWh/m2/yr,53.276536,-6.151001,Buy,ST_NICHOLAS_MONTESSORI_COLLEGE_IRELAND_DUBLIN,http://www.daft.ie/for-sale/detached-house-10-sefton-rochestown-avenue-dun-laoghaire-dun-laoghaire-co-dublin/3778664
3772868,18404829,"3 St Pauls Terrace, Glenageary, Glasthule, Co. Dublin",695000.0,110,110 m²,3,1,Terrace,2022-08-10,F,114751985,389.03 kWh/m2/yr,53.285493,-6.123289,Buy,ST_NICHOLAS_MONTESSORI_COLLEGE_IRELAND_DUBLIN,http://www.daft.ie/for-sale/terraced-house-3-st-pauls-terrace-glenageary-glasthule-co-dublin/3772868
3771307,18390500,"4 Glandore Park, Lower Mounttown Road, Dun Laoghaire, Co. Dublin",775000.0,144,144 m²,4,3,Detached,2022-06-10,F,146983683,408.86 kWh/m2/yr,53.287317,-6.145786,Buy,ST_NICHOLAS_MONTESSORI_COLLEGE_IRELAND_DUBLIN,http://www.daft.ie/for-sale/detached-house-4-glandore-park-lower-mounttown-road-dun-laoghaire-co-dublin/3771307
3766599,18366564,"6 Tivoli Close, Dun Laoghaire, Co. Dublin",850000.0,183,183 m²,5,3,Detached,2022-08-10,D1,114590821,53.28 kWh/m2/yr,53.287493,-6.143509,Buy,ST_NICHOLAS_MONTESSORI_COLLEGE_IRELAND_DUBLIN,http://www.daft.ie/for-sale/detached-house-6-tivoli-close-dun-laoghaire-co-dublin/3766599
3759568,18304979,"15 Breffni Terrace Breffni Road Sandycove, Sandycove, Co. Dublin",1850000.0,330,330 m²,5,4,End of Terrace,2022-08-10,,,,53.285227,-6.112971,Buy,ST_NICHOLAS_MONTESSORI_COLLEGE_IRELAND_DUBLIN,http://www.daft.ie/for-sale/end-of-terrace-house-15-breffni-terrace-breffni-road-sandycove-sandycove-co-dublin/3759568
3757749,18292425,"6 Knapton Terrace, Knapton Road, Monkstown, Co. Dublin",2250000.0,266,266 m²,4,3,Terrace,2022-08-10,,,,53.290554,-6.146133,Buy,ST_NICHOLAS_MONTESSORI_COLLEGE_IRELAND_DUBLIN,http://www.daft.ie/for-sale/terraced-house-6-knapton-terrace-knapton-road-monkstown-co-dublin/3757749
3745870,18192636,"107 Granitefield, Dun Laoghaire, Co. Dublin",650000.0,131,131 m²,3,2,Semi-D,2022-08-10,F,114668650,443.38 kWh/m2/yr,53.269008,-6.145004,Buy,ST_NICHOLAS_MONTESSORI_COLLEGE_IRELAND_DUBLIN,http://www.daft.ie/for-sale/semi-detached-house-107-granitefield-dun-laoghaire-co-dublin/3745870
3729891,18035564,"28 Greenville Road Blackrock, Blackrock, Co. Dublin",895000.0,138,138 m²,4,2,Semi-D,2022-07-01,D1,106629165,251.24 kWh/m2/yr,53.293672,-6.165073,Buy,ST_NICHOLAS_MONTESSORI_COLLEGE_IRELAND_DUBLIN,http://www.daft.ie/for-sale/semi-detached-house-28-greenville-road-blackrock-blackrock-co-dublin/3729891
3700687,17796854,"73 Richmond Park, Monkstown, Co. Dublin",615000.0,91,91 m²,2,2,Semi-D,2022-08-10,C3,114631153,20.93 kWh/m2/yr,53.290892,-6.155944,Buy,ST_NICHOLAS_MONTESSORI_COLLEGE_IRELAND_DUBLIN,http://www.daft.ie/for-sale/semi-detached-house-73-richmond-park-monkstown-co-dublin/3700687
3695729,17752743,"37 Clarinda Park West, Dun Laoghaire, Co. Dublin",995000.0,218,218 m²,8,4,End of Terrace,2022-08-10,,,,53.287924,-6.133141,Buy,ST_NICHOLAS_MONTESSORI_COLLEGE_IRELAND_DUBLIN,http://www.daft.ie/for-sale/end-of-terrace-house-37-clarinda-park-west-dun-laoghaire-co-dublin/3695729
3689292,17698461,"The Mews, The Mews, 5 Breffni Terrace, Sandycove, Co. Dublin",395000.0,61,61 m²,2,2,Terrace,2022-08-10,G,114595804,562.95 kWh/m2/yr,53.285055,-6.113339,Buy,ST_NICHOLAS_MONTESSORI_COLLEGE_IRELAND_DUBLIN,http://www.daft.ie/for-sale/terraced-house-the-mews-the-mews-5-breffni-terrace-sandycove-co-dublin/3689292
3682120,17647333,"5 Breffni Terrace, Sandycove, Co. Dublin",1675000.0,306,306 m²,5,4,Terrace,2022-06-24,,,,53.285379,-6.112901,Buy,ST_NICHOLAS_MONTESSORI_COLLEGE_IRELAND_DUBLIN,http://www.daft.ie/for-sale/terraced-house-5-breffni-terrace-sandycove-co-dublin/3682120
3639222,17123123,"6 Southdene, Monkstown Valley, Monkstown, Co. Dublin",475000.0,57,57 m²,2,1,Terrace,2022-06-28,D1,101283471,249.62 kWh/m2/yr,53.292748,-6.160051,Buy,ST_NICHOLAS_MONTESSORI_COLLEGE_IRELAND_DUBLIN,http://www.daft.ie/for-sale/terraced-house-6-southdene-monkstown-valley-monkstown-co-dublin/3639222
3577747,16533856,"Lisieux Mews 5 Charlemont Lane Dun Laoghaire, Dun Laoghaire, Co. Dublin",650000.0,77,77 m²,2,1,Terrace,2022-08-10,C2,114290521,188.13 kWh/m2/yr,53.29495,-6.137408,Buy,ST_NICHOLAS_MONTESSORI_COLLEGE_IRELAND_DUBLIN,http://www.daft.ie/for-sale/terraced-house-lisieux-mews-5-charlemont-lane-dun-laoghaire-dun-laoghaire-co-dublin/3577747
3523268,16114853,"4 Vesey Place, Monkstown, Co. Dublin",2400000.0,435,435 m²,6,3,Terrace,2022-08-10,,,,53.291749,-6.145721,Buy,ST_NICHOLAS_MONTESSORI_COLLEGE_IRELAND_DUBLIN,http://www.daft.ie/for-sale/terraced-house-4-vesey-place-monkstown-co-dublin/3523268
3517653,16090833,"15 the grange, Blackrock, Co. Dublin",640000.0,90,90 m²,3,2,Semi-D,2022-08-10,D1,,,53.27989525320949,-6.159071033139181,Buy,ST_NICHOLAS_MONTESSORI_COLLEGE_IRELAND_DUBLIN,http://www.daft.ie/for-sale/semi-detached-house-15-the-grange-blackrock-co-dublin/3517653
2606242,12778688,"Belgrave Lodge, 1 Belgrave Terrace, Monkstown, Co. Dublin",2500000.0,368,368 m²,6,4,End of Terrace,2022-08-10,D2,112968839,299.1 kWh/m2/yr,53.296874,-6.163224,Buy,ST_NICHOLAS_MONTESSORI_COLLEGE_IRELAND_DUBLIN,http://www.daft.ie/for-sale/end-of-terrace-house-belgrave-lodge-1-belgrave-terrace-monkstown-co-dublin/2606242
3465262,15663680,"8 Montpelier Parade Monkstown Road Monkstown, Monkstown, Co. Dublin",2150000.0,400,400 m²,5,4,End of Terrace,2022-08-10,,,,53.295059,-6.165225,Buy,ST_NICHOLAS_MONTESSORI_COLLEGE_IRELAND_DUBLIN,http://www.daft.ie/for-sale/end-of-terrace-house-8-montpelier-parade-monkstown-road-monkstown-monkstown-co-dublin/3465262
3517653,16090833,"15 the grange, Blackrock, Co. Dublin",640000.0,90,90 m²,3,2,Semi-D,2022-08-10,D1,,,53.27989525320949,-6.159071033139181,Buy,ST_NICHOLAS_MONTESSORI_COLLEGE_IRELAND_DUBLIN,http://www.daft.ie/for-sale/semi-detached-house-15-the-grange-blackrock-co-dublin/3517653
