id,daftShortcode,title,price,size_meters_squared,propertySize,bedrooms,bathrooms,propertyType,publishDate,ber_rating,ber_code,ber_epi,latitude,longitude,category,location,url_link
3930077,19231542,"Apt45 Seamount, Booterstown, Co. Dublin",330000.0,48,48 m²,1,1,Apartment,2022-08-10,C3,10265576,219.82 kWh/m2/yr,53.306913,-6.202821,Buy,UNIVERSITY_COLLEGE_DUBLIN_DUBLIN,http://www.daft.ie/for-sale/apartment-apt45-seamount-booterstown-co-dublin/3930077
3928231,19209579,"8 Claremont Court, Sandymount, Dublin 4",295000.0,36,36 m²,1,1,Apartment,2022-08-10,F,115034241,440.39 kWh/m2/yr,53.331521,-6.222348,Buy,UNIVERSITY_COLLEGE_DUBLIN_DUBLIN,http://www.daft.ie/for-sale/apartment-8-claremont-court-sandymount-dublin-4/3928231
3919372,19131360,"Apartment 160, Bloomfield Park, Donnybrook, Dublin 4",550000.0,71,71 m²,2,2,Apartment,2022-08-09,C1,,,53.325161,-6.244318,Buy,UNIVERSITY_COLLEGE_DUBLIN_DUBLIN,http://www.daft.ie/for-sale/apartment-apartment-160-bloomfield-park-donnybrook-dublin-4/3919372
3916315,19103551,"72 Willow Apartments, Trimblestown, Goatstown, Dublin 14",475000.0,76,76 m²,2,2,Apartment,2022-08-10,B2,106718638,122.48 kWh/m2/yr,53.298758,-6.232602,Buy,UNIVERSITY_COLLEGE_DUBLIN_DUBLIN,http://www.daft.ie/for-sale/apartment-72-willow-apartments-trimblestown-goatstown-dublin-14/3916315
3909247,19039915,"Apartment 19, Lapwing, Booterstown, Co. Dublin",389950.0,N/A,,2,2,Apartment,2022-08-05,C1,,,53.300201,-6.204379,Buy,UNIVERSITY_COLLEGE_DUBLIN_DUBLIN,http://www.daft.ie/for-sale/apartment-apartment-19-lapwing-booterstown-co-dublin/3909247
3903799,18989807,"202 Trimbleston, Goatstown Road, Clonskeagh, Dublin 14",495000.0,72,72 m²,2,2,Apartment,2022-08-10,C2,,,53.298354,-6.23132,Buy,UNIVERSITY_COLLEGE_DUBLIN_DUBLIN,http://www.daft.ie/for-sale/apartment-202-trimbleston-goatstown-road-clonskeagh-dublin-14/3903799
3903551,18986910,"7 Claremont Court, Claremont Road, Sandymount, Dublin 4",325000.0,45,45 m²,1,,Apartment,2022-08-10,G,103330361,730.95 kWh/m2/yr,53.331521,-6.222348,Buy,UNIVERSITY_COLLEGE_DUBLIN_DUBLIN,http://www.daft.ie/for-sale/apartment-7-claremont-court-claremont-road-sandymount-dublin-4/3903551
3823870,18853720,"21 Anglesea House,  Court, Ballsbridge, Co. Dublin",375000.0,64,64 m²,2,1,Apartment,2022-08-10,D2,102901865,290.14 kWh/m2/yr,53.33145,-6.226472,Buy,UNIVERSITY_COLLEGE_DUBLIN_DUBLIN,http://www.daft.ie/for-sale/apartment-21-anglesea-house-court-ballsbridge-co-dublin/3823870
3813231,18755561,"49 The Sweepstakes, Ballsbridge, Ballsbridge, Dublin 4",1250000.0,197,197 m²,3,3,Apartment,2022-08-09,C2,113914030,188.7 kWh/m2/yr,53.331345,-6.228703,Buy,UNIVERSITY_COLLEGE_DUBLIN_DUBLIN,http://www.daft.ie/for-sale/apartment-49-the-sweepstakes-ballsbridge-ballsbridge-dublin-4/3813231
3796951,18621269,"Apartment, 22 Clyde House, Ballsbridge Court, Serpentine Avenue, Ballsbridge, Dublin 4",325000.0,44,44 m²,1,1,Apartment,2022-08-10,E1,112586821,,53.331042,-6.225986,Buy,UNIVERSITY_COLLEGE_DUBLIN_DUBLIN,http://www.daft.ie/for-sale/apartment-apartment-22-clyde-house-ballsbridge-court-serpentine-avenue-ballsbridge-dublin-4/3796951
3251671,15011796,"Penthouse Apartment, Holyrood Castle, Holyrood Park, Sandymount, Dublin 4",1350000.0,247,247 m²,2,3,Apartment,2022-08-10,E1,113863393,326.51 kWh/m2/yr,53.328997,-6.22103,Buy,UNIVERSITY_COLLEGE_DUBLIN_DUBLIN,http://www.daft.ie/for-sale/apartment-penthouse-apartment-holyrood-castle-holyrood-park-sandymount-dublin-4/3251671
3790978,18575576,"29 Ashgrove Court, Sandyford Road, Dundrum, Dublin 16",375000.0,63,63 m²,2,2,Apartment,2022-08-10,C3,109673574,223.32 kWh/m2/yr,53.288826,-6.241624,Buy,UNIVERSITY_COLLEGE_DUBLIN_DUBLIN,http://www.daft.ie/for-sale/apartment-29-ashgrove-court-sandyford-road-dundrum-dublin-16/3790978
3782462,18494888,"73/74 Ardoyne House, Donnybrook, Dublin 4",1400000.0,206,206 m²,4,3,Apartment,2022-08-10,C3,101573731,217.4 kWh/m2/yr,53.327531,-6.238508,Buy,UNIVERSITY_COLLEGE_DUBLIN_DUBLIN,http://www.daft.ie/for-sale/apartment-73-74-ardoyne-house-donnybrook-dublin-4/3782462
3774244,18420948,"Apartment 12, Eglinton Court, Donnybrook, Dublin 4",425000.0,74,74 m²,2,1,Apartment,2022-08-10,E1,,,53.317771,-6.237088,Buy,UNIVERSITY_COLLEGE_DUBLIN_DUBLIN,http://www.daft.ie/for-sale/apartment-apartment-12-eglinton-court-donnybrook-dublin-4/3774244
3759278,18303441,"8 The Pines, Grove House, Milltown, Dublin 6",525000.0,92,92 m²,2,2,Apartment,2022-08-10,E1,114735533,332.15 kWh/m2/yr,53.316119,-6.244102,Buy,UNIVERSITY_COLLEGE_DUBLIN_DUBLIN,http://www.daft.ie/for-sale/apartment-8-the-pines-grove-house-milltown-dublin-6/3759278
3735692,18098170,"Apartment 64, Merrion Village, Dublin 4",395000.0,50,50 m²,2,1,Apartment,2022-08-10,D1,,,53.318976,-6.210517,Buy,UNIVERSITY_COLLEGE_DUBLIN_DUBLIN,http://www.daft.ie/for-sale/apartment-apartment-64-merrion-village-dublin-4/3735692
3666391,17489004,"Apartment 73, Shanagarry, Milltown, Dublin 6",424950.0,N/A,,2,1,Apartment,2022-06-21,C3,,,53.30905,-6.249282,Buy,UNIVERSITY_COLLEGE_DUBLIN_DUBLIN,http://www.daft.ie/for-sale/apartment-apartment-73-shanagarry-milltown-dublin-6/3666391
3556991,16293503,"Apartment 59, Block 3, Seamount, Stillorgan, Co. Dublin",535000.0,98,98 m²,3,2,Apartment,2022-08-02,B2,114288459,103.23 kWh/m2/yr,53.306913,-6.202821,Buy,UNIVERSITY_COLLEGE_DUBLIN_DUBLIN,http://www.daft.ie/for-sale/apartment-apartment-59-block-3-seamount-stillorgan-co-dublin/3556991
2843235,13339890,"The Pinnacle , Mount Merrion, Co. Dublin",Price on Application,N/A,,3,3,Apartment,2022-08-08,A3,,,53.296182168399554,-6.212671693232437,New Homes,UNIVERSITY_COLLEGE_DUBLIN_DUBLIN,http://www.daft.ie/new-home-for-sale/apartment-3-bedroom-the-pinnacle-the-pinnacle-mount-merrion-co-dublin/2843235
2843234,13339889,"The Pinnacle , Mount Merrion, Co. Dublin",Price on Application,N/A,,2,2,Apartment,2022-08-08,A3,,,53.296182168399554,-6.212671693232437,New Homes,UNIVERSITY_COLLEGE_DUBLIN_DUBLIN,http://www.daft.ie/new-home-for-sale/apartment-2-bedroom-the-pinnacle-the-pinnacle-mount-merrion-co-dublin/2843234
2843236,13339888,"The Pinnacle , Mount Merrion, Co. Dublin",Price on Application,N/A,,1,1,Apartment,2022-08-08,A3,,,53.296182168399554,-6.212671693232437,New Homes,UNIVERSITY_COLLEGE_DUBLIN_DUBLIN,http://www.daft.ie/new-home-for-sale/apartment-1-bedroom-the-pinnacle-the-pinnacle-mount-merrion-co-dublin/2843236
3968909,19548249,"3 Lakelands Road, Stillorgan, Co. Dublin",595000.0,110,110 m²,3,1,Semi-D,2022-08-10,F,115231318,385.6 kWh/m2/yr,53.284065,-6.216787,Buy,UNIVERSITY_COLLEGE_DUBLIN_DUBLIN,http://www.daft.ie/for-sale/semi-detached-house-3-lakelands-road-stillorgan-co-dublin/3968909
3968711,19547200,"98 Wilfield Road, Sandymount, Sandymount, Dublin 4",1050000.0,103,103 m²,3,2,Terrace,2022-08-05,B2,106771827,115.95 kWh/m2/yr,53.325261,-6.216946,Buy,UNIVERSITY_COLLEGE_DUBLIN_DUBLIN,http://www.daft.ie/for-sale/terraced-house-98-wilfield-road-sandymount-sandymount-dublin-4/3968711
3968110,19541342,"34 Dodder View Cottages, Ballsbridge, Dublin 4",550000.0,82,82 m²,2,1,Terrace,2022-08-10,D1,104229307,246.86 kWh/m2/yr,53.330356,-6.230481,Buy,UNIVERSITY_COLLEGE_DUBLIN_DUBLIN,http://www.daft.ie/for-sale/terraced-house-34-dodder-view-cottages-ballsbridge-dublin-4/3968110
3966095,19523470,"3 Annsbrook, Clonskeagh, Clonskeagh, Dublin 14",995000.0,162,162 m²,4,2,Detached,2022-07-10,C3,115230252,206.85 kWh/m2/yr,53.309583,-6.23739,Buy,UNIVERSITY_COLLEGE_DUBLIN_DUBLIN,http://www.daft.ie/for-sale/detached-house-3-annsbrook-clonskeagh-clonskeagh-dublin-14/3966095
3965679,19520082,"29 Ailesbury Mews, Sandymount, Dublin 4",495000.0,76,76 m²,2,1,Terrace,2022-08-08,D2,104426374,299.35 kWh/m2/yr,53.319487,-6.207468,Buy,UNIVERSITY_COLLEGE_DUBLIN_DUBLIN,http://www.daft.ie/for-sale/terraced-house-29-ailesbury-mews-sandymount-dublin-4/3965679
3965576,19518750,"16 Maple Road, Clonskeagh, Dublin 14",1695000.0,215,215 m²,4,3,Detached,2022-08-10,E1,114847239,332.67 kWh/m2/yr,53.309813,-6.241544,Buy,UNIVERSITY_COLLEGE_DUBLIN_DUBLIN,http://www.daft.ie/for-sale/detached-house-16-maple-road-clonskeagh-dublin-14/3965576
3964867,19513417,"11 Kilmacud Park, Stillorgan, Co. Dublin",695000.0,143,143 m²,4,4,Semi-D,2022-08-10,E2,113890553,342.61 kWh/m2/yr,53.288337,-6.209004,Buy,UNIVERSITY_COLLEGE_DUBLIN_DUBLIN,http://www.daft.ie/for-sale/semi-detached-house-11-kilmacud-park-stillorgan-co-dublin/3964867
3963863,19506284,"48 Fosterbrook, Stillorgan Road, Booterstown, Co. Dublin",695000.0,100,100 m²,3,2,Semi-D,2022-08-10,D2,109505917,235.24 kWh/m2/yr,53.308586,-6.207141,Buy,UNIVERSITY_COLLEGE_DUBLIN_DUBLIN,http://www.daft.ie/for-sale/semi-detached-house-48-fosterbrook-stillorgan-road-booterstown-co-dublin/3963863
3963627,19503929,"6 Stone Park, Trees Road Upper, Mount Merrion, Co. Dublin",1195000.0,169,169 m²,4,3,Semi-D,2022-08-10,A3,,,53.29188,-6.211334,Buy,UNIVERSITY_COLLEGE_DUBLIN_DUBLIN,http://www.daft.ie/for-sale/semi-detached-house-6-stone-park-trees-road-upper-mount-merrion-co-dublin/3963627
3963524,19502198,"8 Sandymount Castle Drive, Sandymount, Sandymount, Dublin 4",1350000.0,159,159 m²,5,3,Terrace,2022-08-05,A3,111346631,72.72 kWh/m2/yr,53.330346,-6.214565,Buy,UNIVERSITY_COLLEGE_DUBLIN_DUBLIN,http://www.daft.ie/for-sale/terraced-house-8-sandymount-castle-drive-sandymount-sandymount-dublin-4/3963524
3962055,19494299,"208 Lower Kilmacud Road, Goatstown, Dublin 14",725000.0,127,127 m²,3,2,Semi-D,2022-08-09,E1,,,53.289608,-6.224218,Buy,UNIVERSITY_COLLEGE_DUBLIN_DUBLIN,http://www.daft.ie/for-sale/semi-detached-house-208-lower-kilmacud-road-goatstown-dublin-14/3962055
3961854,19490402,"131 Booterstown Avenue, Booterstown, Co. Dublin",895000.0,144,144 m²,3,2,Semi-D,2022-08-10,D2,112680954,295.6 kWh/m2/yr,53.301289,-6.200903,Buy,UNIVERSITY_COLLEGE_DUBLIN_DUBLIN,http://www.daft.ie/for-sale/semi-detached-house-131-booterstown-avenue-booterstown-co-dublin/3961854
3961527,19486981,"13 Sandymount Court, Sandymount, Sandymount, Dublin 4",795000.0,100,100 m²,3,1,Terrace,2022-08-05,C2,115016057,183.24 kWh/m2/yr,53.334828,-6.215752,Buy,UNIVERSITY_COLLEGE_DUBLIN_DUBLIN,http://www.daft.ie/for-sale/terraced-house-13-sandymount-court-sandymount-sandymount-dublin-4/3961527
3961061,19480806,"Eltham, 79 Eglinton Road, Donnybrook, Dublin 4",3000000.0,309,309 m²,7,4,Semi-D,2022-08-10,F,115194136,427.64 kWh/m2/yr,53.318711,-6.240444,Buy,UNIVERSITY_COLLEGE_DUBLIN_DUBLIN,http://www.daft.ie/for-sale/semi-detached-house-eltham-79-eglinton-road-donnybrook-dublin-4/3961061
3960024,19472251,"36 Elgin Road, Ballsbridge, Dublin 4",4500000.0,590,590 m²,10,8,End of Terrace,2022-08-10,,,,53.33041,-6.235086,Buy,UNIVERSITY_COLLEGE_DUBLIN_DUBLIN,http://www.daft.ie/for-sale/end-of-terrace-house-36-elgin-road-ballsbridge-dublin-4/3960024
3959386,19464443,"The Mews, 1 Morehampton Court, Donnybrook, Dublin 4",1100000.0,172,172 m²,4,4,Townhouse,2022-08-10,C1,,,53.325934,-6.243609,Buy,UNIVERSITY_COLLEGE_DUBLIN_DUBLIN,http://www.daft.ie/for-sale/townhouse-the-mews-1-morehampton-court-donnybrook-dublin-4/3959386
3957870,19450085,"14 Sans Souci Park, Booterstown, Co. Dublin",1750000.0,185,185 m²,5,5,Detached,2022-07-15,F,,,53.30385,-6.199558,Buy,UNIVERSITY_COLLEGE_DUBLIN_DUBLIN,http://www.daft.ie/for-sale/detached-house-14-sans-souci-park-booterstown-co-dublin/3957870
3956996,19443467,"49 Glenmalure Square, Milltown, Milltown, Dublin 6",595000.0,83,83 m²,3,3,Terrace,2022-06-28,D1,109721142,229.55 kWh/m2/yr,53.315016,-6.248138,Buy,UNIVERSITY_COLLEGE_DUBLIN_DUBLIN,http://www.daft.ie/for-sale/terraced-house-49-glenmalure-square-milltown-milltown-dublin-6/3956996
3949387,19415026,"276 Beeches Road, Wedgewood, Sandyford, Dublin 18",495000.0,80,80 m²,3,1,Semi-D,2022-08-09,D2,,,53.281768,-6.225614,Buy,UNIVERSITY_COLLEGE_DUBLIN_DUBLIN,http://www.daft.ie/for-sale/semi-detached-house-276-beeches-road-wedgewood-sandyford-dublin-18/3949387
3947368,19397309,"83A Heytesbury Lane, Ballsbridge, Ballsbridge, Dublin 4",595000.0,72,72 m²,2,1,Terrace,2022-08-09,D1,101289858,248.08 kWh/m2/yr,53.32886,-6.243209,Buy,UNIVERSITY_COLLEGE_DUBLIN_DUBLIN,http://www.daft.ie/for-sale/terraced-house-83a-heytesbury-lane-ballsbridge-ballsbridge-dublin-4/3947368
3946759,19391727,"16 Clyde Lane, Ballsbridge, Ballsbridge, Dublin 4",2500000.0,218,218 m²,4,4,Detached,2022-08-10,D1,110940616,244.85 kWh/m2/yr,53.328479,-6.237445,Buy,UNIVERSITY_COLLEGE_DUBLIN_DUBLIN,http://www.daft.ie/for-sale/detached-house-16-clyde-lane-ballsbridge-ballsbridge-dublin-4/3946759
3946646,19389629,"149 Roebuck Castle, Clonskeagh, Clonskeagh, Dublin 14",725000.0,117,117 m²,3,1,Semi-D,2022-08-09,C2,115172884,195.45 kWh/m2/yr,53.302075,-6.224545,Buy,UNIVERSITY_COLLEGE_DUBLIN_DUBLIN,http://www.daft.ie/for-sale/semi-detached-house-149-roebuck-castle-clonskeagh-clonskeagh-dublin-14/3946646
3946102,19381182,"104 The Rise, Mount Merrion, Co. Dublin",1250000.0,202,202 m²,4,3,Semi-D,2022-08-10,C3,115176802,205.82 kWh/m2/yr,53.293835,-6.206862,Buy,UNIVERSITY_COLLEGE_DUBLIN_DUBLIN,http://www.daft.ie/for-sale/semi-detached-house-104-the-rise-mount-merrion-co-dublin/3946102
3946089,19381159,"Beach View House, 21 Beach Road, Dublin 4",1375000.0,157,157 m²,4,3,Detached,2022-08-05,A2,114818263,41.06 kWh/m2/yr,53.333909,-6.213,Buy,UNIVERSITY_COLLEGE_DUBLIN_DUBLIN,http://www.daft.ie/for-sale/detached-house-beach-view-house-21-beach-road-dublin-4/3946089
3925465,99179352,"Trimbleston, Trimbleston, Goatstown, Dublin 14","From €555,000",N/A,,1 & 2 bed,,Houses,2022-08-10,A3,,,53.299423,-6.232702,New Homes,UNIVERSITY_COLLEGE_DUBLIN_DUBLIN,http://www.daft.ie/new-home-for-sale/trimbleston-trimbleston-goatstown-dublin-14/3925465
3945251,19373541,"19 St John's, Park Avenue, Sandymount, Dublin 4",900000.0,103,103 m²,3,2,Semi-D,2022-08-10,C1,107504599,170.99 kWh/m2/yr,53.323986,-6.213554,Buy,UNIVERSITY_COLLEGE_DUBLIN_DUBLIN,http://www.daft.ie/for-sale/semi-detached-house-19-st-johns-park-avenue-sandymount-dublin-4/3945251
3944713,19372106,"60 Roebuck Downs, Clonskeagh, Clonskeagh, Dublin 14",825000.0,107,107 m²,4,3,Detached,2022-06-22,C3,102089034,223.04 kWh/m2/yr,53.301834,-6.236314,Buy,UNIVERSITY_COLLEGE_DUBLIN_DUBLIN,http://www.daft.ie/for-sale/detached-house-60-roebuck-downs-clonskeagh-clonskeagh-dublin-14/3944713
3944039,19364429,"97 Fosters Avenue, Mount Merrion, Co. Dublin",1175000.0,208,208 m²,5,2,Detached,2022-08-09,B3,106374176,138.95 kWh/m2/yr,53.299958,-6.21852,Buy,UNIVERSITY_COLLEGE_DUBLIN_DUBLIN,http://www.daft.ie/for-sale/detached-house-97-fosters-avenue-mount-merrion-co-dublin/3944039
3929300,19222628,"27 Merton Crescent, Mount Saint Annes, Milltown, Dublin 6",745000.0,124,124 m²,4,3,Townhouse,2022-08-09,C2,113577514,175.67 kWh/m2/yr,53.31422,-6.250985,Buy,UNIVERSITY_COLLEGE_DUBLIN_DUBLIN,http://www.daft.ie/for-sale/townhouse-27-merton-crescent-mount-saint-annes-milltown-dublin-6/3929300
3942241,19343803,"22 Dun Emer Drive, Dundrum, Dundrum, Dublin 16",875000.0,214,214 m²,4,2,Detached,2022-08-10,D1,,,53.282334,-6.237485,Buy,UNIVERSITY_COLLEGE_DUBLIN_DUBLIN,http://www.daft.ie/for-sale/detached-house-22-dun-emer-drive-dundrum-dundrum-dublin-16/3942241
3927910,19205782,"20 Vergemount Park, Clonskeagh, Clonskeagh, Dublin 6",1495000.0,148,148 m²,3,2,Semi-D,2022-08-10,C1,115043416,172.16 kWh/m2/yr,53.316957,-6.238292,Buy,UNIVERSITY_COLLEGE_DUBLIN_DUBLIN,http://www.daft.ie/for-sale/semi-detached-house-20-vergemount-park-clonskeagh-clonskeagh-dublin-6/3927910
3942223,19343488,"27 Drummartin Road Goatstown Dublin 14, Goatstown, Dublin 14",725000.0,120,120 m²,4,2,Semi-D,2022-08-10,E2,115040321,342.4 kWh/m2/yr,53.288906,-6.224826,Buy,UNIVERSITY_COLLEGE_DUBLIN_DUBLIN,http://www.daft.ie/for-sale/semi-detached-house-27-drummartin-road-goatstown-dublin-14-goatstown-dublin-14/3942223
3942182,19343465,"21 Drummartin Park, Goatstown, Goatstown, Dublin 14",825000.0,137,137 m²,4,2,Semi-D,2022-08-09,D2,115162455,272.17 kWh/m2/yr,53.287568,-6.224699,Buy,UNIVERSITY_COLLEGE_DUBLIN_DUBLIN,http://www.daft.ie/for-sale/semi-detached-house-21-drummartin-park-goatstown-goatstown-dublin-14/3942182
3941712,19339362,"161 Upper Kilmacud Road, Stillorgan, Co. Dublin",595000.0,104,104 m²,4,1,Semi-D,2022-08-10,F,115168189,411.52 kWh/m2/yr,53.284778,-6.217928,Buy,UNIVERSITY_COLLEGE_DUBLIN_DUBLIN,http://www.daft.ie/for-sale/semi-detached-house-161-upper-kilmacud-road-stillorgan-co-dublin/3941712
3941703,19339330,"Azalea, 139 Stillorgan Road, Donnybrook, Dublin 4",2950000.0,419,419 m²,5,,Detached,2022-08-10,A1,114343320,18.64 kWh/m2/yr,53.31248,-6.22199,Buy,UNIVERSITY_COLLEGE_DUBLIN_DUBLIN,http://www.daft.ie/for-sale/detached-house-azalea-139-stillorgan-road-donnybrook-dublin-4/3941703
3941336,19337406,"15A Strand Road, Sandymount, Sandymount, Dublin 4",895000.0,110,110 m²,3,1,Semi-D,2022-08-10,F,115046930,85.82 kWh/m2/yr,53.331511,-6.210349,Buy,UNIVERSITY_COLLEGE_DUBLIN_DUBLIN,http://www.daft.ie/for-sale/semi-detached-house-15a-strand-road-sandymount-sandymount-dublin-4/3941336
3941024,19333312,"San Michele, 19 St Thomas Road, Mount Merrion, Co. Dublin",1625000.0,264,264 m²,4,3,Detached,2022-08-10,D1,115157000,236.81 kWh/m2/yr,53.301462,-6.210146,Buy,UNIVERSITY_COLLEGE_DUBLIN_DUBLIN,http://www.daft.ie/for-sale/detached-house-san-michele-19-st-thomas-road-mount-merrion-co-dublin/3941024
3940859,19332811,"11 Newgrove Avenue, Sandymount, Dublin 4",775000.0,100,100 m²,2,2,End of Terrace,2022-06-20,B3,109189134,131.26 kWh/m2/yr,53.331516,-6.213037,Buy,UNIVERSITY_COLLEGE_DUBLIN_DUBLIN,http://www.daft.ie/for-sale/end-of-terrace-house-11-newgrove-avenue-sandymount-dublin-4/3940859
3940783,19332180,"2A Durham Road, Sandymount, Dublin 4",1500000.0,133,133 m²,4,2,Detached,2022-08-10,C1,115039364,160.28 kWh/m2/yr,53.329384,-6.211976,Buy,UNIVERSITY_COLLEGE_DUBLIN_DUBLIN,http://www.daft.ie/for-sale/detached-house-2a-durham-road-sandymount-dublin-4/3940783
3940781,19332179,"11 Newgrove Avenue, Sandymount, Dublin 4",775000.0,100,100 m²,2,2,End of Terrace,2022-08-10,B3,109189134,131.26 kWh/m2/yr,53.331516,-6.213037,Buy,UNIVERSITY_COLLEGE_DUBLIN_DUBLIN,http://www.daft.ie/for-sale/end-of-terrace-house-11-newgrove-avenue-sandymount-dublin-4/3940781
3940540,19328267,"Dun Ri, Cross Avenue, Blackrock, Co. Dublin",3500000.0,362,362 m²,4,4,Detached,2022-08-10,B3,115019408,146.89 kWh/m2/yr,53.30299,-6.195336,Buy,UNIVERSITY_COLLEGE_DUBLIN_DUBLIN,http://www.daft.ie/for-sale/detached-house-dun-ri-cross-avenue-blackrock-co-dublin/3940540
3939428,19319459,"60 Whitethorn Road Clonskeagh Dublin 14, Clonskeagh, Dublin 14",895000.0,96,96 m²,3,1,Semi-D,2022-08-10,F,115173171,394.0 kWh/m2/yr,53.311392,-6.239206,Buy,UNIVERSITY_COLLEGE_DUBLIN_DUBLIN,http://www.daft.ie/for-sale/semi-detached-house-60-whitethorn-road-clonskeagh-dublin-14-clonskeagh-dublin-14/3939428
3938073,19305607,"8 St Thomas Mead, Mount Merrion, Co. Dublin",950000.0,102,102 m²,4,2,Detached,2022-08-10,F,113867774,387.58 kWh/m2/yr,53.302588,-6.208956,Buy,UNIVERSITY_COLLEGE_DUBLIN_DUBLIN,http://www.daft.ie/for-sale/detached-house-8-st-thomas-mead-mount-merrion-co-dublin/3938073
3937892,19304266,"28 Greenfield Park, Donnybrook, Dublin 4",2750000.0,372,372 m²,6,4,Detached,2022-08-10,C1,108656992,170.0 kWh/m2/yr,53.312151,-6.226506,Buy,UNIVERSITY_COLLEGE_DUBLIN_DUBLIN,http://www.daft.ie/for-sale/detached-house-28-greenfield-park-donnybrook-dublin-4/3937892
3774974,18428892,"8 Herbert Road, Sandymount, Dublin 4",1650000.0,267,267 m²,4,3,Semi-D,2022-08-10,D2,114662133,271.65 kWh/m2/yr,53.333569,-6.223325,Buy,UNIVERSITY_COLLEGE_DUBLIN_DUBLIN,http://www.daft.ie/for-sale/semi-detached-house-8-herbert-road-sandymount-dublin-4/3774974
3936964,19295689,"4 Coolgraney, Off Nutgrove Park, Clonskeagh, Dublin 14",1395000.0,250,250 m²,5,4,Detached,2022-08-10,C2,112922042,193.77 kWh/m2/yr,53.308421,-6.239107,Buy,UNIVERSITY_COLLEGE_DUBLIN_DUBLIN,http://www.daft.ie/for-sale/detached-house-4-coolgraney-off-nutgrove-park-clonskeagh-dublin-14/3936964
3936799,19295310,"58 Morehampton Square, Donnybrook, Dublin 4",550000.0,N/A,,2,2,Terrace,2022-08-10,F,108890674,389.31 kWh/m2/yr,53.326999,-6.244933,Buy,UNIVERSITY_COLLEGE_DUBLIN_DUBLIN,http://www.daft.ie/for-sale/terraced-house-58-morehampton-square-donnybrook-dublin-4/3936799
3563273,16371116,"141 Tritonville Road, Sandymount, Dublin 4",1470000.0,178,178 m²,3,3,Terrace,2022-08-10,D2,114407216,272.17 kWh/m2/yr,53.332515,-6.222298,Buy,UNIVERSITY_COLLEGE_DUBLIN_DUBLIN,http://www.daft.ie/for-sale/terraced-house-141-tritonville-road-sandymount-dublin-4/3563273
3935795,19281936,"46 Wilfield Road, Sandymount, Dublin 4",950000.0,114,114 m²,3,1,Terrace,2022-08-10,E1,113017503,321.18 kWh/m2/yr,53.326561,-6.218643,Buy,UNIVERSITY_COLLEGE_DUBLIN_DUBLIN,http://www.daft.ie/for-sale/terraced-house-46-wilfield-road-sandymount-dublin-4/3935795
3935783,19281628,"98 Marsham Court, Stillorgan, Co. Dublin",595000.0,82,82 m²,3,2,Semi-D,2022-08-10,C3,114729593,203.11 kWh/m2/yr,53.28559,-6.211003,Buy,UNIVERSITY_COLLEGE_DUBLIN_DUBLIN,http://www.daft.ie/for-sale/semi-detached-house-98-marsham-court-stillorgan-co-dublin/3935783
3968909,19548249,"3 Lakelands Road, Stillorgan, Co. Dublin",595000.0,110,110 m²,3,1,Semi-D,2022-08-10,F,115231318,385.6 kWh/m2/yr,53.284065,-6.216787,Buy,UNIVERSITY_COLLEGE_DUBLIN_DUBLIN,http://www.daft.ie/for-sale/semi-detached-house-3-lakelands-road-stillorgan-co-dublin/3968909
3968711,19547200,"98 Wilfield Road, Sandymount, Sandymount, Dublin 4",1050000.0,103,103 m²,3,2,Terrace,2022-08-05,B2,106771827,115.95 kWh/m2/yr,53.325261,-6.216946,Buy,UNIVERSITY_COLLEGE_DUBLIN_DUBLIN,http://www.daft.ie/for-sale/terraced-house-98-wilfield-road-sandymount-sandymount-dublin-4/3968711
3968110,19541342,"34 Dodder View Cottages, Ballsbridge, Dublin 4",550000.0,82,82 m²,2,1,Terrace,2022-08-10,D1,104229307,246.86 kWh/m2/yr,53.330356,-6.230481,Buy,UNIVERSITY_COLLEGE_DUBLIN_DUBLIN,http://www.daft.ie/for-sale/terraced-house-34-dodder-view-cottages-ballsbridge-dublin-4/3968110
3966095,19523470,"3 Annsbrook, Clonskeagh, Clonskeagh, Dublin 14",995000.0,162,162 m²,4,2,Detached,2022-07-10,C3,115230252,206.85 kWh/m2/yr,53.309583,-6.23739,Buy,UNIVERSITY_COLLEGE_DUBLIN_DUBLIN,http://www.daft.ie/for-sale/detached-house-3-annsbrook-clonskeagh-clonskeagh-dublin-14/3966095
3965679,19520082,"29 Ailesbury Mews, Sandymount, Dublin 4",495000.0,76,76 m²,2,1,Terrace,2022-08-08,D2,104426374,299.35 kWh/m2/yr,53.319487,-6.207468,Buy,UNIVERSITY_COLLEGE_DUBLIN_DUBLIN,http://www.daft.ie/for-sale/terraced-house-29-ailesbury-mews-sandymount-dublin-4/3965679
3965576,19518750,"16 Maple Road, Clonskeagh, Dublin 14",1695000.0,215,215 m²,4,3,Detached,2022-08-10,E1,114847239,332.67 kWh/m2/yr,53.309813,-6.241544,Buy,UNIVERSITY_COLLEGE_DUBLIN_DUBLIN,http://www.daft.ie/for-sale/detached-house-16-maple-road-clonskeagh-dublin-14/3965576
3964867,19513417,"11 Kilmacud Park, Stillorgan, Co. Dublin",695000.0,143,143 m²,4,4,Semi-D,2022-08-10,E2,113890553,342.61 kWh/m2/yr,53.288337,-6.209004,Buy,UNIVERSITY_COLLEGE_DUBLIN_DUBLIN,http://www.daft.ie/for-sale/semi-detached-house-11-kilmacud-park-stillorgan-co-dublin/3964867
3963863,19506284,"48 Fosterbrook, Stillorgan Road, Booterstown, Co. Dublin",695000.0,100,100 m²,3,2,Semi-D,2022-08-10,D2,109505917,235.24 kWh/m2/yr,53.308586,-6.207141,Buy,UNIVERSITY_COLLEGE_DUBLIN_DUBLIN,http://www.daft.ie/for-sale/semi-detached-house-48-fosterbrook-stillorgan-road-booterstown-co-dublin/3963863
3963627,19503929,"6 Stone Park, Trees Road Upper, Mount Merrion, Co. Dublin",1195000.0,169,169 m²,4,3,Semi-D,2022-08-10,A3,,,53.29188,-6.211334,Buy,UNIVERSITY_COLLEGE_DUBLIN_DUBLIN,http://www.daft.ie/for-sale/semi-detached-house-6-stone-park-trees-road-upper-mount-merrion-co-dublin/3963627
3963524,19502198,"8 Sandymount Castle Drive, Sandymount, Sandymount, Dublin 4",1350000.0,159,159 m²,5,3,Terrace,2022-08-05,A3,111346631,72.72 kWh/m2/yr,53.330346,-6.214565,Buy,UNIVERSITY_COLLEGE_DUBLIN_DUBLIN,http://www.daft.ie/for-sale/terraced-house-8-sandymount-castle-drive-sandymount-sandymount-dublin-4/3963524
3962055,19494299,"208 Lower Kilmacud Road, Goatstown, Dublin 14",725000.0,127,127 m²,3,2,Semi-D,2022-08-09,E1,,,53.289608,-6.224218,Buy,UNIVERSITY_COLLEGE_DUBLIN_DUBLIN,http://www.daft.ie/for-sale/semi-detached-house-208-lower-kilmacud-road-goatstown-dublin-14/3962055
3961854,19490402,"131 Booterstown Avenue, Booterstown, Co. Dublin",895000.0,144,144 m²,3,2,Semi-D,2022-08-10,D2,112680954,295.6 kWh/m2/yr,53.301289,-6.200903,Buy,UNIVERSITY_COLLEGE_DUBLIN_DUBLIN,http://www.daft.ie/for-sale/semi-detached-house-131-booterstown-avenue-booterstown-co-dublin/3961854
3961527,19486981,"13 Sandymount Court, Sandymount, Sandymount, Dublin 4",795000.0,100,100 m²,3,1,Terrace,2022-08-05,C2,115016057,183.24 kWh/m2/yr,53.334828,-6.215752,Buy,UNIVERSITY_COLLEGE_DUBLIN_DUBLIN,http://www.daft.ie/for-sale/terraced-house-13-sandymount-court-sandymount-sandymount-dublin-4/3961527
3961061,19480806,"Eltham, 79 Eglinton Road, Donnybrook, Dublin 4",3000000.0,309,309 m²,7,4,Semi-D,2022-08-10,F,115194136,427.64 kWh/m2/yr,53.318711,-6.240444,Buy,UNIVERSITY_COLLEGE_DUBLIN_DUBLIN,http://www.daft.ie/for-sale/semi-detached-house-eltham-79-eglinton-road-donnybrook-dublin-4/3961061
3960024,19472251,"36 Elgin Road, Ballsbridge, Dublin 4",4500000.0,590,590 m²,10,8,End of Terrace,2022-08-10,,,,53.33041,-6.235086,Buy,UNIVERSITY_COLLEGE_DUBLIN_DUBLIN,http://www.daft.ie/for-sale/end-of-terrace-house-36-elgin-road-ballsbridge-dublin-4/3960024
3959386,19464443,"The Mews, 1 Morehampton Court, Donnybrook, Dublin 4",1100000.0,172,172 m²,4,4,Townhouse,2022-08-10,C1,,,53.325934,-6.243609,Buy,UNIVERSITY_COLLEGE_DUBLIN_DUBLIN,http://www.daft.ie/for-sale/townhouse-the-mews-1-morehampton-court-donnybrook-dublin-4/3959386
3957870,19450085,"14 Sans Souci Park, Booterstown, Co. Dublin",1750000.0,185,185 m²,5,5,Detached,2022-07-15,F,,,53.30385,-6.199558,Buy,UNIVERSITY_COLLEGE_DUBLIN_DUBLIN,http://www.daft.ie/for-sale/detached-house-14-sans-souci-park-booterstown-co-dublin/3957870
3956996,19443467,"49 Glenmalure Square, Milltown, Milltown, Dublin 6",595000.0,83,83 m²,3,3,Terrace,2022-06-28,D1,109721142,229.55 kWh/m2/yr,53.315016,-6.248138,Buy,UNIVERSITY_COLLEGE_DUBLIN_DUBLIN,http://www.daft.ie/for-sale/terraced-house-49-glenmalure-square-milltown-milltown-dublin-6/3956996
3949387,19415026,"276 Beeches Road, Wedgewood, Sandyford, Dublin 18",495000.0,80,80 m²,3,1,Semi-D,2022-08-09,D2,,,53.281768,-6.225614,Buy,UNIVERSITY_COLLEGE_DUBLIN_DUBLIN,http://www.daft.ie/for-sale/semi-detached-house-276-beeches-road-wedgewood-sandyford-dublin-18/3949387
3947368,19397309,"83A Heytesbury Lane, Ballsbridge, Ballsbridge, Dublin 4",595000.0,72,72 m²,2,1,Terrace,2022-08-09,D1,101289858,248.08 kWh/m2/yr,53.32886,-6.243209,Buy,UNIVERSITY_COLLEGE_DUBLIN_DUBLIN,http://www.daft.ie/for-sale/terraced-house-83a-heytesbury-lane-ballsbridge-ballsbridge-dublin-4/3947368
3946759,19391727,"16 Clyde Lane, Ballsbridge, Ballsbridge, Dublin 4",2500000.0,218,218 m²,4,4,Detached,2022-08-10,D1,110940616,244.85 kWh/m2/yr,53.328479,-6.237445,Buy,UNIVERSITY_COLLEGE_DUBLIN_DUBLIN,http://www.daft.ie/for-sale/detached-house-16-clyde-lane-ballsbridge-ballsbridge-dublin-4/3946759
3946646,19389629,"149 Roebuck Castle, Clonskeagh, Clonskeagh, Dublin 14",725000.0,117,117 m²,3,1,Semi-D,2022-08-09,C2,115172884,195.45 kWh/m2/yr,53.302075,-6.224545,Buy,UNIVERSITY_COLLEGE_DUBLIN_DUBLIN,http://www.daft.ie/for-sale/semi-detached-house-149-roebuck-castle-clonskeagh-clonskeagh-dublin-14/3946646
3946102,19381182,"104 The Rise, Mount Merrion, Co. Dublin",1250000.0,202,202 m²,4,3,Semi-D,2022-08-10,C3,115176802,205.82 kWh/m2/yr,53.293835,-6.206862,Buy,UNIVERSITY_COLLEGE_DUBLIN_DUBLIN,http://www.daft.ie/for-sale/semi-detached-house-104-the-rise-mount-merrion-co-dublin/3946102
3946089,19381159,"Beach View House, 21 Beach Road, Dublin 4",1375000.0,157,157 m²,4,3,Detached,2022-08-05,A2,114818263,41.06 kWh/m2/yr,53.333909,-6.213,Buy,UNIVERSITY_COLLEGE_DUBLIN_DUBLIN,http://www.daft.ie/for-sale/detached-house-beach-view-house-21-beach-road-dublin-4/3946089
3925465,99179352,"Trimbleston, Trimbleston, Goatstown, Dublin 14","From €555,000",N/A,,1 & 2 bed,,Houses,2022-08-10,A3,,,53.299423,-6.232702,New Homes,UNIVERSITY_COLLEGE_DUBLIN_DUBLIN,http://www.daft.ie/new-home-for-sale/trimbleston-trimbleston-goatstown-dublin-14/3925465
3945251,19373541,"19 St John's, Park Avenue, Sandymount, Dublin 4",900000.0,103,103 m²,3,2,Semi-D,2022-08-10,C1,107504599,170.99 kWh/m2/yr,53.323986,-6.213554,Buy,UNIVERSITY_COLLEGE_DUBLIN_DUBLIN,http://www.daft.ie/for-sale/semi-detached-house-19-st-johns-park-avenue-sandymount-dublin-4/3945251
3944713,19372106,"60 Roebuck Downs, Clonskeagh, Clonskeagh, Dublin 14",825000.0,107,107 m²,4,3,Detached,2022-06-22,C3,102089034,223.04 kWh/m2/yr,53.301834,-6.236314,Buy,UNIVERSITY_COLLEGE_DUBLIN_DUBLIN,http://www.daft.ie/for-sale/detached-house-60-roebuck-downs-clonskeagh-clonskeagh-dublin-14/3944713
3944039,19364429,"97 Fosters Avenue, Mount Merrion, Co. Dublin",1175000.0,208,208 m²,5,2,Detached,2022-08-09,B3,106374176,138.95 kWh/m2/yr,53.299958,-6.21852,Buy,UNIVERSITY_COLLEGE_DUBLIN_DUBLIN,http://www.daft.ie/for-sale/detached-house-97-fosters-avenue-mount-merrion-co-dublin/3944039
3929300,19222628,"27 Merton Crescent, Mount Saint Annes, Milltown, Dublin 6",745000.0,124,124 m²,4,3,Townhouse,2022-08-09,C2,113577514,175.67 kWh/m2/yr,53.31422,-6.250985,Buy,UNIVERSITY_COLLEGE_DUBLIN_DUBLIN,http://www.daft.ie/for-sale/townhouse-27-merton-crescent-mount-saint-annes-milltown-dublin-6/3929300
3942241,19343803,"22 Dun Emer Drive, Dundrum, Dundrum, Dublin 16",875000.0,214,214 m²,4,2,Detached,2022-08-10,D1,,,53.282334,-6.237485,Buy,UNIVERSITY_COLLEGE_DUBLIN_DUBLIN,http://www.daft.ie/for-sale/detached-house-22-dun-emer-drive-dundrum-dundrum-dublin-16/3942241
3927910,19205782,"20 Vergemount Park, Clonskeagh, Clonskeagh, Dublin 6",1495000.0,148,148 m²,3,2,Semi-D,2022-08-10,C1,115043416,172.16 kWh/m2/yr,53.316957,-6.238292,Buy,UNIVERSITY_COLLEGE_DUBLIN_DUBLIN,http://www.daft.ie/for-sale/semi-detached-house-20-vergemount-park-clonskeagh-clonskeagh-dublin-6/3927910
3942223,19343488,"27 Drummartin Road Goatstown Dublin 14, Goatstown, Dublin 14",725000.0,120,120 m²,4,2,Semi-D,2022-08-10,E2,115040321,342.4 kWh/m2/yr,53.288906,-6.224826,Buy,UNIVERSITY_COLLEGE_DUBLIN_DUBLIN,http://www.daft.ie/for-sale/semi-detached-house-27-drummartin-road-goatstown-dublin-14-goatstown-dublin-14/3942223
3942182,19343465,"21 Drummartin Park, Goatstown, Goatstown, Dublin 14",825000.0,137,137 m²,4,2,Semi-D,2022-08-09,D2,115162455,272.17 kWh/m2/yr,53.287568,-6.224699,Buy,UNIVERSITY_COLLEGE_DUBLIN_DUBLIN,http://www.daft.ie/for-sale/semi-detached-house-21-drummartin-park-goatstown-goatstown-dublin-14/3942182
3941712,19339362,"161 Upper Kilmacud Road, Stillorgan, Co. Dublin",595000.0,104,104 m²,4,1,Semi-D,2022-08-10,F,115168189,411.52 kWh/m2/yr,53.284778,-6.217928,Buy,UNIVERSITY_COLLEGE_DUBLIN_DUBLIN,http://www.daft.ie/for-sale/semi-detached-house-161-upper-kilmacud-road-stillorgan-co-dublin/3941712
3941703,19339330,"Azalea, 139 Stillorgan Road, Donnybrook, Dublin 4",2950000.0,419,419 m²,5,,Detached,2022-08-10,A1,114343320,18.64 kWh/m2/yr,53.31248,-6.22199,Buy,UNIVERSITY_COLLEGE_DUBLIN_DUBLIN,http://www.daft.ie/for-sale/detached-house-azalea-139-stillorgan-road-donnybrook-dublin-4/3941703
3941336,19337406,"15A Strand Road, Sandymount, Sandymount, Dublin 4",895000.0,110,110 m²,3,1,Semi-D,2022-08-10,F,115046930,85.82 kWh/m2/yr,53.331511,-6.210349,Buy,UNIVERSITY_COLLEGE_DUBLIN_DUBLIN,http://www.daft.ie/for-sale/semi-detached-house-15a-strand-road-sandymount-sandymount-dublin-4/3941336
3941024,19333312,"San Michele, 19 St Thomas Road, Mount Merrion, Co. Dublin",1625000.0,264,264 m²,4,3,Detached,2022-08-10,D1,115157000,236.81 kWh/m2/yr,53.301462,-6.210146,Buy,UNIVERSITY_COLLEGE_DUBLIN_DUBLIN,http://www.daft.ie/for-sale/detached-house-san-michele-19-st-thomas-road-mount-merrion-co-dublin/3941024
3940859,19332811,"11 Newgrove Avenue, Sandymount, Dublin 4",775000.0,100,100 m²,2,2,End of Terrace,2022-06-20,B3,109189134,131.26 kWh/m2/yr,53.331516,-6.213037,Buy,UNIVERSITY_COLLEGE_DUBLIN_DUBLIN,http://www.daft.ie/for-sale/end-of-terrace-house-11-newgrove-avenue-sandymount-dublin-4/3940859
3940783,19332180,"2A Durham Road, Sandymount, Dublin 4",1500000.0,133,133 m²,4,2,Detached,2022-08-10,C1,115039364,160.28 kWh/m2/yr,53.329384,-6.211976,Buy,UNIVERSITY_COLLEGE_DUBLIN_DUBLIN,http://www.daft.ie/for-sale/detached-house-2a-durham-road-sandymount-dublin-4/3940783
3940781,19332179,"11 Newgrove Avenue, Sandymount, Dublin 4",775000.0,100,100 m²,2,2,End of Terrace,2022-08-10,B3,109189134,131.26 kWh/m2/yr,53.331516,-6.213037,Buy,UNIVERSITY_COLLEGE_DUBLIN_DUBLIN,http://www.daft.ie/for-sale/end-of-terrace-house-11-newgrove-avenue-sandymount-dublin-4/3940781
3940540,19328267,"Dun Ri, Cross Avenue, Blackrock, Co. Dublin",3500000.0,362,362 m²,4,4,Detached,2022-08-10,B3,115019408,146.89 kWh/m2/yr,53.30299,-6.195336,Buy,UNIVERSITY_COLLEGE_DUBLIN_DUBLIN,http://www.daft.ie/for-sale/detached-house-dun-ri-cross-avenue-blackrock-co-dublin/3940540
3939428,19319459,"60 Whitethorn Road Clonskeagh Dublin 14, Clonskeagh, Dublin 14",895000.0,96,96 m²,3,1,Semi-D,2022-08-10,F,115173171,394.0 kWh/m2/yr,53.311392,-6.239206,Buy,UNIVERSITY_COLLEGE_DUBLIN_DUBLIN,http://www.daft.ie/for-sale/semi-detached-house-60-whitethorn-road-clonskeagh-dublin-14-clonskeagh-dublin-14/3939428
3938073,19305607,"8 St Thomas Mead, Mount Merrion, Co. Dublin",950000.0,102,102 m²,4,2,Detached,2022-08-10,F,113867774,387.58 kWh/m2/yr,53.302588,-6.208956,Buy,UNIVERSITY_COLLEGE_DUBLIN_DUBLIN,http://www.daft.ie/for-sale/detached-house-8-st-thomas-mead-mount-merrion-co-dublin/3938073
3937892,19304266,"28 Greenfield Park, Donnybrook, Dublin 4",2750000.0,372,372 m²,6,4,Detached,2022-08-10,C1,108656992,170.0 kWh/m2/yr,53.312151,-6.226506,Buy,UNIVERSITY_COLLEGE_DUBLIN_DUBLIN,http://www.daft.ie/for-sale/detached-house-28-greenfield-park-donnybrook-dublin-4/3937892
3774974,18428892,"8 Herbert Road, Sandymount, Dublin 4",1650000.0,267,267 m²,4,3,Semi-D,2022-08-10,D2,114662133,271.65 kWh/m2/yr,53.333569,-6.223325,Buy,UNIVERSITY_COLLEGE_DUBLIN_DUBLIN,http://www.daft.ie/for-sale/semi-detached-house-8-herbert-road-sandymount-dublin-4/3774974
3936964,19295689,"4 Coolgraney, Off Nutgrove Park, Clonskeagh, Dublin 14",1395000.0,250,250 m²,5,4,Detached,2022-08-10,C2,112922042,193.77 kWh/m2/yr,53.308421,-6.239107,Buy,UNIVERSITY_COLLEGE_DUBLIN_DUBLIN,http://www.daft.ie/for-sale/detached-house-4-coolgraney-off-nutgrove-park-clonskeagh-dublin-14/3936964
3936799,19295310,"58 Morehampton Square, Donnybrook, Dublin 4",550000.0,N/A,,2,2,Terrace,2022-08-10,F,108890674,389.31 kWh/m2/yr,53.326999,-6.244933,Buy,UNIVERSITY_COLLEGE_DUBLIN_DUBLIN,http://www.daft.ie/for-sale/terraced-house-58-morehampton-square-donnybrook-dublin-4/3936799
3563273,16371116,"141 Tritonville Road, Sandymount, Dublin 4",1470000.0,178,178 m²,3,3,Terrace,2022-08-10,D2,114407216,272.17 kWh/m2/yr,53.332515,-6.222298,Buy,UNIVERSITY_COLLEGE_DUBLIN_DUBLIN,http://www.daft.ie/for-sale/terraced-house-141-tritonville-road-sandymount-dublin-4/3563273
3935795,19281936,"46 Wilfield Road, Sandymount, Dublin 4",950000.0,114,114 m²,3,1,Terrace,2022-08-10,E1,113017503,321.18 kWh/m2/yr,53.326561,-6.218643,Buy,UNIVERSITY_COLLEGE_DUBLIN_DUBLIN,http://www.daft.ie/for-sale/terraced-house-46-wilfield-road-sandymount-dublin-4/3935795
3935783,19281628,"98 Marsham Court, Stillorgan, Co. Dublin",595000.0,82,82 m²,3,2,Semi-D,2022-08-10,C3,114729593,203.11 kWh/m2/yr,53.28559,-6.211003,Buy,UNIVERSITY_COLLEGE_DUBLIN_DUBLIN,http://www.daft.ie/for-sale/semi-detached-house-98-marsham-court-stillorgan-co-dublin/3935783
3935772,19281569,"17 Nutley Avenue Ballsbridge Dublin 4, Ballsbridge, Dublin 4",1875000.0,190,190 m²,4,4,Detached,2022-08-10,C1,105303812,165.24 kWh/m2/yr,53.317724,-6.220483,Buy,UNIVERSITY_COLLEGE_DUBLIN_DUBLIN,http://www.daft.ie/for-sale/detached-house-17-nutley-avenue-ballsbridge-dublin-4-ballsbridge-dublin-4/3935772
3933964,19264184,"50 Woodbine Road Booterstown, Booterstown, Co. Dublin",1300000.0,170,170 m²,5,3,Semi-D,2022-08-10,C2,114545809,183.07 kWh/m2/yr,53.310062,-6.210081,Buy,UNIVERSITY_COLLEGE_DUBLIN_DUBLIN,http://www.daft.ie/for-sale/semi-detached-house-50-woodbine-road-booterstown-booterstown-co-dublin/3933964
3933412,19258519,"Erry, 40 Mather Road North, Mount Merrion, Co. Dublin",995000.0,170,170 m²,4,3,Detached,2022-07-14,E2,115166084,355.57 kWh/m2/yr,53.299077,-6.217005,Buy,UNIVERSITY_COLLEGE_DUBLIN_DUBLIN,http://www.daft.ie/for-sale/detached-house-erry-40-mather-road-north-mount-merrion-co-dublin/3933412
3931901,19245339,"101 Pembroke Cottages, Donnybrook, Donnybrook, Dublin 4",625000.0,N/A,,3,1,Terrace,2022-08-10,F,115155772,391.33 kWh/m2/yr,53.322923,-6.235269,Buy,UNIVERSITY_COLLEGE_DUBLIN_DUBLIN,http://www.daft.ie/for-sale/terraced-house-101-pembroke-cottages-donnybrook-donnybrook-dublin-4/3931901
3929216,19221629,"5 Martello View, Sandymount, Dublin 4",690000.0,84,84 m²,3,1,Terrace,2022-08-10,D1,114828429,253.1 kWh/m2/yr,53.331703,-6.210949,Buy,UNIVERSITY_COLLEGE_DUBLIN_DUBLIN,http://www.daft.ie/for-sale/terraced-house-5-martello-view-sandymount-dublin-4/3929216
3928707,19215239,"8 Ballsbridge Avenue, Ballsbridge, Dublin 4",700000.0,74,74 m²,2,1,Terrace,2022-08-07,E2,,,53.329683,-6.229681,Buy,UNIVERSITY_COLLEGE_DUBLIN_DUBLIN,http://www.daft.ie/for-sale/terraced-house-8-ballsbridge-avenue-ballsbridge-dublin-4/3928707
3928212,19209544,"13 Pembroke Cottages Donnybrook Dublin 4, Donnybrook, Dublin 4",550000.0,83,83 m²,1,1,Terrace,2022-06-09,E2,115039141,373.34 kWh/m2/yr,53.32263,-6.236425,Buy,UNIVERSITY_COLLEGE_DUBLIN_DUBLIN,http://www.daft.ie/for-sale/terraced-house-13-pembroke-cottages-donnybrook-dublin-4-donnybrook-dublin-4/3928212
3924331,19169367,"12 St John's Road, Sandymount, Dublin 4",2150000.0,251,251 m²,4,4,Terrace,2022-08-10,C2,111086070,184.18 kWh/m2/yr,53.324554,-6.208706,Buy,UNIVERSITY_COLLEGE_DUBLIN_DUBLIN,http://www.daft.ie/for-sale/terraced-house-12-st-johns-road-sandymount-dublin-4/3924331
3919942,19136875,"94 Stillorgan Wood, Stillorgan, Co. Dublin",775000.0,142,142 m²,4,3,Detached,2022-08-10,D2,102656063,299.28 kWh/m2/yr,53.282818,-6.212712,Buy,UNIVERSITY_COLLEGE_DUBLIN_DUBLIN,http://www.daft.ie/for-sale/detached-house-94-stillorgan-wood-stillorgan-co-dublin/3919942
3918491,19121667,"47 Booterstown Avenue Booterstown, Booterstown, Co. Dublin",1600000.0,233,233 m²,5,5,End of Terrace,2022-08-10,,,,53.306722,-6.197429,Buy,UNIVERSITY_COLLEGE_DUBLIN_DUBLIN,http://www.daft.ie/for-sale/end-of-terrace-house-47-booterstown-avenue-booterstown-booterstown-co-dublin/3918491
3916837,19105697,"Gainsboro, 74 Merrion Road, Ballsbridge, Dublin 4",2790000.0,417,417 m²,10,9,Semi-D,2022-08-10,C2,115019523,199.19 kWh/m2/yr,53.326973,-6.224251,Buy,UNIVERSITY_COLLEGE_DUBLIN_DUBLIN,http://www.daft.ie/for-sale/semi-detached-house-gainsboro-74-merrion-road-ballsbridge-dublin-4/3916837
3914921,19086126,"17 Simmons Court, Ballsbridge, Dublin 4",995000.0,102,102 m²,4,2,Terrace,2022-08-10,D1,101319143,236.28 kWh/m2/yr,53.324028,-6.228916,Buy,UNIVERSITY_COLLEGE_DUBLIN_DUBLIN,http://www.daft.ie/for-sale/terraced-house-17-simmons-court-ballsbridge-dublin-4/3914921
3914455,19084157,"9 Elm Park, Nutley Lane, Dublin 4, Co. Dublin",1550000.0,205,205 m²,4,3,Detached,2022-08-09,D1,105935167,,53.316718,-6.21877,Buy,UNIVERSITY_COLLEGE_DUBLIN_DUBLIN,http://www.daft.ie/for-sale/detached-house-9-elm-park-nutley-lane-dublin-4-co-dublin/3914455
3910080,19048072,"4 Gledswood Park, Clonskeagh, Dublin 14",795000.0,150,150 m²,5,2,Semi-D,2022-08-10,D2,110203965,274.62 kWh/m2/yr,53.304902,-6.237256,Buy,UNIVERSITY_COLLEGE_DUBLIN_DUBLIN,http://www.daft.ie/for-sale/semi-detached-house-4-gledswood-park-clonskeagh-dublin-14/3910080
3908394,19030683,"4 Roebuck Lawn, Clonskeagh, Clonskeagh, Dublin 14",850000.0,140,140 m²,5,3,Detached,2022-05-25,F,114870231,410.33 kWh/m2/yr,53.304041,-6.243488,Buy,UNIVERSITY_COLLEGE_DUBLIN_DUBLIN,http://www.daft.ie/for-sale/detached-house-4-roebuck-lawn-clonskeagh-clonskeagh-dublin-14/3908394
3908151,19029166,"109 Marlborough Road, Donnybrook, Donnybrook, Dublin 4",1350000.0,202,202 m²,7,6,Terrace,2022-08-08,SI_666,,,53.322535,-6.24712,Buy,UNIVERSITY_COLLEGE_DUBLIN_DUBLIN,http://www.daft.ie/for-sale/terraced-house-109-marlborough-road-donnybrook-donnybrook-dublin-4/3908151
3905904,19012260,"5 Frankfort Court, Dundrum Road, Dundrum, Dublin 14",495000.0,61,61 m²,2,1,Townhouse,2022-08-09,C3,114891518,217.19 kWh/m2/yr,53.29702,-6.249146,Buy,UNIVERSITY_COLLEGE_DUBLIN_DUBLIN,http://www.daft.ie/for-sale/townhouse-5-frankfort-court-dundrum-road-dundrum-dublin-14/3905904
3904735,19001256,"102 Wilfield Road, Sandymount, Dublin 4",1095000.0,121,121 m²,4,2,End of Terrace,2022-08-10,D1,110377496,255.28 kWh/m2/yr,53.325162,-6.216791,Buy,UNIVERSITY_COLLEGE_DUBLIN_DUBLIN,http://www.daft.ie/for-sale/end-of-terrace-house-102-wilfield-road-sandymount-dublin-4/3904735
3904716,19000141,"1 Ashfield Park, Stillorgan Road, Booterstown, Co. Dublin",950000.0,124,124 m²,4,2,Semi-D,2022-08-10,G,114849276,595.4 kWh/m2/yr,53.307874,-6.213689,Buy,UNIVERSITY_COLLEGE_DUBLIN_DUBLIN,http://www.daft.ie/for-sale/semi-detached-house-1-ashfield-park-stillorgan-road-booterstown-co-dublin/3904716
3899515,18949207,"42 Radcliff Hall, Saint John's Road, Sandymount, Dublin 4",775000.0,122,122 m²,3,4,Townhouse,2022-07-13,C1,113685564,186.92 kWh/m2/yr,53.325012,-6.211774,Buy,UNIVERSITY_COLLEGE_DUBLIN_DUBLIN,http://www.daft.ie/for-sale/townhouse-42-radcliff-hall-saint-johns-road-sandymount-dublin-4/3899515
3897945,18927884,"104 Mulvey Park, Dundrum, Dundrum, Dublin 14",450000.0,70,70 m²,3,1,Terrace,2022-08-08,F,,,53.302528,-6.238695,Buy,UNIVERSITY_COLLEGE_DUBLIN_DUBLIN,http://www.daft.ie/for-sale/terraced-house-104-mulvey-park-dundrum-dundrum-dublin-14/3897945
3897736,18925582,"3 Cypress Road Mount Merrion, Mount Merrion, Co. Dublin",1195000.0,156,156 m²,4,2,Detached,2022-08-10,E2,114892110,358.8 kWh/m2/yr,53.299142,-6.214285,Buy,UNIVERSITY_COLLEGE_DUBLIN_DUBLIN,http://www.daft.ie/for-sale/detached-house-3-cypress-road-mount-merrion-mount-merrion-co-dublin/3897736
3895792,18909760,"261 Wedgewood, Sandyford Road, Dundrum, Dublin 14",549950.0,80,80 m²,3,1,Semi-D,2022-08-10,C3,114877673,216.53 kWh/m2/yr,53.281176,-6.225292,Buy,UNIVERSITY_COLLEGE_DUBLIN_DUBLIN,http://www.daft.ie/for-sale/semi-detached-house-261-wedgewood-sandyford-road-dundrum-dublin-14/3895792
3892487,18883670,"57 Patrick Doyle Road Milltown Dublin 14, Milltown, Dublin 6",575000.0,77,77 m²,2,2,Terrace,2022-08-10,B3,,,53.306949,-6.248739,Buy,UNIVERSITY_COLLEGE_DUBLIN_DUBLIN,http://www.daft.ie/for-sale/terraced-house-57-patrick-doyle-road-milltown-dublin-14-milltown-dublin-6/3892487
3892521,18884820,"29 Balally Grove, Dundrum, Dublin 16",595000.0,109,109 m²,3,1,Semi-D,2022-08-10,F,114873045,409.05 kWh/m2/yr,53.280434,-6.228078,Buy,UNIVERSITY_COLLEGE_DUBLIN_DUBLIN,http://www.daft.ie/for-sale/semi-detached-house-29-balally-grove-dundrum-dublin-16/3892521
3890833,18868181,"13 Priory Grove Blackrock, Blackrock, Co. Dublin",1150000.0,185,185 m²,4,3,Semi-D,2022-05-13,D1,,,53.292691,-6.199464,Buy,UNIVERSITY_COLLEGE_DUBLIN_DUBLIN,http://www.daft.ie/for-sale/semi-detached-house-13-priory-grove-blackrock-blackrock-co-dublin/3890833
3824806,18858676,"Cluain Mhuire, 50 Priory Avenue, Stillorgan, Co. Dublin",925000.0,142,142 m²,4,2,Semi-D,2022-08-10,D1,106328206,252.78 kWh/m2/yr,53.294466,-6.196838,Buy,UNIVERSITY_COLLEGE_DUBLIN_DUBLIN,http://www.daft.ie/for-sale/semi-detached-house-cluain-mhuire-50-priory-avenue-stillorgan-co-dublin/3824806
3822680,18843060,"16 Eglinton Square, Donnybrook, Dublin 4",795000.0,144,144 m²,4,2,Terrace,2022-08-10,D1,112947460,232.6 kWh/m2/yr,53.319257,-6.234369,Buy,UNIVERSITY_COLLEGE_DUBLIN_DUBLIN,http://www.daft.ie/for-sale/terraced-house-16-eglinton-square-donnybrook-dublin-4/3822680
3821506,18830385,"Barna, Clonskeagh Road, Clonskeagh, Dublin 14",875000.0,133,133 m²,3,3,Detached,2022-08-10,C3,,,53.308883,-6.237127,Buy,UNIVERSITY_COLLEGE_DUBLIN_DUBLIN,http://www.daft.ie/for-sale/detached-house-barna-clonskeagh-road-clonskeagh-dublin-14/3821506
3820674,18821605,"62 Churchtown Road Lower, Churchtown, Churchtown, Dublin 14",550000.0,84,84 m²,3,2,Semi-D,2022-05-30,G,100403161,548.03 kWh/m2/yr,53.301257,-6.250965,Buy,UNIVERSITY_COLLEGE_DUBLIN_DUBLIN,http://www.daft.ie/for-sale/semi-detached-house-62-churchtown-road-lower-churchtown-churchtown-dublin-14/3820674
3820575,18820384,"1 Drummartin Crescent, Goatstown, Dublin 14",775000.0,124,124 m²,3,2,Semi-D,2022-08-10,F,114858129,402.52 kWh/m2/yr,53.287883,-6.22478,Buy,UNIVERSITY_COLLEGE_DUBLIN_DUBLIN,http://www.daft.ie/for-sale/semi-detached-house-1-drummartin-crescent-goatstown-dublin-14/3820575
3818614,18804475,"3 Seaview Terrace, Donnybrook, Dublin 4",3250000.0,470,470 m²,7,5,Semi-D,2022-08-10,D2,108657701,285.47 kWh/m2/yr,53.318193,-6.22575,Buy,UNIVERSITY_COLLEGE_DUBLIN_DUBLIN,http://www.daft.ie/for-sale/semi-detached-house-3-seaview-terrace-donnybrook-dublin-4/3818614
3817557,18797522,"105 Upper Kilmacud Road, Stillorgan, Co. Dublin",650000.0,128,128 m²,3,1,Semi-D,2022-08-10,F,114856313,419.68 kWh/m2/yr,53.284187,-6.213176,Buy,UNIVERSITY_COLLEGE_DUBLIN_DUBLIN,http://www.daft.ie/for-sale/semi-detached-house-105-upper-kilmacud-road-stillorgan-co-dublin/3817557
3805348,18692767,"Dunamase, Old Frankfort, Dundrum Road, Dundrum, Dublin 14",1100000.0,175,175 m²,4,3,Detached,2022-08-08,B1,114821549,85.17 kWh/m2/yr,53.297813,-6.247742,Buy,UNIVERSITY_COLLEGE_DUBLIN_DUBLIN,http://www.daft.ie/for-sale/detached-house-dunamase-old-frankfort-dundrum-road-dundrum-dublin-14/3805348
3811669,18742303,"13 Eglinton Terrace Donnybrook Dublin 4, Donnybrook, Dublin 4",995000.0,157,157 m²,3,2,End of Terrace,2022-07-27,C1,105173496,168.09 kWh/m2/yr,53.322434,-6.234768,Buy,UNIVERSITY_COLLEGE_DUBLIN_DUBLIN,http://www.daft.ie/for-sale/end-of-terrace-house-13-eglinton-terrace-donnybrook-dublin-4-donnybrook-dublin-4/3811669
3811099,18737707,"28 St Johns Road, Sandymount, Dublin 4",3000000.0,302,302 m²,5,3,Detached,2022-08-10,SI_666,,,53.324292,-6.210336,Buy,UNIVERSITY_COLLEGE_DUBLIN_DUBLIN,http://www.daft.ie/for-sale/detached-house-28-st-johns-road-sandymount-dublin-4/3811099
3806203,18703216,"73 Ramleh Park, Milltown, Milltown, Dublin 6",1250000.0,145,145 m²,5,3,Semi-D,2022-08-09,C3,115031726,224.86 kWh/m2/yr,53.314439,-6.243864,Buy,UNIVERSITY_COLLEGE_DUBLIN_DUBLIN,http://www.daft.ie/for-sale/semi-detached-house-73-ramleh-park-milltown-milltown-dublin-6/3806203
3803844,18679365,"Lindal, Lindal, Old Dublin Road, Stillorgan, Co. Dublin",675000.0,103,103 m²,3,1,Semi-D,2022-08-10,D1,114780836,259.5 kWh/m2/yr,53.2916,-6.201239,Buy,UNIVERSITY_COLLEGE_DUBLIN_DUBLIN,http://www.daft.ie/for-sale/semi-detached-house-lindal-lindal-old-dublin-road-stillorgan-co-dublin/3803844
3803502,18674923,"1 Roebuck Mews, The Palms, Clonskeagh, Dublin 14",445000.0,63,63 m²,2,,Semi-D,2022-08-10,C1,110182276,154.42 kWh/m2/yr,53.299505,-6.224088,Buy,UNIVERSITY_COLLEGE_DUBLIN_DUBLIN,http://www.daft.ie/for-sale/semi-detached-house-1-roebuck-mews-the-palms-clonskeagh-dublin-14/3803502
3801071,18652665,"13 Sandymount Road, Sandymount, Dublin 4",2500000.0,325,325 m²,5,3,End of Terrace,2022-08-10,D2,112264833,297.31 kWh/m2/yr,53.335484,-6.220471,Buy,UNIVERSITY_COLLEGE_DUBLIN_DUBLIN,http://www.daft.ie/for-sale/end-of-terrace-house-13-sandymount-road-sandymount-dublin-4/3801071
3796572,18616122,"21 Whitebeam Road, Clonskeagh, Dublin 14",1150000.0,137,137 m²,4,2,Semi-D,2022-08-10,D2,108020223,,53.312385,-6.241057,Buy,UNIVERSITY_COLLEGE_DUBLIN_DUBLIN,http://www.daft.ie/for-sale/semi-detached-house-21-whitebeam-road-clonskeagh-dublin-14/3796572
3790084,18569617,"71 Belmont Avenue, Donnybrook, Donnybrook, Dublin 4",1000000.0,180,180 m²,5,3,Semi-D,2022-07-12,C2,114504731,192.0 kWh/m2/yr,53.320774,-6.241468,Buy,UNIVERSITY_COLLEGE_DUBLIN_DUBLIN,http://www.daft.ie/for-sale/semi-detached-house-71-belmont-avenue-donnybrook-donnybrook-dublin-4/3790084
3779777,18473680,"35 Millmount Grove, Dundrum Road, Dundrum, Dublin 14",299000.0,34,34 m²,1,1,Terrace,2022-08-10,G,114827124,509.48 kWh/m2/yr,53.304444,-6.246398,Buy,UNIVERSITY_COLLEGE_DUBLIN_DUBLIN,http://www.daft.ie/for-sale/terraced-house-35-millmount-grove-dundrum-road-dundrum-dublin-14/3779777
3789505,18562957,"138 Tritonville Road Sandymount Dublin 4, Sandymount, Dublin 4",1750000.0,243,243 m²,5,3,Terrace,2022-08-10,,,,53.332359,-6.221761,Buy,UNIVERSITY_COLLEGE_DUBLIN_DUBLIN,http://www.daft.ie/for-sale/terraced-house-138-tritonville-road-sandymount-dublin-4-sandymount-dublin-4/3789505
3789231,18561395,"38 Lakelands Crescent, Stillorgan, Co. Dublin",675000.0,163,163 m²,4,4,Detached,2022-08-10,E2,114799901,351.8 kWh/m2/yr,53.281814,-6.214262,Buy,UNIVERSITY_COLLEGE_DUBLIN_DUBLIN,http://www.daft.ie/for-sale/detached-house-38-lakelands-crescent-stillorgan-co-dublin/3789231
3783151,18506159,"15 Millmount Grove, Windy Arbour, Dundrum, Dublin 14",395000.0,58,58 m²,2,1,Terrace,2022-08-10,F,,,53.304586,-6.246075,Buy,UNIVERSITY_COLLEGE_DUBLIN_DUBLIN,http://www.daft.ie/for-sale/terraced-house-15-millmount-grove-windy-arbour-dundrum-dublin-14/3783151
3778771,18464615,"1A Mulvey Park, Dundrum, Dundrum, Dublin 14",450000.0,80,80 m²,3,2,Detached,2022-07-11,F,113233373,384.72 kWh/m2/yr,53.301219,-6.245233,Buy,UNIVERSITY_COLLEGE_DUBLIN_DUBLIN,http://www.daft.ie/for-sale/detached-house-1a-mulvey-park-dundrum-dundrum-dublin-14/3778771
3761071,18313347,"24 Seafield Road, Blackrock, Co. Dublin",699000.0,100,100 m²,4,1,Semi-D,2022-08-09,G,114834146,735.13 kWh/m2/yr,53.307923,-6.209096,Buy,UNIVERSITY_COLLEGE_DUBLIN_DUBLIN,http://www.daft.ie/for-sale/semi-detached-house-24-seafield-road-blackrock-co-dublin/3761071
3733915,18079090,"17 The Crescent, Donnybrook, Dublin 4",850000.0,104,104 m²,3,2,End of Terrace,2022-08-10,F,112964945,403.77 kWh/m2/yr,53.321389,-6.236676,Buy,UNIVERSITY_COLLEGE_DUBLIN_DUBLIN,http://www.daft.ie/for-sale/end-of-terrace-house-17-the-crescent-donnybrook-dublin-4/3733915
3589862,16667869,"11 Raglan Road, Ballsbridge, Dublin 4",3000000.0,341,341 m²,5,4,Terrace,2022-08-10,SI_666,,,53.330873,-6.238574,Buy,UNIVERSITY_COLLEGE_DUBLIN_DUBLIN,http://www.daft.ie/for-sale/terraced-house-11-raglan-road-ballsbridge-dublin-4/3589862
3731142,18051616,"Riverside, Dundrum Road, Dundrum, Dublin 14",Price on Application,232,232 m²,4,2,Detached,2022-07-29,F,,,53.305551,-6.246451,Buy,UNIVERSITY_COLLEGE_DUBLIN_DUBLIN,http://www.daft.ie/for-sale/detached-house-riverside-dundrum-road-dundrum-dublin-14/3731142
3647997,17251423,"3 Zardoz Court, Anglesea Road, Dublin 1",1000000.0,134,134 m²,3,3,Townhouse,2022-06-21,B3,106135023,134.24 kWh/m2/yr,53.326071,-6.231429,Buy,UNIVERSITY_COLLEGE_DUBLIN_DUBLIN,http://www.daft.ie/for-sale/townhouse-3-zardoz-court-anglesea-road-dublin-1/3647997
3636800,17092993,"34 Woodbine Park, Booterstown, Co. Dublin",875000.0,145,145 m²,4,2,Semi-D,2022-08-10,D1,100818855,226.44 kWh/m2/yr,53.310299,-6.207736,Buy,UNIVERSITY_COLLEGE_DUBLIN_DUBLIN,http://www.daft.ie/for-sale/semi-detached-house-34-woodbine-park-booterstown-co-dublin/3636800
3601757,16791162,"12 Morehampton Road, Donnybrook, Dublin 4",2750000.0,428,428 m²,6,7,Terrace,2022-07-25,SI_666,,,53.327195,-6.243015,Buy,UNIVERSITY_COLLEGE_DUBLIN_DUBLIN,http://www.daft.ie/for-sale/terraced-house-12-morehampton-road-donnybrook-dublin-4/3601757
3585586,16613607,"Woodford Booterstown Park Booterstown, Booterstown, Co. Dublin",2950000.0,455,455 m²,5,4,Detached,2022-08-10,B3,114455736,148.77 kWh/m2/yr,53.301796,-6.197088,Buy,UNIVERSITY_COLLEGE_DUBLIN_DUBLIN,http://www.daft.ie/for-sale/detached-house-woodford-booterstown-park-booterstown-booterstown-co-dublin/3585586
3560087,16332617,"3 Zardoz Court, Ballsbridge, Dublin 4",1000000.0,134,134 m²,3,3,Terrace,2022-06-26,B3,106135023,134.24 kWh/m2/yr,53.326072972192776,-6.2313845075294125,Buy,UNIVERSITY_COLLEGE_DUBLIN_DUBLIN,http://www.daft.ie/for-sale/terraced-house-3-zardoz-court-ballsbridge-dublin-4/3560087
3556418,16286551,"5 Willow Bank, Dundrum, Dublin 14",350000.0,67,67 m²,2,1,Terrace,2022-08-10,D2,114394471,268.22 kWh/m2/yr,53.285237,-6.237634,Buy,UNIVERSITY_COLLEGE_DUBLIN_DUBLIN,http://www.daft.ie/for-sale/terraced-house-5-willow-bank-dundrum-dublin-14/3556418
2842029,13328039,"17 Herbert Park, Ballsbridge, Dublin 4",2300000.0,300,300 m²,6,2,Semi-D,2022-08-10,,,,53.32636,-6.238287,Buy,UNIVERSITY_COLLEGE_DUBLIN_DUBLIN,http://www.daft.ie/for-sale/semi-detached-house-17-herbert-park-ballsbridge-dublin-4/2842029
3892521,18884820,"29 Balally Grove, Dundrum, Dublin 16",595000.0,109,109 m²,3,1,Semi-D,2022-08-10,F,114873045,409.05 kWh/m2/yr,53.280434,-6.228078,Buy,UNIVERSITY_COLLEGE_DUBLIN_DUBLIN,http://www.daft.ie/for-sale/semi-detached-house-29-balally-grove-dundrum-dublin-16/3892521
3890833,18868181,"13 Priory Grove Blackrock, Blackrock, Co. Dublin",1150000.0,185,185 m²,4,3,Semi-D,2022-05-13,D1,,,53.292691,-6.199464,Buy,UNIVERSITY_COLLEGE_DUBLIN_DUBLIN,http://www.daft.ie/for-sale/semi-detached-house-13-priory-grove-blackrock-blackrock-co-dublin/3890833
3824806,18858676,"Cluain Mhuire, 50 Priory Avenue, Stillorgan, Co. Dublin",925000.0,142,142 m²,4,2,Semi-D,2022-08-10,D1,106328206,252.78 kWh/m2/yr,53.294466,-6.196838,Buy,UNIVERSITY_COLLEGE_DUBLIN_DUBLIN,http://www.daft.ie/for-sale/semi-detached-house-cluain-mhuire-50-priory-avenue-stillorgan-co-dublin/3824806
3820674,18821605,"62 Churchtown Road Lower, Churchtown, Churchtown, Dublin 14",550000.0,84,84 m²,3,2,Semi-D,2022-05-30,G,100403161,548.03 kWh/m2/yr,53.301257,-6.250965,Buy,UNIVERSITY_COLLEGE_DUBLIN_DUBLIN,http://www.daft.ie/for-sale/semi-detached-house-62-churchtown-road-lower-churchtown-churchtown-dublin-14/3820674
3820575,18820384,"1 Drummartin Crescent, Goatstown, Dublin 14",775000.0,124,124 m²,3,2,Semi-D,2022-08-10,F,114858129,402.52 kWh/m2/yr,53.287883,-6.22478,Buy,UNIVERSITY_COLLEGE_DUBLIN_DUBLIN,http://www.daft.ie/for-sale/semi-detached-house-1-drummartin-crescent-goatstown-dublin-14/3820575
3818614,18804475,"3 Seaview Terrace, Donnybrook, Dublin 4",3250000.0,470,470 m²,7,5,Semi-D,2022-08-10,D2,108657701,285.47 kWh/m2/yr,53.318193,-6.22575,Buy,UNIVERSITY_COLLEGE_DUBLIN_DUBLIN,http://www.daft.ie/for-sale/semi-detached-house-3-seaview-terrace-donnybrook-dublin-4/3818614
3817557,18797522,"105 Upper Kilmacud Road, Stillorgan, Co. Dublin",650000.0,128,128 m²,3,1,Semi-D,2022-08-10,F,114856313,419.68 kWh/m2/yr,53.284187,-6.213176,Buy,UNIVERSITY_COLLEGE_DUBLIN_DUBLIN,http://www.daft.ie/for-sale/semi-detached-house-105-upper-kilmacud-road-stillorgan-co-dublin/3817557
3806203,18703216,"73 Ramleh Park, Milltown, Milltown, Dublin 6",1250000.0,145,145 m²,5,3,Semi-D,2022-08-09,C3,115031726,224.86 kWh/m2/yr,53.314439,-6.243864,Buy,UNIVERSITY_COLLEGE_DUBLIN_DUBLIN,http://www.daft.ie/for-sale/semi-detached-house-73-ramleh-park-milltown-milltown-dublin-6/3806203
3803844,18679365,"Lindal, Lindal, Old Dublin Road, Stillorgan, Co. Dublin",675000.0,103,103 m²,3,1,Semi-D,2022-08-10,D1,114780836,259.5 kWh/m2/yr,53.2916,-6.201239,Buy,UNIVERSITY_COLLEGE_DUBLIN_DUBLIN,http://www.daft.ie/for-sale/semi-detached-house-lindal-lindal-old-dublin-road-stillorgan-co-dublin/3803844
3803502,18674923,"1 Roebuck Mews, The Palms, Clonskeagh, Dublin 14",445000.0,63,63 m²,2,,Semi-D,2022-08-10,C1,110182276,154.42 kWh/m2/yr,53.299505,-6.224088,Buy,UNIVERSITY_COLLEGE_DUBLIN_DUBLIN,http://www.daft.ie/for-sale/semi-detached-house-1-roebuck-mews-the-palms-clonskeagh-dublin-14/3803502
3796572,18616122,"21 Whitebeam Road, Clonskeagh, Dublin 14",1150000.0,137,137 m²,4,2,Semi-D,2022-08-10,D2,108020223,,53.312385,-6.241057,Buy,UNIVERSITY_COLLEGE_DUBLIN_DUBLIN,http://www.daft.ie/for-sale/semi-detached-house-21-whitebeam-road-clonskeagh-dublin-14/3796572
3790084,18569617,"71 Belmont Avenue, Donnybrook, Donnybrook, Dublin 4",1000000.0,180,180 m²,5,3,Semi-D,2022-07-12,C2,114504731,192.0 kWh/m2/yr,53.320774,-6.241468,Buy,UNIVERSITY_COLLEGE_DUBLIN_DUBLIN,http://www.daft.ie/for-sale/semi-detached-house-71-belmont-avenue-donnybrook-donnybrook-dublin-4/3790084
3761071,18313347,"24 Seafield Road, Blackrock, Co. Dublin",699000.0,100,100 m²,4,1,Semi-D,2022-08-09,G,114834146,735.13 kWh/m2/yr,53.307923,-6.209096,Buy,UNIVERSITY_COLLEGE_DUBLIN_DUBLIN,http://www.daft.ie/for-sale/semi-detached-house-24-seafield-road-blackrock-co-dublin/3761071
3636800,17092993,"34 Woodbine Park, Booterstown, Co. Dublin",875000.0,145,145 m²,4,2,Semi-D,2022-08-10,D1,100818855,226.44 kWh/m2/yr,53.310299,-6.207736,Buy,UNIVERSITY_COLLEGE_DUBLIN_DUBLIN,http://www.daft.ie/for-sale/semi-detached-house-34-woodbine-park-booterstown-co-dublin/3636800
2842029,13328039,"17 Herbert Park, Ballsbridge, Dublin 4",2300000.0,300,300 m²,6,2,Semi-D,2022-08-10,,,,53.32636,-6.238287,Buy,UNIVERSITY_COLLEGE_DUBLIN_DUBLIN,http://www.daft.ie/for-sale/semi-detached-house-17-herbert-park-ballsbridge-dublin-4/2842029
