id,daftShortcode,title,price,size_meters_squared,propertySize,bedrooms,bathrooms,propertyType,publishDate,ber_rating,ber_code,ber_epi,latitude,longitude,category,location,url_link
3999370,112923053,"Courtclough Lower, The Ballagh, Co. Wexford",250000.0,257,257 m²,5,4,Detached,2022-07-29,G,114894363,473.39 kWh/m2/yr,52.475136,-6.382275,Buy,WEXFORD,http://www.daft.ie/for-sale/detached-house-courtclough-lower-the-ballagh-co-wexford/3999370
3998291,112918921,"17 Kyle Meadow, Oulart, Oulart, Co. Wexford",325000.0,151,151 m²,4,3,Detached,2022-08-09,C2,114563863,184.63 kWh/m2/yr,52.504223,-6.39303,Buy,WEXFORD,http://www.daft.ie/for-sale/detached-house-17-kyle-meadow-oulart-oulart-co-wexford/3998291
3998145,112916465,"Coldblow, Kilrane, Co. Wexford",695000.0,354,354 m²,5,4,Detached,2022-08-10,B3,114858772,126.09 kWh/m2/yr,52.222195,-6.367928,Buy,WEXFORD,http://www.daft.ie/for-sale/detached-house-coldblow-kilrane-co-wexford/3998145
3998133,112915769,"Ballyhighland, Caim, Enniscorthy, Co. Wexford",375000.0,236,236 m²,4,4,Detached,2022-08-10,C1,114653389,172.22 kWh/m2/yr,52.516647,-6.710259,Buy,WEXFORD,http://www.daft.ie/for-sale/detached-house-ballyhighland-caim-enniscorthy-co-wexford/3998133
3997814,112912508,"The Bromley, Coolcotts Lane, Wexford Town, Co. Wexford",565000.0,251,251 m²,4,6,Detached,2022-08-02,C3,115362550,203.76 kWh/m2/yr,52.33894,-6.501145,Buy,WEXFORD,http://www.daft.ie/for-sale/detached-house-the-bromley-coolcotts-lane-wexford-town-co-wexford/3997814
3997813,112912512,"Courtclough Lower, The Ballagh, Co. Wexford",150000.0,65,65 m²,2,1,Detached,2022-07-29,SI_666,,,52.475359,-6.382168,Buy,WEXFORD,http://www.daft.ie/for-sale/detached-house-courtclough-lower-the-ballagh-co-wexford/3997813
3997303,112907834,"Rosetown, Rosslare Strand, Co. Wexford",725000.0,180,180 m²,4,3,Detached,2022-07-27,A2,000000000,,52.261263,-6.38652,Buy,WEXFORD,http://www.daft.ie/for-sale/detached-house-rosetown-rosslare-strand-co-wexford/3997303
3997152,112906448,"Landscape, New Ross, Co. Wexford",195000.0,69,69 m²,3,1,Detached,2022-08-10,G,115354375,,52.361293,-6.958215,Buy,WEXFORD,http://www.daft.ie/for-sale/detached-house-landscape-new-ross-co-wexford/3997152
3996700,112899504,"The Cardiffs, Strand Road, Whitehouse, Rosslare Strand, Co. Wexford",475000.0,129,129 m²,4,2,Detached,2022-07-27,F,114780646,446.41 kWh/m2/yr,52.278142,-6.390828,Buy,WEXFORD,http://www.daft.ie/for-sale/detached-house-the-cardiffs-strand-road-whitehouse-rosslare-strand-co-wexford/3996700
3996640,112899478,"Ballincash Lower, Oulart, Enniscorthy, Co. Wexford",370000.0,N/A,,4,3,Detached,2022-08-10,C3,115368896,213.85 kWh/m2/yr,52.523616,-6.426774,Buy,WEXFORD,http://www.daft.ie/for-sale/detached-house-ballincash-lower-oulart-enniscorthy-co-wexford/3996640
3996491,112898010,"Mount Howard, Gorey, Co. Wexford",328000.0,298,298 m²,3,4,Detached,2022-08-09,C1,,,52.579412,-6.369343,Buy,WEXFORD,http://www.daft.ie/for-sale/detached-house-mount-howard-gorey-co-wexford/3996491
3996479,112898005,"Redmoor, Kilmore Quay, Co. Wexford",170000.0,N/A,,3,1,Detached,2022-08-04,E1,,,52.21349,-6.623161,Buy,WEXFORD,http://www.daft.ie/for-sale/detached-house-redmoor-kilmore-quay-co-wexford/3996479
3750158,18236259,"Slade, Fethard-On-Sea, Co. Wexford",335000.0,186,186 m²,5,2,Detached,2022-08-10,C2,111429007,180.5 kWh/m2/yr,52.13536,-6.916486,Buy,WEXFORD,http://www.daft.ie/for-sale/detached-house-slade-fethard-on-sea-co-wexford/3750158
3995639,112889870,"6 Grange Close, Grange Big, Rosslare Strand, Co. Wexford",350000.0,97,97 m²,3,2,Detached,2022-08-09,E1,115346892,303.81 kWh/m2/yr,52.274349,-6.397067,Buy,WEXFORD,http://www.daft.ie/for-sale/detached-house-6-grange-close-grange-big-rosslare-strand-co-wexford/3995639
3995616,112888321,"Ballinvegga, New Ross, Co. Wexford",435000.0,176,176 m²,4,3,Detached,2022-08-10,A2,114526106,49.65 kWh/m2/yr,52.428539,-6.838049,Buy,WEXFORD,http://www.daft.ie/for-sale/detached-house-ballinvegga-new-ross-co-wexford/3995616
3995410,112886038,"Kildavin Lodge, Kildavin Upper, Murrintown, Co. Wexford",595000.0,159,159 m²,4,3,Detached,2022-07-26,G,114816580,479.25 kWh/m2/yr,52.298938,-6.527248,Buy,WEXFORD,http://www.daft.ie/for-sale/detached-house-kildavin-lodge-kildavin-upper-murrintown-co-wexford/3995410
3995275,112885206,"MACE, Crossfarnoge, Kilmore Quay, Co. Wexford",1200000.0,525,525 m²,5,3,Detached,2022-08-09,C1,800761538,460.06 kWh/m2/yr,52.175465,-6.591861,Buy,WEXFORD,http://www.daft.ie/for-sale/detached-house-mace-crossfarnoge-kilmore-quay-co-wexford/3995275
3995142,112882782,"Kilmurray, Gorey, Co. Wexford",495000.0,200,200 m²,5,2,Detached,2022-07-26,C3,,,52.694206,-6.256718,Buy,WEXFORD,http://www.daft.ie/for-sale/detached-house-kilmurray-gorey-co-wexford/3995142
3994288,112873006,"St. Mary's, Summerhill, Wexford Town, Co. Wexford",625000.0,470,470 m²,6,3,Detached,2022-08-09,SI_666,,,52.333578,-6.471677,Buy,WEXFORD,http://www.daft.ie/for-sale/detached-house-st-marys-summerhill-wexford-town-co-wexford/3994288
3993985,112870154,"Ballyconnick, Cleariestown, Co. Wexford","AMV: €75,000",75,75 m²,2,1,Detached,2022-08-10,G,114283336,,52.273549,-6.616731,Buy,WEXFORD,http://www.daft.ie/for-sale/detached-house-ballyconnick-cleariestown-co-wexford/3993985
3993697,112866444,"8 Seaview, Poulshone, Co. Wexford",269000.0,94,94 m²,3,2,Detached,2022-08-09,D1,107999641,259.85 kWh/m2/yr,52.618402,-6.231937,Buy,WEXFORD,http://www.daft.ie/for-sale/detached-house-8-seaview-poulshone-co-wexford/3993697
3993554,112863990,"Alltwen, Coddstown, Killinick, Co. Wexford",379000.0,258,258 m²,4,4,Detached,2022-08-09,C3,112536206,224.2 kWh/m2/yr,52.220456,-6.445154,Buy,WEXFORD,http://www.daft.ie/for-sale/detached-house-alltwen-coddstown-killinick-co-wexford/3993554
3818989,18808116,"13 Woodside, Courtown, Co. Wexford",220000.0,110,110 m²,3,3,Detached,2022-08-05,E1,,,52.645752,-6.238569,Buy,WEXFORD,http://www.daft.ie/for-sale/detached-house-13-woodside-courtown-co-wexford/3818989
3993445,112862492,"Hilltown House, Hilltown, Carne, Co. Wexford",450000.0,196,196 m²,4,2,Detached,2022-07-25,F,108890609,421.15 kWh/m2/yr,52.18347,-6.379905,Buy,WEXFORD,http://www.daft.ie/for-sale/detached-house-hilltown-house-hilltown-carne-co-wexford/3993445
3240324,14957706,"Kilhile, Arthurstown, Co. Wexford",650000.0,420,420 m²,4,5,Detached,2022-07-22,B2,111274973,,52.262571,-6.959149,Buy,WEXFORD,http://www.daft.ie/for-sale/detached-house-kilhile-arthurstown-co-wexford/3240324
3992010,19748875,"54 Bridgemeadow, Milehouse Road, Enniscorthy, Co. Wexford",250000.0,102,102 m²,3,3,Detached,2022-08-08,C2,,,52.509995,-6.590684,Buy,WEXFORD,http://www.daft.ie/for-sale/detached-house-54-bridgemeadow-milehouse-road-enniscorthy-co-wexford/3992010
3992034,19748884,"Suaimhneas, Bearlough, Rosslare Strand, Co. Wexford",395000.0,131,131 m²,2,2,Detached,2022-08-09,D2,110538501,287.6 kWh/m2/yr,52.286619,-6.396297,Buy,WEXFORD,http://www.daft.ie/for-sale/detached-house-suaimhneas-bearlough-rosslare-strand-co-wexford/3992034
3991687,19743265,"Bannow Moor, Bannow, Co. Wexford",375000.0,153,153 m²,4,3,Detached,2022-08-10,C3,115371627,223.0 kWh/m2/yr,52.224473,-6.772071,Buy,WEXFORD,http://www.daft.ie/for-sale/detached-house-bannow-moor-bannow-co-wexford/3991687
3991577,19741723,"Clones Upper, Castletown, Co. Wexford",450000.0,268,268 m²,4,3,Detached,2022-08-10,C1,107411324,158.29 kWh/m2/yr,52.714851,-6.170737,Buy,WEXFORD,http://www.daft.ie/for-sale/detached-house-clones-upper-castletown-co-wexford/3991577
3991547,19741693,"Ballydicken Upper, Wexford Town, Co. Wexford",715000.0,250,250 m²,4,3,Detached,2022-08-10,B2,,,52.386602,-6.549517,Buy,WEXFORD,http://www.daft.ie/for-sale/detached-house-ballydicken-upper-wexford-town-co-wexford/3991547
3991226,19736029,"Killisk, The Ballagh, Co. Wexford",325000.0,171,171 m²,4,3,Detached,2022-07-28,C2,114579410,185.3 kWh/m2/yr,52.453928,-6.44051,Buy,WEXFORD,http://www.daft.ie/for-sale/detached-house-killisk-the-ballagh-co-wexford/3991226
3990666,19729943,"Four Seasons, 23 La Rochelle, Rosslare Harbour, Co. Wexford",269000.0,115,115 m²,4,3,Detached,2022-07-21,C2,115220493,197.85 kWh/m2/yr,52.248581,-6.341954,Buy,WEXFORD,http://www.daft.ie/for-sale/detached-house-four-seasons-23-la-rochelle-rosslare-harbour-co-wexford/3990666
3990548,19729437,"Rosspile, Foulksmills, Co. Wexford",129000.0,41,41 m²,1,1,Detached,2022-07-21,G,114618341,830.7 kWh/m2/yr,52.303504,-6.7479,Buy,WEXFORD,http://www.daft.ie/for-sale/detached-house-rosspile-foulksmills-co-wexford/3990548
3990399,19729336,"The Cottage, Ballyfad, Co. Wexford",275000.0,70,70 m²,3,1,Detached,2022-08-10,F,115344467,411.21 kWh/m2/yr,52.770891,-6.2789,Buy,WEXFORD,http://www.daft.ie/for-sale/detached-house-the-cottage-ballyfad-co-wexford/3990399
3990270,19727556,"Ballybeg, Ferns, Co. Wexford","AMV: €449,000",416,416 m²,4,3,Detached,2022-08-10,C1,,,52.652825,-6.50582,Buy,WEXFORD,http://www.daft.ie/for-sale/detached-house-ballybeg-ferns-co-wexford/3990270
3990293,19728991,"Beaufield, Bunclody, Co. Wexford",50000.0,N/A,0.5 ac,,,Detached,2022-08-10,,,,52.686445,-6.581377,Buy,WEXFORD,http://www.daft.ie/for-sale/detached-house-beaufield-bunclody-co-wexford/3990293
3990234,19727536,"Dreamfields, 2 Ballinamona, The Ballagh, Co. Wexford",425000.0,185,185 m²,4,3,Detached,2022-08-09,C1,112354790,154.82 kWh/m2/yr,52.459119,-6.408065,Buy,WEXFORD,http://www.daft.ie/for-sale/detached-house-dreamfields-2-ballinamona-the-ballagh-co-wexford/3990234
3988021,19701772,"1 Beechbrook Park, Kilmuckridge, Co. Wexford",220000.0,112,112 m²,3,3,Detached,2022-08-09,C1,,,52.50869,-6.289958,Buy,WEXFORD,http://www.daft.ie/for-sale/detached-house-1-beechbrook-park-kilmuckridge-co-wexford/3988021
3989641,19720299,"Rockspring, Gorey, Co. Wexford",450000.0,195,195 m²,4,3,Detached,2022-08-10,C1,,,52.58415,-6.416788,Buy,WEXFORD,http://www.daft.ie/for-sale/detached-house-rockspring-gorey-co-wexford/3989641
3989417,19718910,"Ardcavan, Wexford Town, Co. Wexford",495000.0,200,200 m²,4,3,Detached,2022-07-20,E2,114871726,343.04 kWh/m2/yr,52.355443,-6.450199,Buy,WEXFORD,http://www.daft.ie/for-sale/detached-house-ardcavan-wexford-town-co-wexford/3989417
3989355,19716563,"Churchtown, Tacumshane, Co. Wexford",395000.0,209,209 m²,5,3,Detached,2022-08-09,C2,105313258,189.05 kWh/m2/yr,52.204024,-6.437909,Buy,WEXFORD,http://www.daft.ie/for-sale/detached-house-churchtown-tacumshane-co-wexford/3989355
3509541,16056209,"Setting Sun, Ballyhack Lower, Arthurstown, Co. Wexford",399500.0,145,145 m²,3,3,Detached,2022-07-20,B3,113073191,,52.245819,-6.968009,Buy,WEXFORD,http://www.daft.ie/for-sale/detached-house-setting-sun-ballyhack-lower-arthurstown-co-wexford/3509541
3987634,19698140,"Mulrankin, Bridgetown, Co. Wexford",445000.0,298,298 m²,5,3,Detached,2022-07-20,B2,114604960,120.32 kWh/m2/yr,52.245216,-6.550043,Buy,WEXFORD,http://www.daft.ie/for-sale/detached-house-mulrankin-bridgetown-co-wexford/3987634
3821512,18830388,"25 Gorey Hill, Gorey, Co. Wexford",255000.0,98,98 m²,3,1,Detached,2022-08-09,D1,,,52.675779,-6.308887,Buy,WEXFORD,http://www.daft.ie/for-sale/detached-house-25-gorey-hill-gorey-co-wexford/3821512
3986843,19690166,"7 Evergreen Way, Whitebrook, Wexford Town, Co. Wexford",230000.0,95,95 m²,3,3,Detached,2022-07-19,C2,109812065,188.48 kWh/m2/yr,52.320738,-6.478301,Buy,WEXFORD,http://www.daft.ie/for-sale/detached-house-7-evergreen-way-whitebrook-wexford-town-co-wexford/3986843
3986436,19687843,"Rackardstown, Kilmore, Co. Wexford",342500.0,165,165 m²,5,3,Detached,2022-07-19,C3,114408370,204.39 kWh/m2/yr,52.191848,-6.560036,Buy,WEXFORD,http://www.daft.ie/for-sale/detached-house-rackardstown-kilmore-co-wexford/3986436
3986241,19685914,"The Nest, Court, Gorey, Co. Wexford",345000.0,102,102 m²,1,1,Detached,2022-08-10,D2,114861768,272.76 kWh/m2/yr,52.553095,-6.342012,Buy,WEXFORD,http://www.daft.ie/for-sale/detached-house-the-nest-court-gorey-co-wexford/3986241
3985497,19680325,"Baylestown, Ballycullane, Ramsgrange, Co. Wexford",100000.0,N/A,,2,1,Detached,2022-07-18,SI_666,,,52.2602320487799,-6.862978717891821,Buy,WEXFORD,http://www.daft.ie/for-sale/detached-house-baylestown-ballycullane-ramsgrange-co-wexford/3985497
3984657,19671347,"Tullycanna, Ballymitty, Co. Wexford",345000.0,153,153 m²,4,2,Detached,2022-08-09,C3,115224974,217.53 kWh/m2/yr,52.268794,-6.670317,Buy,WEXFORD,http://www.daft.ie/for-sale/detached-house-tullycanna-ballymitty-co-wexford/3984657
3979500,19620822,"Ballykeerogebeg, Campile, Co. Wexford",195000.0,70,70 m²,3,1,Detached,2022-07-15,G,115231615,,52.296457,-6.932757,Buy,WEXFORD,http://www.daft.ie/for-sale/detached-house-ballykeerogebeg-campile-co-wexford/3979500
3999370,112923053,"Courtclough Lower, The Ballagh, Co. Wexford",250000.0,257,257 m²,5,4,Detached,2022-07-29,G,114894363,473.39 kWh/m2/yr,52.475136,-6.382275,Buy,WEXFORD,http://www.daft.ie/for-sale/detached-house-courtclough-lower-the-ballagh-co-wexford/3999370
3998291,112918921,"17 Kyle Meadow, Oulart, Oulart, Co. Wexford",325000.0,151,151 m²,4,3,Detached,2022-08-09,C2,114563863,184.63 kWh/m2/yr,52.504223,-6.39303,Buy,WEXFORD,http://www.daft.ie/for-sale/detached-house-17-kyle-meadow-oulart-oulart-co-wexford/3998291
3998145,112916465,"Coldblow, Kilrane, Co. Wexford",695000.0,354,354 m²,5,4,Detached,2022-08-10,B3,114858772,126.09 kWh/m2/yr,52.222195,-6.367928,Buy,WEXFORD,http://www.daft.ie/for-sale/detached-house-coldblow-kilrane-co-wexford/3998145
3998133,112915769,"Ballyhighland, Caim, Enniscorthy, Co. Wexford",375000.0,236,236 m²,4,4,Detached,2022-08-10,C1,114653389,172.22 kWh/m2/yr,52.516647,-6.710259,Buy,WEXFORD,http://www.daft.ie/for-sale/detached-house-ballyhighland-caim-enniscorthy-co-wexford/3998133
3997814,112912508,"The Bromley, Coolcotts Lane, Wexford Town, Co. Wexford",565000.0,251,251 m²,4,6,Detached,2022-08-02,C3,115362550,203.76 kWh/m2/yr,52.33894,-6.501145,Buy,WEXFORD,http://www.daft.ie/for-sale/detached-house-the-bromley-coolcotts-lane-wexford-town-co-wexford/3997814
3997813,112912512,"Courtclough Lower, The Ballagh, Co. Wexford",150000.0,65,65 m²,2,1,Detached,2022-07-29,SI_666,,,52.475359,-6.382168,Buy,WEXFORD,http://www.daft.ie/for-sale/detached-house-courtclough-lower-the-ballagh-co-wexford/3997813
3997303,112907834,"Rosetown, Rosslare Strand, Co. Wexford",725000.0,180,180 m²,4,3,Detached,2022-07-27,A2,000000000,,52.261263,-6.38652,Buy,WEXFORD,http://www.daft.ie/for-sale/detached-house-rosetown-rosslare-strand-co-wexford/3997303
3997152,112906448,"Landscape, New Ross, Co. Wexford",195000.0,69,69 m²,3,1,Detached,2022-08-10,G,115354375,,52.361293,-6.958215,Buy,WEXFORD,http://www.daft.ie/for-sale/detached-house-landscape-new-ross-co-wexford/3997152
3996700,112899504,"The Cardiffs, Strand Road, Whitehouse, Rosslare Strand, Co. Wexford",475000.0,129,129 m²,4,2,Detached,2022-07-27,F,114780646,446.41 kWh/m2/yr,52.278142,-6.390828,Buy,WEXFORD,http://www.daft.ie/for-sale/detached-house-the-cardiffs-strand-road-whitehouse-rosslare-strand-co-wexford/3996700
3996640,112899478,"Ballincash Lower, Oulart, Enniscorthy, Co. Wexford",370000.0,N/A,,4,3,Detached,2022-08-10,C3,115368896,213.85 kWh/m2/yr,52.523616,-6.426774,Buy,WEXFORD,http://www.daft.ie/for-sale/detached-house-ballincash-lower-oulart-enniscorthy-co-wexford/3996640
3996491,112898010,"Mount Howard, Gorey, Co. Wexford",328000.0,298,298 m²,3,4,Detached,2022-08-09,C1,,,52.579412,-6.369343,Buy,WEXFORD,http://www.daft.ie/for-sale/detached-house-mount-howard-gorey-co-wexford/3996491
3996479,112898005,"Redmoor, Kilmore Quay, Co. Wexford",170000.0,N/A,,3,1,Detached,2022-08-04,E1,,,52.21349,-6.623161,Buy,WEXFORD,http://www.daft.ie/for-sale/detached-house-redmoor-kilmore-quay-co-wexford/3996479
3750158,18236259,"Slade, Fethard-On-Sea, Co. Wexford",335000.0,186,186 m²,5,2,Detached,2022-08-10,C2,111429007,180.5 kWh/m2/yr,52.13536,-6.916486,Buy,WEXFORD,http://www.daft.ie/for-sale/detached-house-slade-fethard-on-sea-co-wexford/3750158
3995639,112889870,"6 Grange Close, Grange Big, Rosslare Strand, Co. Wexford",350000.0,97,97 m²,3,2,Detached,2022-08-09,E1,115346892,303.81 kWh/m2/yr,52.274349,-6.397067,Buy,WEXFORD,http://www.daft.ie/for-sale/detached-house-6-grange-close-grange-big-rosslare-strand-co-wexford/3995639
3995616,112888321,"Ballinvegga, New Ross, Co. Wexford",435000.0,176,176 m²,4,3,Detached,2022-08-10,A2,114526106,49.65 kWh/m2/yr,52.428539,-6.838049,Buy,WEXFORD,http://www.daft.ie/for-sale/detached-house-ballinvegga-new-ross-co-wexford/3995616
3995410,112886038,"Kildavin Lodge, Kildavin Upper, Murrintown, Co. Wexford",595000.0,159,159 m²,4,3,Detached,2022-07-26,G,114816580,479.25 kWh/m2/yr,52.298938,-6.527248,Buy,WEXFORD,http://www.daft.ie/for-sale/detached-house-kildavin-lodge-kildavin-upper-murrintown-co-wexford/3995410
3995275,112885206,"MACE, Crossfarnoge, Kilmore Quay, Co. Wexford",1200000.0,525,525 m²,5,3,Detached,2022-08-09,C1,800761538,460.06 kWh/m2/yr,52.175465,-6.591861,Buy,WEXFORD,http://www.daft.ie/for-sale/detached-house-mace-crossfarnoge-kilmore-quay-co-wexford/3995275
3995142,112882782,"Kilmurray, Gorey, Co. Wexford",495000.0,200,200 m²,5,2,Detached,2022-07-26,C3,,,52.694206,-6.256718,Buy,WEXFORD,http://www.daft.ie/for-sale/detached-house-kilmurray-gorey-co-wexford/3995142
3994288,112873006,"St. Mary's, Summerhill, Wexford Town, Co. Wexford",625000.0,470,470 m²,6,3,Detached,2022-08-09,SI_666,,,52.333578,-6.471677,Buy,WEXFORD,http://www.daft.ie/for-sale/detached-house-st-marys-summerhill-wexford-town-co-wexford/3994288
3993985,112870154,"Ballyconnick, Cleariestown, Co. Wexford","AMV: €75,000",75,75 m²,2,1,Detached,2022-08-10,G,114283336,,52.273549,-6.616731,Buy,WEXFORD,http://www.daft.ie/for-sale/detached-house-ballyconnick-cleariestown-co-wexford/3993985
3993697,112866444,"8 Seaview, Poulshone, Co. Wexford",269000.0,94,94 m²,3,2,Detached,2022-08-09,D1,107999641,259.85 kWh/m2/yr,52.618402,-6.231937,Buy,WEXFORD,http://www.daft.ie/for-sale/detached-house-8-seaview-poulshone-co-wexford/3993697
3993554,112863990,"Alltwen, Coddstown, Killinick, Co. Wexford",379000.0,258,258 m²,4,4,Detached,2022-08-09,C3,112536206,224.2 kWh/m2/yr,52.220456,-6.445154,Buy,WEXFORD,http://www.daft.ie/for-sale/detached-house-alltwen-coddstown-killinick-co-wexford/3993554
3818989,18808116,"13 Woodside, Courtown, Co. Wexford",220000.0,110,110 m²,3,3,Detached,2022-08-05,E1,,,52.645752,-6.238569,Buy,WEXFORD,http://www.daft.ie/for-sale/detached-house-13-woodside-courtown-co-wexford/3818989
3993445,112862492,"Hilltown House, Hilltown, Carne, Co. Wexford",450000.0,196,196 m²,4,2,Detached,2022-07-25,F,108890609,421.15 kWh/m2/yr,52.18347,-6.379905,Buy,WEXFORD,http://www.daft.ie/for-sale/detached-house-hilltown-house-hilltown-carne-co-wexford/3993445
3240324,14957706,"Kilhile, Arthurstown, Co. Wexford",650000.0,420,420 m²,4,5,Detached,2022-07-22,B2,111274973,,52.262571,-6.959149,Buy,WEXFORD,http://www.daft.ie/for-sale/detached-house-kilhile-arthurstown-co-wexford/3240324
3992010,19748875,"54 Bridgemeadow, Milehouse Road, Enniscorthy, Co. Wexford",250000.0,102,102 m²,3,3,Detached,2022-08-08,C2,,,52.509995,-6.590684,Buy,WEXFORD,http://www.daft.ie/for-sale/detached-house-54-bridgemeadow-milehouse-road-enniscorthy-co-wexford/3992010
3992034,19748884,"Suaimhneas, Bearlough, Rosslare Strand, Co. Wexford",395000.0,131,131 m²,2,2,Detached,2022-08-09,D2,110538501,287.6 kWh/m2/yr,52.286619,-6.396297,Buy,WEXFORD,http://www.daft.ie/for-sale/detached-house-suaimhneas-bearlough-rosslare-strand-co-wexford/3992034
3991687,19743265,"Bannow Moor, Bannow, Co. Wexford",375000.0,153,153 m²,4,3,Detached,2022-08-10,C3,115371627,223.0 kWh/m2/yr,52.224473,-6.772071,Buy,WEXFORD,http://www.daft.ie/for-sale/detached-house-bannow-moor-bannow-co-wexford/3991687
3991577,19741723,"Clones Upper, Castletown, Co. Wexford",450000.0,268,268 m²,4,3,Detached,2022-08-10,C1,107411324,158.29 kWh/m2/yr,52.714851,-6.170737,Buy,WEXFORD,http://www.daft.ie/for-sale/detached-house-clones-upper-castletown-co-wexford/3991577
3991547,19741693,"Ballydicken Upper, Wexford Town, Co. Wexford",715000.0,250,250 m²,4,3,Detached,2022-08-10,B2,,,52.386602,-6.549517,Buy,WEXFORD,http://www.daft.ie/for-sale/detached-house-ballydicken-upper-wexford-town-co-wexford/3991547
3991226,19736029,"Killisk, The Ballagh, Co. Wexford",325000.0,171,171 m²,4,3,Detached,2022-07-28,C2,114579410,185.3 kWh/m2/yr,52.453928,-6.44051,Buy,WEXFORD,http://www.daft.ie/for-sale/detached-house-killisk-the-ballagh-co-wexford/3991226
3990666,19729943,"Four Seasons, 23 La Rochelle, Rosslare Harbour, Co. Wexford",269000.0,115,115 m²,4,3,Detached,2022-07-21,C2,115220493,197.85 kWh/m2/yr,52.248581,-6.341954,Buy,WEXFORD,http://www.daft.ie/for-sale/detached-house-four-seasons-23-la-rochelle-rosslare-harbour-co-wexford/3990666
3990548,19729437,"Rosspile, Foulksmills, Co. Wexford",129000.0,41,41 m²,1,1,Detached,2022-07-21,G,114618341,830.7 kWh/m2/yr,52.303504,-6.7479,Buy,WEXFORD,http://www.daft.ie/for-sale/detached-house-rosspile-foulksmills-co-wexford/3990548
3990399,19729336,"The Cottage, Ballyfad, Co. Wexford",275000.0,70,70 m²,3,1,Detached,2022-08-10,F,115344467,411.21 kWh/m2/yr,52.770891,-6.2789,Buy,WEXFORD,http://www.daft.ie/for-sale/detached-house-the-cottage-ballyfad-co-wexford/3990399
3990270,19727556,"Ballybeg, Ferns, Co. Wexford","AMV: €449,000",416,416 m²,4,3,Detached,2022-08-10,C1,,,52.652825,-6.50582,Buy,WEXFORD,http://www.daft.ie/for-sale/detached-house-ballybeg-ferns-co-wexford/3990270
3990293,19728991,"Beaufield, Bunclody, Co. Wexford",50000.0,N/A,0.5 ac,,,Detached,2022-08-10,,,,52.686445,-6.581377,Buy,WEXFORD,http://www.daft.ie/for-sale/detached-house-beaufield-bunclody-co-wexford/3990293
3990234,19727536,"Dreamfields, 2 Ballinamona, The Ballagh, Co. Wexford",425000.0,185,185 m²,4,3,Detached,2022-08-09,C1,112354790,154.82 kWh/m2/yr,52.459119,-6.408065,Buy,WEXFORD,http://www.daft.ie/for-sale/detached-house-dreamfields-2-ballinamona-the-ballagh-co-wexford/3990234
3988021,19701772,"1 Beechbrook Park, Kilmuckridge, Co. Wexford",220000.0,112,112 m²,3,3,Detached,2022-08-09,C1,,,52.50869,-6.289958,Buy,WEXFORD,http://www.daft.ie/for-sale/detached-house-1-beechbrook-park-kilmuckridge-co-wexford/3988021
3989641,19720299,"Rockspring, Gorey, Co. Wexford",450000.0,195,195 m²,4,3,Detached,2022-08-10,C1,,,52.58415,-6.416788,Buy,WEXFORD,http://www.daft.ie/for-sale/detached-house-rockspring-gorey-co-wexford/3989641
3989417,19718910,"Ardcavan, Wexford Town, Co. Wexford",495000.0,200,200 m²,4,3,Detached,2022-07-20,E2,114871726,343.04 kWh/m2/yr,52.355443,-6.450199,Buy,WEXFORD,http://www.daft.ie/for-sale/detached-house-ardcavan-wexford-town-co-wexford/3989417
3989355,19716563,"Churchtown, Tacumshane, Co. Wexford",395000.0,209,209 m²,5,3,Detached,2022-08-09,C2,105313258,189.05 kWh/m2/yr,52.204024,-6.437909,Buy,WEXFORD,http://www.daft.ie/for-sale/detached-house-churchtown-tacumshane-co-wexford/3989355
3509541,16056209,"Setting Sun, Ballyhack Lower, Arthurstown, Co. Wexford",399500.0,145,145 m²,3,3,Detached,2022-07-20,B3,113073191,,52.245819,-6.968009,Buy,WEXFORD,http://www.daft.ie/for-sale/detached-house-setting-sun-ballyhack-lower-arthurstown-co-wexford/3509541
3987634,19698140,"Mulrankin, Bridgetown, Co. Wexford",445000.0,298,298 m²,5,3,Detached,2022-07-20,B2,114604960,120.32 kWh/m2/yr,52.245216,-6.550043,Buy,WEXFORD,http://www.daft.ie/for-sale/detached-house-mulrankin-bridgetown-co-wexford/3987634
3821512,18830388,"25 Gorey Hill, Gorey, Co. Wexford",255000.0,98,98 m²,3,1,Detached,2022-08-09,D1,,,52.675779,-6.308887,Buy,WEXFORD,http://www.daft.ie/for-sale/detached-house-25-gorey-hill-gorey-co-wexford/3821512
3986843,19690166,"7 Evergreen Way, Whitebrook, Wexford Town, Co. Wexford",230000.0,95,95 m²,3,3,Detached,2022-07-19,C2,109812065,188.48 kWh/m2/yr,52.320738,-6.478301,Buy,WEXFORD,http://www.daft.ie/for-sale/detached-house-7-evergreen-way-whitebrook-wexford-town-co-wexford/3986843
3986436,19687843,"Rackardstown, Kilmore, Co. Wexford",342500.0,165,165 m²,5,3,Detached,2022-07-19,C3,114408370,204.39 kWh/m2/yr,52.191848,-6.560036,Buy,WEXFORD,http://www.daft.ie/for-sale/detached-house-rackardstown-kilmore-co-wexford/3986436
3986241,19685914,"The Nest, Court, Gorey, Co. Wexford",345000.0,102,102 m²,1,1,Detached,2022-08-10,D2,114861768,272.76 kWh/m2/yr,52.553095,-6.342012,Buy,WEXFORD,http://www.daft.ie/for-sale/detached-house-the-nest-court-gorey-co-wexford/3986241
3985497,19680325,"Baylestown, Ballycullane, Ramsgrange, Co. Wexford",100000.0,N/A,,2,1,Detached,2022-07-18,SI_666,,,52.2602320487799,-6.862978717891821,Buy,WEXFORD,http://www.daft.ie/for-sale/detached-house-baylestown-ballycullane-ramsgrange-co-wexford/3985497
3984657,19671347,"Tullycanna, Ballymitty, Co. Wexford",345000.0,153,153 m²,4,2,Detached,2022-08-09,C3,115224974,217.53 kWh/m2/yr,52.268794,-6.670317,Buy,WEXFORD,http://www.daft.ie/for-sale/detached-house-tullycanna-ballymitty-co-wexford/3984657
3979500,19620822,"Ballykeerogebeg, Campile, Co. Wexford",195000.0,70,70 m²,3,1,Detached,2022-07-15,G,115231615,,52.296457,-6.932757,Buy,WEXFORD,http://www.daft.ie/for-sale/detached-house-ballykeerogebeg-campile-co-wexford/3979500
3983800,19659800,"9 Gleann Na Gcaor, Monageer, Enniscorthy, Co. Wexford",235000.0,119,119 m²,3,2,Detached,2022-08-10,C1,100976471,173.39 kWh/m2/yr,52.528274,-6.481008,Buy,WEXFORD,http://www.daft.ie/for-sale/detached-house-9-gleann-na-gcaor-monageer-enniscorthy-co-wexford/3983800
3983403,19655610,"Cuasnóg, Saint John's Road, Wexford Town, Co. Wexford",380000.0,117,117 m²,4,3,Detached,2022-08-10,D2,100418011,275.57 kWh/m2/yr,52.338178,-6.468441,Buy,WEXFORD,http://www.daft.ie/for-sale/detached-house-cuasn-g-saint-johns-road-wexford-town-co-wexford/3983403
3983409,19655653,"1 Daellen Glen, Ballywilliam, Tara Hill, Co. Wexford",575000.0,N/A,,5,5,Detached,2022-08-10,B3,105616551,131.37 kWh/m2/yr,52.710166,-6.239521,Buy,WEXFORD,http://www.daft.ie/for-sale/detached-house-1-daellen-glen-ballywilliam-tara-hill-co-wexford/3983409
3983374,19654922,"Garryvadden Beg, Blackwater, Co. Wexford","AMV: €250,000",215,215 m²,4,2,Detached,2022-07-28,C3,115182156,,52.443806,-6.384931,Buy,WEXFORD,http://www.daft.ie/for-sale/detached-house-garryvadden-beg-blackwater-co-wexford/3983374
3983405,19655616,"2 Poulshone, Ardamine, Co. Wexford",385000.0,93,93 m²,2,2,Detached,2022-08-09,E1,115367948,309.56 kWh/m2/yr,52.617997,-6.226231,Buy,WEXFORD,http://www.daft.ie/for-sale/detached-house-2-poulshone-ardamine-co-wexford/3983405
3983372,19655203,"Glaslacken, Bunclody, Co. Wexford",375000.0,216,216 m²,6,3,Detached,2022-07-15,D1,105707251,235.38 kWh/m2/yr,52.630834,-6.678027,Buy,WEXFORD,http://www.daft.ie/for-sale/detached-house-glaslacken-bunclody-co-wexford/3983372
3983119,19652043,"21 Village Gate, Ballycanew, Co. Wexford",299000.0,112,112 m²,3,2,Detached,2022-08-10,C3,111848933,211.28 kWh/m2/yr,52.611427,-6.307227,Buy,WEXFORD,http://www.daft.ie/for-sale/detached-house-21-village-gate-ballycanew-co-wexford/3983119
3982815,19648021,"Garryvarren, Ballymurn, Co. Wexford",395000.0,258,258 m²,4,5,Detached,2022-08-10,D1,,,52.41896,-6.470412,Buy,WEXFORD,http://www.daft.ie/for-sale/detached-house-garryvarren-ballymurn-co-wexford/3982815
3982818,19648054,"Cullenstown, Duncormick, Co. Wexford","AMV: €95,000",60,60 m²,2,1,Detached,2022-08-09,SI_666,,,52.223299,-6.708461,Buy,WEXFORD,http://www.daft.ie/for-sale/detached-house-cullenstown-duncormick-co-wexford/3982818
3982555,19645875,"Ballymurray, Ballaghkeen, Co. Wexford",250000.0,84,84 m²,3,1,Detached,2022-07-27,F,,,52.483758,-6.433418,Buy,WEXFORD,http://www.daft.ie/for-sale/detached-house-ballymurray-ballaghkeen-co-wexford/3982555
3982288,19640332,"Cool Mount House, Coolree, Co. Wexford",395000.0,165,165 m²,4,4,Detached,2022-08-10,C3,105377824,212.25 kWh/m2/yr,52.323038,-6.533932,Buy,WEXFORD,http://www.daft.ie/for-sale/detached-house-cool-mount-house-coolree-co-wexford/3982288
3981884,19636707,"St. Aidan's Crescent, Slippery Green, Wexford Town, Co. Wexford",100000.0,N/A,0.05 ac,,,Detached,2022-08-10,,,,52.330184,-6.468484,Buy,WEXFORD,http://www.daft.ie/for-sale/detached-house-st-aidans-crescent-slippery-green-wexford-town-co-wexford/3981884
3981623,19633283,"Nethercote House, Battlestown, Ramsgrange, Co. Wexford",385000.0,178,178 m²,4,4,Detached,2022-08-10,C1,115190175,155.54 kWh/m2/yr,52.233949,-6.877969,Buy,WEXFORD,http://www.daft.ie/for-sale/detached-house-nethercote-house-battlestown-ramsgrange-co-wexford/3981623
3981250,19628484,"Roc House, Park, Duncormick, Co. Wexford",435000.0,255,255 m²,4,2,Detached,2022-07-28,B3,111454484,135.64 kWh/m2/yr,52.209769,-6.61643,Buy,WEXFORD,http://www.daft.ie/for-sale/detached-house-roc-house-park-duncormick-co-wexford/3981250
3979755,19623231,"Ballybeg Great, Screen, Co. Wexford",330000.0,167,167 m²,4,4,Detached,2022-07-28,C3,100250976,204.96 kWh/m2/yr,52.441015,-6.425745,Buy,WEXFORD,http://www.daft.ie/for-sale/detached-house-ballybeg-great-screen-co-wexford/3979755
3979569,19620856,"35 Glen Richards Cove, Poulshone, Poulshone, Co. Wexford",250000.0,88,88 m²,3,2,Detached,2022-08-09,E1,110936101,313.42 kWh/m2/yr,52.616719,-6.228659,Buy,WEXFORD,http://www.daft.ie/for-sale/detached-house-35-glen-richards-cove-poulshone-poulshone-co-wexford/3979569
3979492,19620818,"Knockadawk, Kilmuckridge, Co. Wexford",AMV: Price on Application,N/A,,4,2,Detached,2022-08-09,G,,,52.553852,-6.26753,Buy,WEXFORD,http://www.daft.ie/for-sale/detached-house-knockadawk-kilmuckridge-co-wexford/3979492
3977412,19607005,"9 Rock of Bree, Bree, Co. Wexford",370000.0,157,157 m²,4,3,Detached,2022-08-09,C1,107306862,164.89 kWh/m2/yr,52.439848,-6.606578,Buy,WEXFORD,http://www.daft.ie/for-sale/detached-house-9-rock-of-bree-bree-co-wexford/3977412
3977364,19606980,"Corlican, Killurin, Co. Wexford",175000.0,96,96 m²,2,1,Detached,2022-08-09,G,114834195,561.43 kWh/m2/yr,52.389078,-6.584098,Buy,WEXFORD,http://www.daft.ie/for-sale/detached-house-corlican-killurin-co-wexford/3977364
3977113,19603634,"Ballyhubbock, Kilmuckridge, Co. Wexford",495000.0,261,261 m²,7,5,Detached,2022-07-27,B3,,,52.510769,-6.326682,Buy,WEXFORD,http://www.daft.ie/for-sale/detached-house-ballyhubbock-kilmuckridge-co-wexford/3977113
3975764,19599601,"Knockmarshal, Enniscorthy, Co. Wexford",295000.0,120,120 m²,4,1,Detached,2022-07-27,D2,,,52.484751,-6.600772,Buy,WEXFORD,http://www.daft.ie/for-sale/detached-house-knockmarshal-enniscorthy-co-wexford/3975764
3975608,19598038,"Rathangan, Duncormick, Co. Wexford",290000.0,149,149 m²,3,2,Detached,2022-08-10,D1,104796842,245.11 kWh/m2/yr,52.2271,-6.615034,Buy,WEXFORD,http://www.daft.ie/for-sale/detached-house-rathangan-duncormick-co-wexford/3975608
3975476,19597647,"1 Arduain, Greenville Lane, Enniscorthy, Co. Wexford",235000.0,122,122 m²,,,Detached,2022-08-10,C3,101900314,222.84 kWh/m2/yr,52.510577,-6.574302,Buy,WEXFORD,http://www.daft.ie/for-sale/detached-house-1-arduain-greenville-lane-enniscorthy-co-wexford/3975476
3975154,19594132,"11 Cromwellsfort Heights, Mulgannon, Wexford Town, Co. Wexford",620000.0,245,245 m²,4,3,Detached,2022-07-19,C1,115232928,159.07 kWh/m2/yr,52.327481,-6.461954,Buy,WEXFORD,http://www.daft.ie/for-sale/detached-house-11-cromwellsfort-heights-mulgannon-wexford-town-co-wexford/3975154
3973952,19589614,"Churchtown, Tacumshane, Co. Wexford",395000.0,209,209 m²,5,3,Detached,2022-08-09,C2,105313258,189.05 kWh/m2/yr,52.204024,-6.437909,Buy,WEXFORD,http://www.daft.ie/for-sale/detached-house-churchtown-tacumshane-co-wexford/3973952
3969454,19553834,"1 The Dunes, Ayles Bridge, Riverchapel, Co. Wexford",375000.0,N/A,,4,4,Detached,2022-07-27,B3,,,52.634848,-6.237557,Buy,WEXFORD,http://www.daft.ie/for-sale/detached-house-1-the-dunes-ayles-bridge-riverchapel-co-wexford/3969454
3971792,19571210,"Park House, Whitepark, Arklow, Co. Wicklow",550000.0,215,215 m²,5,3,Detached,2022-08-10,B3,115204281,140.5 kWh/m2/yr,52.763417,-6.181293,Buy,WEXFORD,http://www.daft.ie/for-sale/detached-house-park-house-whitepark-arklow-co-wicklow/3971792
3971671,19570799,"12 Elm Grove, Glendale, Rosslare Strand, Co. Wexford",250000.0,67,67 m²,3,3,Detached,2022-08-09,D1,101699718,227.94 kWh/m2/yr,52.275319,-6.400199,Buy,WEXFORD,http://www.daft.ie/for-sale/detached-house-12-elm-grove-glendale-rosslare-strand-co-wexford/3971671
3970989,19565741,"Terrerath, New Ross, Co. Wexford",460000.0,257,257 m²,5,3,Detached,2022-08-10,D1,105927040,241.78 kWh/m2/yr,52.344511,-6.90265,Buy,WEXFORD,http://www.daft.ie/for-sale/detached-house-terrerath-new-ross-co-wexford/3970989
3970291,19559166,"Loisin, New Houses, Kilrane, Co. Wexford",625000.0,N/A,32999.98 ac,6,2,Detached,2022-08-10,E2,,,52.24194,-6.354914,Buy,WEXFORD,http://www.daft.ie/for-sale/detached-house-loisin-new-houses-kilrane-co-wexford/3970291
3969874,19556191,"Coolishall Upper, Gorey, Co. Wexford",795000.0,335,335 m²,4,5,Detached,2022-08-09,D2,115040339,274.28 kWh/m2/yr,52.664198,-6.340917,Buy,WEXFORD,http://www.daft.ie/for-sale/detached-house-coolishall-upper-gorey-co-wexford/3969874
3961966,19492667,"15 The Meadows, Ballymoney, Co. Wexford",330000.0,112,112 m²,4,2,Detached,2022-08-08,C2,106230311,46.63 kWh/m2/yr,52.673294,-6.225252,Buy,WEXFORD,http://www.daft.ie/for-sale/detached-house-15-the-meadows-ballymoney-co-wexford/3961966
3968747,19547223,"3 Ravenwood, Glynn, Co. Wexford",345000.0,170,170 m²,4,3,Detached,2022-08-09,C3,110797719,205.14 kWh/m2/yr,52.372612,-6.581477,Buy,WEXFORD,http://www.daft.ie/for-sale/detached-house-3-ravenwood-glynn-co-wexford/3968747
3968177,19542915,"Horesland, Duncormick, Co. Wexford",140000.0,152,152 m²,4,1,Detached,2022-07-11,G,115171589,461.02 kWh/m2/yr,52.233011,-6.626075,Buy,WEXFORD,http://www.daft.ie/for-sale/detached-house-horesland-duncormick-co-wexford/3968177
3967400,19536512,"8 Castlewoods, Piercestown, Co. Wexford",299000.0,135,135 m²,4,3,Detached,2022-08-10,C3,115216699,222.58 kWh/m2/yr,52.288923,-6.488353,Buy,WEXFORD,http://www.daft.ie/for-sale/detached-house-8-castlewoods-piercestown-co-wexford/3967400
3967115,19530923,"Elm Wood, Grange Court, Rosslare Strand, Co. Wexford",525000.0,161,161 m²,4,3,Detached,2022-08-09,E1,115191330,312.78 kWh/m2/yr,52.277756,-6.39282,Buy,WEXFORD,http://www.daft.ie/for-sale/detached-house-elm-wood-grange-court-rosslare-strand-co-wexford/3967115
3964269,19509887,"THE BAY GARDEN, Baylands, Camolin, Co. Wexford",595000.0,188,188 m²,4,1,Detached,2022-08-05,SI_666,,,52.608465,-6.443646,Buy,WEXFORD,http://www.daft.ie/for-sale/detached-house-the-bay-garden-baylands-camolin-co-wexford/3964269
3965524,19518693,"Cleariestown Hall, Cleariestown, Co. Wexford",1250000.0,401,401 m²,4,4,Detached,2022-08-09,SI_666,,,52.275939,-6.597271,Buy,WEXFORD,http://www.daft.ie/for-sale/detached-house-cleariestown-hall-cleariestown-co-wexford/3965524
3965210,19517190,"Dhun An Occa, Haggard, Ramsgrange, Co. Wexford",299000.0,N/A,,4,4,Detached,2022-08-10,B2,104217872,117.74 kWh/m2/yr,52.247629,-6.89424,Buy,WEXFORD,http://www.daft.ie/for-sale/detached-house-dhun-an-occa-haggard-ramsgrange-co-wexford/3965210
3965110,19515188,"Borrmount, Enniscorthy, Co. Wexford",475000.0,192,192 m²,4,3,Detached,2022-07-27,C1,115205320,174.07 kWh/m2/yr,52.468183,-6.572203,Buy,WEXFORD,http://www.daft.ie/for-sale/detached-house-borrmount-enniscorthy-co-wexford/3965110
3963890,19506966,"12 Ardamine Grove, Courtown, Gorey, Co. Wexford",250000.0,116,116 m²,4,2,Detached,2022-08-09,F,107732661,381.05 kWh/m2/yr,52.628219,-6.235792,Buy,WEXFORD,http://www.daft.ie/for-sale/detached-house-12-ardamine-grove-courtown-gorey-co-wexford/3963890
3691922,17726190,"Richfield, Duncormick, Co. Wexford",349500.0,123,123 m²,3,2,Detached,2022-08-10,B3,112622303,148.52 kWh/m2/yr,52.212507,-6.610703,Buy,WEXFORD,http://www.daft.ie/for-sale/detached-house-richfield-duncormick-co-wexford/3691922
3962763,19499042,"Knockmullen, New Ross, Co. Wexford",395000.0,155,155 m²,4,2,Detached,2022-07-02,C1,113161533,,52.378879,-6.941957,Buy,WEXFORD,http://www.daft.ie/for-sale/detached-house-knockmullen-new-ross-co-wexford/3962763
3961589,19487018,"Hadleigh, Kilmurray, Gorey, Co. Wexford",1100000.0,236,236 m²,4,4,Detached,2022-08-05,C2,115210320,196.17 kWh/m2/yr,52.691771,-6.242853,Buy,WEXFORD,http://www.daft.ie/for-sale/detached-house-hadleigh-kilmurray-gorey-co-wexford/3961589
3961580,19487012,"Swallows Rest, Killag, Killag, Co. Wexford",250000.0,105,105 m²,2,2,Detached,2022-07-01,E2,105204606,379.74 kWh/m2/yr,52.201357,-6.584649,Buy,WEXFORD,http://www.daft.ie/for-sale/detached-house-swallows-rest-killag-killag-co-wexford/3961580
3960353,19475322,"Mill View, Cotts, Tacumshane, Co. Wexford",315000.0,152,152 m²,4,3,Detached,2022-07-01,C3,106075641,203.6 kWh/m2/yr,52.217354,-6.428029,Buy,WEXFORD,http://www.daft.ie/for-sale/detached-house-mill-view-cotts-tacumshane-co-wexford/3960353
3960138,19472770,"Meadow View, Quitchery, Hilltown, Co. Wexford",550000.0,270,270 m²,4,4,Detached,2022-08-09,B2,111491866,111.76 kWh/m2/yr,52.25873,-6.697423,Buy,WEXFORD,http://www.daft.ie/for-sale/detached-house-meadow-view-quitchery-hilltown-co-wexford/3960138
3960032,19472591,"Garryvadden Beg, Blackwater, Co. Wexford","AMV: €250,000",215,215 m²,4,2,Detached,2022-07-14,C3,115182156,,52.443806,-6.384931,Buy,WEXFORD,http://www.daft.ie/for-sale/detached-house-garryvadden-beg-blackwater-co-wexford/3960032
3958332,19452653,"The Oil, Oilgate, Co. Wexford",350000.0,110,110 m²,3,2,Detached,2022-07-27,D2,,,52.423972,-6.525527,Buy,WEXFORD,http://www.daft.ie/for-sale/detached-house-the-oil-oilgate-co-wexford/3958332
3949445,19416194,"Greenfields, Scarnagh Lower, Coolgreany, Co. Wexford",395000.0,112,112 m²,3,1,Detached,2022-07-27,C2,105474092,188.44 kWh/m2/yr,52.759485,-6.21056,Buy,WEXFORD,http://www.daft.ie/for-sale/detached-house-greenfields-scarnagh-lower-coolgreany-co-wexford/3949445
3949617,19417822,"Battlestown, Ramsgrange, Co. Wexford",575000.0,288,288 m²,4,3,Detached,2022-08-10,B2,115193013,117.14 kWh/m2/yr,52.231254,-6.886723,Buy,WEXFORD,http://www.daft.ie/for-sale/detached-house-battlestown-ramsgrange-co-wexford/3949617
3956300,19436852,"Halseyrath, Duncormick, Co. Wexford",295000.0,111,111 m²,3,2,Detached,2022-08-10,D2,100872043,261.12 kWh/m2/yr,52.26348,-6.671723,Buy,WEXFORD,http://www.daft.ie/for-sale/detached-house-halseyrath-duncormick-co-wexford/3956300
3953106,19424006,"1 Beachfield Manor, Screen, Co. Wexford",375000.0,163,163 m²,4,3,Detached,2022-08-09,C3,115159105,206.45 kWh/m2/yr,52.414671,-6.414789,Buy,WEXFORD,http://www.daft.ie/for-sale/detached-house-1-beachfield-manor-screen-co-wexford/3953106
3949467,19416207,"2 Rose Hall, Dunmain, New Ross, Co. Wexford",315000.0,167,167 m²,4,3,Detached,2022-08-10,C3,,,52.306116,-6.881514,Buy,WEXFORD,http://www.daft.ie/for-sale/detached-house-2-rose-hall-dunmain-new-ross-co-wexford/3949467
3607016,16858039,"Cullenstown, Duncormick, Co. Wexford",395000.0,N/A,,5,2,Detached,2022-08-10,C2,114407992,193.01 kWh/m2/yr,52.222156,-6.708157,Buy,WEXFORD,http://www.daft.ie/for-sale/detached-house-cullenstown-duncormick-co-wexford/3607016
3949325,19414649,"Courtclogh Upper, The Ballagh, Oulart, Co. Wexford",330000.0,167,167 m²,4,3,Detached,2022-08-10,C1,111550315,164.8 kWh/m2/yr,52.480077,-6.377486,Buy,WEXFORD,http://www.daft.ie/for-sale/detached-house-courtclogh-upper-the-ballagh-oulart-co-wexford/3949325
3949316,19413379,"Barmoney, Ballyhogue, Enniscorthy, Co. Wexford",149000.0,48,48 m²,3,,Detached,2022-08-10,G,112686274,747.76 kWh/m2/yr,52.382268,-6.649044,Buy,WEXFORD,http://www.daft.ie/for-sale/detached-house-barmoney-ballyhogue-enniscorthy-co-wexford/3949316
3801095,18653582,"Galbally, Curracloe, Co. Wexford",335000.0,163,163 m²,4,2,Detached,2022-08-09,C2,114761521,188.48 kWh/m2/yr,52.386375,-6.420551,Buy,WEXFORD,http://www.daft.ie/for-sale/detached-house-galbally-curracloe-co-wexford/3801095
3948740,19407580,"2 Woodvillage, Fethard-On-Sea, Co. Wexford",375000.0,149,149 m²,4,3,Detached,2022-08-10,C2,107480162,197.78 kWh/m2/yr,52.202623,-6.830396,Buy,WEXFORD,http://www.daft.ie/for-sale/detached-house-2-woodvillage-fethard-on-sea-co-wexford/3948740
3947839,19402928,"Ballinteskin, New Ross, Co. Wexford",320000.0,185,185 m²,5,3,Detached,2022-06-24,C3,112882600,,52.35429,-6.942811,Buy,WEXFORD,http://www.daft.ie/for-sale/detached-house-ballinteskin-new-ross-co-wexford/3947839
3947589,19399545,"Hawthorn Lane, Clonmines, Wellingtonbridge, Co. Wexford",450000.0,224,224 m²,4,2,Detached,2022-08-09,D2,115048191,264.78 kWh/m2/yr,52.253969,-6.772107,Buy,WEXFORD,http://www.daft.ie/for-sale/detached-house-hawthorn-lane-clonmines-wellingtonbridge-co-wexford/3947589
3947201,19395691,"2 Daellen Glen, Ballywilliam, Co. Wexford",600000.0,260,260 m²,4,4,Detached,2022-06-25,B3,105622013,144.63 kWh/m2/yr,52.710143,-6.239029,Buy,WEXFORD,http://www.daft.ie/for-sale/detached-house-2-daellen-glen-ballywilliam-co-wexford/3947201
3946182,19382850,"Willowbrook, Cullenogue, Gorey, Co. Wexford",625000.0,214,214 m²,4,5,Detached,2022-08-10,A2,114623150,33.56 kWh/m2/yr,52.721494,-6.219519,Buy,WEXFORD,http://www.daft.ie/for-sale/detached-house-willowbrook-cullenogue-gorey-co-wexford/3946182
3942702,19350483,"Milltown, Ballycullane, Co. Wexford",575000.0,288,288 m²,4,3,Detached,2022-08-10,B3,115343873,136.23 kWh/m2/yr,52.257447,-6.857382,Buy,WEXFORD,http://www.daft.ie/for-sale/detached-house-milltown-ballycullane-co-wexford/3942702
3942227,19343510,"Boleany, Gorey, Co. Wexford",420000.0,191,191 m²,4,3,Detached,2022-08-08,C3,,,52.63681,-6.273259,Buy,WEXFORD,http://www.daft.ie/for-sale/detached-house-boleany-gorey-co-wexford/3942227
3944381,19368603,"Beechlawn, Cools, Barntown, Co. Wexford",575000.0,315,315 m²,4,4,Detached,2022-08-10,B3,115166209,133.6 kWh/m2/yr,52.321299,-6.588691,Buy,WEXFORD,http://www.daft.ie/for-sale/detached-house-beechlawn-cools-barntown-co-wexford/3944381
3944239,19366674,"Mangan, Killanne, Co. Wexford",395000.0,227,227 m²,5,5,Detached,2022-07-27,B2,,,52.527743,-6.70251,Buy,WEXFORD,http://www.daft.ie/for-sale/detached-house-mangan-killanne-co-wexford/3944239
3944109,19365024,"Littletown, Tomhaggard, Co. Wexford",685000.0,276,276 m²,4,5,Detached,2022-07-01,B2,115166332,118.31 kWh/m2/yr,52.218038,-6.507447,Buy,WEXFORD,http://www.daft.ie/for-sale/detached-house-littletown-tomhaggard-co-wexford/3944109
3943665,19359210,"Laraheen Cottage, Laraheen, Gorey, Co. Wexford",175000.0,N/A,,2,1,Detached,2022-08-07,SI_666,,,52.72042234473093,-6.3294027373194695,Buy,WEXFORD,http://www.daft.ie/for-sale/detached-house-laraheen-cottage-laraheen-gorey-co-wexford/3943665
3943625,19359188,"Whiterock Cottage, Pembrokestown, Whiterock, Co. Wexford",525000.0,227,227 m²,4,6,Detached,2022-07-01,B3,111256541,140.68 kWh/m2/yr,52.320713,-6.476169,Buy,WEXFORD,http://www.daft.ie/for-sale/detached-house-whiterock-cottage-pembrokestown-whiterock-co-wexford/3943625
3943373,19355544,"Kilgibbon, Edermine, Enniscorthy, Co. Wexford",470000.0,180,180 m²,4,2,Detached,2022-08-10,C1,115020588,168.34 kWh/m2/yr,52.453974,-6.576537,Buy,WEXFORD,http://www.daft.ie/for-sale/detached-house-kilgibbon-edermine-enniscorthy-co-wexford/3943373
3943166,19354649,"Ardrahan, Knocktown, Duncormick, Co. Wexford",350000.0,186,186 m²,4,3,Detached,2022-08-10,C1,103669107,174.23 kWh/m2/yr,52.250312,-6.616597,Buy,WEXFORD,http://www.daft.ie/for-sale/detached-house-ardrahan-knocktown-duncormick-co-wexford/3943166
3942472,19346708,"Ballynabarney, Hollyfort, Co. Wexford",320000.0,136,136 m²,3,2,Detached,2022-08-05,C3,101284636,212.41 kWh/m2/yr,52.764559,-6.360763,Buy,WEXFORD,http://www.daft.ie/for-sale/detached-house-ballynabarney-hollyfort-co-wexford/3942472
3942379,19344934,"Clonard Road, Clonard, Co. Wexford",315000.0,114,114 m²,4,1,Detached,2022-07-01,F,114667272,392.72 kWh/m2/yr,52.330332,-6.4928,Buy,WEXFORD,http://www.daft.ie/for-sale/detached-house-clonard-road-clonard-co-wexford/3942379
3940977,19333274,"Fahy's Cross, Castlebridge, Co. Wexford",Price on Application,129,129 m²,2,1,Detached,2022-07-14,F,114860737,418.37 kWh/m2/yr,52.369814,-6.447718,Buy,WEXFORD,http://www.daft.ie/for-sale/detached-house-fahys-cross-castlebridge-co-wexford/3940977
3940352,19325847,"29 Riverview, New Ross, Co. Wexford",270000.0,84,84 m²,3,1,Detached,2022-08-10,D2,115028052,267.65 kWh/m2/yr,52.385457,-6.944772,Buy,WEXFORD,http://www.daft.ie/for-sale/detached-house-29-riverview-new-ross-co-wexford/3940352
3940249,19324344,"Glenbeg, Ardamine, Ardamine, Co. Wexford",280000.0,N/A,,3,1,Detached,2022-08-05,D1,,,52.628201,-6.231213,Buy,WEXFORD,http://www.daft.ie/for-sale/detached-house-glenbeg-ardamine-ardamine-co-wexford/3940249
3938682,19312115,"3 Le Havre, Roney Point, Gorey, Co. Wexford",325000.0,94,94 m²,4,1,Detached,2022-08-09,D1,114282585,,52.603361,-6.218161,Buy,WEXFORD,http://www.daft.ie/for-sale/detached-house-3-le-havre-roney-point-gorey-co-wexford/3938682
3938441,19309888,"2 Le Havre, Roney Point, Gorey, Co. Wexford",325000.0,94,94 m²,4,1,Detached,2022-08-09,D2,114282676,,52.603371,-6.218525,Buy,WEXFORD,http://www.daft.ie/for-sale/detached-house-2-le-havre-roney-point-gorey-co-wexford/3938441
3938435,19309886,"Sanitta, 1 Clonattin, Gorey, Co. Wexford",Price on Application,135,135 m²,4,3,Detached,2022-08-10,C3,100970532,,52.678456,-6.279435,Buy,WEXFORD,http://www.daft.ie/for-sale/detached-house-sanitta-1-clonattin-gorey-co-wexford/3938435
3937914,19304318,"Knock View, Knocknasilloge, Blackwater, Co. Wexford",320000.0,140,140 m²,4,3,Detached,2022-08-10,C3,101689456,220.22 kWh/m2/yr,52.457577,-6.328414,Buy,WEXFORD,http://www.daft.ie/for-sale/detached-house-knock-view-knocknasilloge-blackwater-co-wexford/3937914
3937908,19304301,"7 Glor Na Mara Grange Road, Rosslare Strand, Co. Wexford",445000.0,194,194 m²,4,3,Detached,2022-06-27,C1,105146724,154.04 kWh/m2/yr,52.276847,-6.395137,Buy,WEXFORD,http://www.daft.ie/for-sale/detached-house-7-glor-na-mara-grange-road-rosslare-strand-co-wexford/3937908
3937491,19301804,"Ennistone, 5 Slaney View Court, Wexford Town, Co. Wexford",395000.0,124,124 m²,3,1,Detached,2022-07-01,D1,102319985,243.17 kWh/m2/yr,52.340535,-6.478465,Buy,WEXFORD,http://www.daft.ie/for-sale/detached-house-ennistone-5-slaney-view-court-wexford-town-co-wexford/3937491
3936647,19294019,"Hillcrest, Clonhaston, Enniscorthy, Co. Wexford",280000.0,116,116 m²,3,1,Detached,2022-07-27,F,,,52.502567,-6.544147,Buy,WEXFORD,http://www.daft.ie/for-sale/detached-house-hillcrest-clonhaston-enniscorthy-co-wexford/3936647
3931863,19245319,"Cousinstown, Bridgetown, Co. Wexford",297500.0,136,136 m²,3,2,Detached,2022-07-01,C2,115002495,182.48 kWh/m2/yr,52.226101,-6.534134,Buy,WEXFORD,http://www.daft.ie/for-sale/detached-house-cousinstown-bridgetown-co-wexford/3931863
3936468,19290114,"Ballyclemock, Newbawn, Co. Wexford",750000.0,395,395 m²,7,5,Detached,2022-08-09,B3,115039406,134.15 kWh/m2/yr,52.353158,-6.746302,Buy,WEXFORD,http://www.daft.ie/for-sale/detached-house-ballyclemock-newbawn-co-wexford/3936468
3935185,19276701,"Asbury, Ballyart, Ballygarrett, Co. Wexford",525000.0,247,247 m²,4,4,Detached,2022-08-10,B2,115050510,122.72 kWh/m2/yr,52.563022,-6.280413,Buy,WEXFORD,http://www.daft.ie/for-sale/detached-house-asbury-ballyart-ballygarrett-co-wexford/3935185
3934053,19265158,"Ballycogley House, Crosstown, Ballycogley, Killinick, Co. Wexford",525000.0,291,291 m²,5,2,Detached,2022-08-10,B3,115039711,136.1 kWh/m2/yr,52.244536,-6.489633,Buy,WEXFORD,http://www.daft.ie/for-sale/detached-house-ballycogley-house-crosstown-ballycogley-killinick-co-wexford/3934053
3933045,19255032,"Tullycanna, Ballymitty, Co. Wexford",350000.0,138,138 m²,3,2,Detached,2022-08-10,C3,113733273,214.65 kWh/m2/yr,52.266342,-6.673661,Buy,WEXFORD,http://www.daft.ie/for-sale/detached-house-tullycanna-ballymitty-co-wexford/3933045
3931986,19245377,"Saint Joseph's, Saint Martin's Road, Rosslare Harbour, Co. Wexford",275000.0,179,179 m²,4,5,Detached,2022-07-01,G,114892433,488.65 kWh/m2/yr,52.249605,-6.336941,Buy,WEXFORD,http://www.daft.ie/for-sale/detached-house-saint-josephs-saint-martins-road-rosslare-harbour-co-wexford/3931986
3764281,18345185,"Garrymore, Oulart, Co. Wexford",395000.0,220,220 m²,4,3,Detached,2022-08-09,B3,105231864,142.78 kWh/m2/yr,52.488671,-6.388085,Buy,WEXFORD,http://www.daft.ie/for-sale/detached-house-garrymore-oulart-co-wexford/3764281
3931826,19243918,"Tomsallagh, Ferns, Co. Wexford",200000.0,52,52 m²,2,1,Detached,2022-08-09,E1,115043911,332.57 kWh/m2/yr,52.563495,-6.489307,Buy,WEXFORD,http://www.daft.ie/for-sale/detached-house-tomsallagh-ferns-co-wexford/3931826
3931795,19243296,"Killowen Lower, Kilmichael, Co. Wexford",499000.0,204,204 m²,4,2,Detached,2022-08-10,C2,111265690,193.35 kWh/m2/yr,52.739676,-6.1674,Buy,WEXFORD,http://www.daft.ie/for-sale/detached-house-killowen-lower-kilmichael-co-wexford/3931795
3929906,19228677,"Kilcormac, Boolavogue, Enniscorthy, Co. Wexford",129000.0,54,54 m²,2,,Detached,2022-08-10,G,115034126,523.23 kWh/m2/yr,52.531958,-6.415829,Buy,WEXFORD,http://www.daft.ie/for-sale/detached-house-kilcormac-boolavogue-enniscorthy-co-wexford/3929906
3928237,19210146,"7 Gort Na Phia, Scaughmolin, Murrintown, Co. Wexford",410000.0,231,231 m²,4,4,Detached,2022-08-10,B3,103503942,132.73 kWh/m2/yr,52.301852,-6.52898,Buy,WEXFORD,http://www.daft.ie/for-sale/detached-house-7-gort-na-phia-scaughmolin-murrintown-co-wexford/3928237
3927333,19201816,"5 Rosetown Village, Rosslare Strand, Co. Wexford",299000.0,140,140 m²,4,3,Detached,2022-08-10,D1,115039539,246.77 kWh/m2/yr,52.263018,-6.38492,Buy,WEXFORD,http://www.daft.ie/for-sale/detached-house-5-rosetown-village-rosslare-strand-co-wexford/3927333
3927170,19200312,"Whitestown Upper, Drinagh, Drinagh, Co. Wexford",595000.0,210,210 m²,3,3,Detached,2022-07-01,C1,115017501,151.15 kWh/m2/yr,52.301277,-6.449041,Buy,WEXFORD,http://www.daft.ie/for-sale/detached-house-whitestown-upper-drinagh-drinagh-co-wexford/3927170
3927092,19198931,"48 Ardamine Court, Courtown, Gorey, Co. Wexford",280000.0,86,86 m²,3,2,Detached,2022-08-09,D1,105785661,243.11 kWh/m2/yr,52.628617,-6.233687,Buy,WEXFORD,http://www.daft.ie/for-sale/detached-house-48-ardamine-court-courtown-gorey-co-wexford/3927092
3925748,19184868,"Courtclough Lower, The Ballagh, Co. Wexford",450000.0,334,334 m²,7,4,Detached,2022-07-19,G,114894363,,52.475136,-6.382275,Buy,WEXFORD,http://www.daft.ie/for-sale/detached-house-courtclough-lower-the-ballagh-co-wexford/3925748
3913096,19073524,"26 Ardamine Court, Courtown, Ardamine, Co. Wexford",255000.0,N/A,,3,2,Detached,2022-07-25,D1,115032252,,52.628691,-6.234061,Buy,WEXFORD,http://www.daft.ie/for-sale/detached-house-26-ardamine-court-courtown-ardamine-co-wexford/3913096
3923542,19162018,"54 Irish Street, Enniscorthy, Co. Wexford",155000.0,61,61 m²,2,1,Detached,2022-08-10,G,102756954,765.92 kWh/m2/yr,52.505526,-6.570257,Buy,WEXFORD,http://www.daft.ie/for-sale/detached-house-54-irish-street-enniscorthy-co-wexford/3923542
3923146,19159990,"Ballinvegga North, New Ross, Co. Wexford",360000.0,165,165 m²,4,3,Detached,2022-06-06,C1,,,52.427898,-6.831907,Buy,WEXFORD,http://www.daft.ie/for-sale/detached-house-ballinvegga-north-new-ross-co-wexford/3923146
3921741,19152809,"Ballytra, Carne, Co. Wexford",349000.0,146,146 m²,3,1,Detached,2022-08-10,G,115032617,556.61 kWh/m2/yr,52.200806,-6.352595,Buy,WEXFORD,http://www.daft.ie/for-sale/detached-house-ballytra-carne-co-wexford/3921741
3915994,19099460,"29 Village Gate, Ballycanew, Co. Wexford",310000.0,124,124 m²,4,3,Detached,2022-08-03,C2,103902664,,52.612337,-6.30687,Buy,WEXFORD,http://www.daft.ie/for-sale/detached-house-29-village-gate-ballycanew-co-wexford/3915994
3919369,19131348,"Lisheen, 3 Woodlands, Walsheslough, Rosslare Strand, Co. Wexford",575000.0,157,157 m²,4,2,Detached,2022-08-10,C2,114485246,197.45 kWh/m2/yr,52.270507,-6.392516,Buy,WEXFORD,http://www.daft.ie/for-sale/detached-house-lisheen-3-woodlands-walsheslough-rosslare-strand-co-wexford/3919369
3919124,19128856,"Milestone House, Barnadown Upper, Gorey, Co. Wexford",595000.0,291,291 m²,5,4,Detached,2022-08-09,B3,101028777,149.19 kWh/m2/yr,52.64596,-6.313395,Buy,WEXFORD,http://www.daft.ie/for-sale/detached-house-milestone-house-barnadown-upper-gorey-co-wexford/3919124
3918515,19122498,"Rosewood House, Bulgan, Killurin, Co. Wexford",325000.0,215,215 m²,5,3,Detached,2022-08-10,C2,115014409,189.03 kWh/m2/yr,52.370454,-6.599442,Buy,WEXFORD,http://www.daft.ie/for-sale/detached-house-rosewood-house-bulgan-killurin-co-wexford/3918515
3917939,19115266,"4 Bellview, Duncannon, Co. Wexford",299000.0,84,84 m²,3,3,Detached,2022-08-10,C3,114874159,223.96 kWh/m2/yr,52.222358,-6.930194,Buy,WEXFORD,http://www.daft.ie/for-sale/detached-house-4-bellview-duncannon-co-wexford/3917939
3917646,19113095,"Knockmarshal, Enniscorthy, Co. Wexford",495000.0,207,207 m²,4,3,Detached,2022-08-01,B3,103760047,,52.484956,-6.600492,Buy,WEXFORD,http://www.daft.ie/for-sale/detached-house-knockmarshal-enniscorthy-co-wexford/3917646
3917474,19110751,"Willow Cottage, Ballinamorragh, Curracloe, Co. Wexford",375000.0,147,147 m²,3,3,Detached,2022-07-01,C3,114398407,200.92 kWh/m2/yr,52.383737,-6.400161,Buy,WEXFORD,http://www.daft.ie/for-sale/detached-house-willow-cottage-ballinamorragh-curracloe-co-wexford/3917474
3915797,19096720,"Rathmacknee Little, Killinick, Co. Wexford",925000.0,454,454 m²,6,5,Detached,2022-08-09,B3,115016875,149.97 kWh/m2/yr,52.267026,-6.477023,Buy,WEXFORD,http://www.daft.ie/for-sale/detached-house-rathmacknee-little-killinick-co-wexford/3915797
3915724,19096684,"Ballinclare, Gorey, Co. Wexford",885000.0,397,397 m²,5,5,Detached,2022-08-10,C1,112373337,157.44 kWh/m2/yr,52.600511,-6.3162,Buy,WEXFORD,http://www.daft.ie/for-sale/detached-house-ballinclare-gorey-co-wexford/3915724
3913630,19080550,"Raheenaclonagh, Adamstown, Co. Wexford",375000.0,N/A,,5,3,Detached,2022-08-10,B2,112708961,123.82 kWh/m2/yr,52.379996,-6.764972,Buy,WEXFORD,http://www.daft.ie/for-sale/detached-house-raheenaclonagh-adamstown-co-wexford/3913630
3913552,19080361,"10 Ard Aoibhinn, Rosslare Strand, Co. Wexford",425000.0,161,161 m²,4,3,Detached,2022-08-10,C2,115010894,198.19 kWh/m2/yr,52.269756,-6.395656,Buy,WEXFORD,http://www.daft.ie/for-sale/detached-house-10-ard-aoibhinn-rosslare-strand-co-wexford/3913552
3911498,19063653,"Ballylusk, Ballindaggin, Enniscorthy, Enniscorthy, Co. Wexford",435000.0,258,258 m²,4,3,Detached,2022-08-09,C1,114747207,173.35 kWh/m2/yr,52.583042,-6.692927,Buy,WEXFORD,http://www.daft.ie/for-sale/detached-house-ballylusk-ballindaggin-enniscorthy-enniscorthy-co-wexford/3911498
3911293,19063055,"Gannon's Valley, Ballinacarrig, Gorey, Co. Wexford",1100000.0,320,320 m²,5,5,Detached,2022-05-30,B3,114876634,138.63 kWh/m2/yr,52.690779,-6.22596,Buy,WEXFORD,http://www.daft.ie/for-sale/detached-house-gannons-valley-ballinacarrig-gorey-co-wexford/3911293
3911205,19062231,"Cullenstown, Duncormick, Co. Wexford",295000.0,79,79 m²,2,1,Detached,2022-08-10,D2,114610884,274.91 kWh/m2/yr,52.21887,-6.717106,Buy,WEXFORD,http://www.daft.ie/for-sale/detached-house-cullenstown-duncormick-co-wexford/3911205
3910958,19060364,"Ballyvaldon, Blackwater, Enniscorthy, Co. Wexford",365000.0,N/A,1 ac,4,2,Detached,2022-08-09,C3,114648462,213.69 kWh/m2/yr,52.471488,-6.342032,Buy,WEXFORD,http://www.daft.ie/for-sale/detached-house-ballyvaldon-blackwater-enniscorthy-co-wexford/3910958
3909956,19047926,"Craan, Bree, Co. Wexford",475000.0,204,204 m²,4,3,Detached,2022-07-27,B3,106697576,133.98 kWh/m2/yr,52.452893,-6.617093,Buy,WEXFORD,http://www.daft.ie/for-sale/detached-house-craan-bree-co-wexford/3909956
3696299,17757187,"4 Baile Thioboid, Craanford, Gorey, Co. Wexford",345000.0,167,167 m²,4,3,Detached,2022-08-09,C1,109049007,171.74 kWh/m2/yr,52.6831,-6.389123,Buy,WEXFORD,http://www.daft.ie/for-sale/detached-house-4-baile-thioboid-craanford-gorey-co-wexford/3696299
3907441,19024425,"No. 6 Orchard Close, Ardcavan, Wexford Town, Co. Wexford",525000.0,215,215 m²,4,3,Detached,2022-08-09,C2,114458722,178.22 kWh/m2/yr,52.261537,-6.7775,Buy,WEXFORD,http://www.daft.ie/for-sale/detached-house-no-6-orchard-close-ardcavan-wexford-town-co-wexford/3907441
3903774,18989793,"Ballinastraw, Enniscorthy, Co. Wexford",180000.0,80,80 m²,2,1,Detached,2022-07-27,G,101918647,499.98 kWh/m2/yr,52.459076,-6.490878,Buy,WEXFORD,http://www.daft.ie/for-sale/detached-house-ballinastraw-enniscorthy-co-wexford/3903774
3899546,18949227,"2 Avenue Court, Gorey, Co. Wexford",425000.0,132,132 m²,4,2,Detached,2022-08-09,E1,105293856,312.76 kWh/m2/yr,52.672672,-6.295491,Buy,WEXFORD,http://www.daft.ie/for-sale/detached-house-2-avenue-court-gorey-co-wexford/3899546
3898086,18929064,"Coorduff, Bunclody, Co. Wexford",220000.0,86,86 m²,2,2,Detached,2022-07-27,E1,114869654,312.07 kWh/m2/yr,52.625269,-6.636355,Buy,WEXFORD,http://www.daft.ie/for-sale/detached-house-coorduff-bunclody-co-wexford/3898086
3897773,18926276,"Dromuiri House, Dunmain, New Ross, Co. Wexford",369500.0,N/A,,4,3,Detached,2022-08-10,C2,111429403,188.61 kWh/m2/yr,52.307063,-6.880223,Buy,WEXFORD,http://www.daft.ie/for-sale/detached-house-dromuiri-house-dunmain-new-ross-co-wexford/3897773
3895475,18905976,"Rathfylane, Enniscorthy, Co. Wexford",250000.0,90,90 m²,3,1,Detached,2022-07-27,E2,,,52.489095,-6.714967,Buy,WEXFORD,http://www.daft.ie/for-sale/detached-house-rathfylane-enniscorthy-co-wexford/3895475
3893241,18890223,"St. Martins Road, Rosslare Harbour, Co. Wexford",595000.0,320,320 m²,6,4,Detached,2022-08-07,B3,105115539,,52.24834423690339,-6.332930790172838,Buy,WEXFORD,http://www.daft.ie/for-sale/detached-house-st-martins-road-rosslare-harbour-co-wexford/3893241
3892940,18888143,"Ballinaberna, Ballywilliam, Ballywilliam, Co. Wexford",345000.0,135,135 m²,3,2,Detached,2022-07-05,C1,114839038,,52.474112,-6.858405,Buy,WEXFORD,http://www.daft.ie/for-sale/detached-house-ballinaberna-ballywilliam-ballywilliam-co-wexford/3892940
3892283,18882901,"Briars Lee, Whiterock, Co. Wexford",249000.0,N/A,0.57 ac,3,1,Detached,2022-08-10,E1,105661813,324.13 kWh/m2/yr,52.319528,-6.476169,Buy,WEXFORD,http://www.daft.ie/for-sale/detached-house-briars-lee-whiterock-co-wexford/3892283
3892127,18882390,"Manderlay, Crosstown, Wexford Town, Co. Wexford",1250000.0,545,545 m²,7,6,Detached,2022-08-09,B2,,,52.358333,-6.464977,Buy,WEXFORD,http://www.daft.ie/for-sale/detached-house-manderlay-crosstown-wexford-town-co-wexford/3892127
3891627,18877176,"6 Orchard Court, Gorey, Co. Wexford",290000.0,90,90 m²,3,3,Detached,2022-07-25,D1,,,52.675839,-6.288948,Buy,WEXFORD,http://www.daft.ie/for-sale/detached-house-6-orchard-court-gorey-co-wexford/3891627
3891570,18876480,"Ivy Cottage, Ballyfrory, Duncormick, Co. Wexford",220000.0,59,59 m²,3,1,Detached,2022-08-10,D2,100758176,299.35 kWh/m2/yr,52.243034,-6.700487,Buy,WEXFORD,http://www.daft.ie/for-sale/detached-house-ivy-cottage-ballyfrory-duncormick-co-wexford/3891570
3890994,18869857,"15 Hillview Drive, Seafield Hotel, Ballymoney, Co. Wexford",495000.0,172,172 m²,4,3,Detached,2022-05-13,C1,,,52.6765087,-6.2200905,Buy,WEXFORD,http://www.daft.ie/for-sale/detached-house-15-hillview-drive-seafield-hotel-ballymoney-co-wexford/3890994
3891005,18869864,"Ballybeg, Ferns, Co. Wexford","AMV: €449,000",416,416 m²,4,3,Detached,2022-07-25,C1,104367719,,52.6429958,-6.506598,Buy,WEXFORD,http://www.daft.ie/for-sale/detached-house-ballybeg-ferns-co-wexford/3891005
3890574,18866128,"Rosepark, Killeens, Wexford Town, Co. Wexford",195000.0,84,84 m²,3,1,Detached,2022-07-01,G,113638134,756.49 kWh/m2/yr,52.324064,-6.4912,Buy,WEXFORD,http://www.daft.ie/for-sale/detached-house-rosepark-killeens-wexford-town-co-wexford/3890574
3890057,18860871,"38 Seaview, Ardamine, Co. Wexford",260000.0,92,92 m²,3,1,Detached,2022-08-10,D1,114850159,240.97 kWh/m2/yr,52.618631,-6.230202,Buy,WEXFORD,http://www.daft.ie/for-sale/detached-house-38-seaview-ardamine-co-wexford/3890057
3821404,18828865,"Greenmount, Clonhaston, Enniscorthy, Co. Wexford",220000.0,56,56 m²,2,1,Detached,2022-08-10,D1,112766068,249.04 kWh/m2/yr,52.512367,-6.540641,Buy,WEXFORD,http://www.daft.ie/for-sale/detached-house-greenmount-clonhaston-enniscorthy-co-wexford/3821404
3817018,18791513,"Blackstoops Lodge, Blackstoops, Enniscorthy, Co. Wexford",725000.0,530,530 m²,6,8,Detached,2022-08-09,B1,114841588,87.43 kWh/m2/yr,52.514078,-6.562402,Buy,WEXFORD,http://www.daft.ie/for-sale/detached-house-blackstoops-lodge-blackstoops-enniscorthy-co-wexford/3817018
3561420,16349863,"Highfield House, Bolinready, Ballycanew, Gorey, Co. Wexford",599000.0,418,418 m²,8,4,Detached,2022-08-09,B3,114453087,144.02 kWh/m2/yr,52.595716,-6.342235,Buy,WEXFORD,http://www.daft.ie/for-sale/detached-house-highfield-house-bolinready-ballycanew-gorey-co-wexford/3561420
3814860,18769112,"Crosshue, Blackwater, Co. Wexford",350000.0,120,120 m²,3,3,Detached,2022-07-27,E1,,,52.4535,-6.365889,Buy,WEXFORD,http://www.daft.ie/for-sale/detached-house-crosshue-blackwater-co-wexford/3814860
3813348,18755658,"Appin, Gorey, Co. Wexford",675000.0,269,269 m²,4,4,Detached,2022-08-10,C1,112956206,154.35 kWh/m2/yr,52.664417,-6.293881,Buy,WEXFORD,http://www.daft.ie/for-sale/detached-house-appin-gorey-co-wexford/3813348
3810834,18736590,"Slaney View, Slaney View, Station Road, Rosslare Strand, Co. Wexford",525000.0,170,170 m²,5,3,Detached,2022-07-19,C3,114400146,211.94 kWh/m2/yr,52.271334,-6.392959,Buy,WEXFORD,http://www.daft.ie/for-sale/detached-house-slaney-view-slaney-view-station-road-rosslare-strand-co-wexford/3810834
3808861,18728164,"Appin, Ramstown Lower, Gorey, Co. Wexford",675000.0,269,269 m²,4,4,Detached,2022-08-10,C1,112956206,154.35 kWh/m2/yr,52.664417,-6.293881,Buy,WEXFORD,http://www.daft.ie/for-sale/detached-house-appin-ramstown-lower-gorey-co-wexford/3808861
3802430,18665628,"Halona, Castletown, Co. Wexford",590000.0,196,196 m²,4,2,Detached,2022-07-27,C3,104068929,205.37 kWh/m2/yr,52.723252,-6.190643,Buy,WEXFORD,http://www.daft.ie/for-sale/detached-house-halona-castletown-co-wexford/3802430
3806999,18712397,"Fairway View, Sea Road, Ballymoney, Co. Wexford",750000.0,264,264 m²,4,2,Detached,2022-05-15,C1,114680911,,52.679493,-6.212254,Buy,WEXFORD,http://www.daft.ie/for-sale/detached-house-fairway-view-sea-road-ballymoney-co-wexford/3806999
3583063,16586596,"Curraghgraigue, Enniscorthy, Co. Wexford",500000.0,216,216 m²,5,5,Detached,2022-08-10,C2,105040182,175.86 kWh/m2/yr,52.550208,-6.654971,Buy,WEXFORD,http://www.daft.ie/for-sale/detached-house-curraghgraigue-enniscorthy-co-wexford/3583063
3796671,18617700,"7 Rectory Grove, Duncormick, Co. Wexford",297500.0,111,111 m²,3,2,Detached,2022-08-10,B3,114835622,148.97 kWh/m2/yr,52.227771,-6.653626,Buy,WEXFORD,http://www.daft.ie/for-sale/detached-house-7-rectory-grove-duncormick-co-wexford/3796671
3793919,18597304,"18 Ballagh Cove, The Ballagh, Oulart, Co. Wexford",259000.0,118,118 m²,4,3,Detached,2022-08-10,D2,114795263,284.0 kWh/m2/yr,52.481861,-6.419345,Buy,WEXFORD,http://www.daft.ie/for-sale/detached-house-18-ballagh-cove-the-ballagh-oulart-co-wexford/3793919
3790773,18574479,"Carraig Mor House, Maudlintown, Wexford Town, Co. Wexford",475000.0,305,305 m²,4,2,Detached,2022-08-10,D2,104029046,295.67 kWh/m2/yr,52.327085,-6.452528,Buy,WEXFORD,http://www.daft.ie/for-sale/detached-house-carraig-mor-house-maudlintown-wexford-town-co-wexford/3790773
3790256,18570871,"75 Sandycove Phase 2, Ballymoney, Co. Wexford",475000.0,N/A,,3,3,Detached,2022-08-05,C2,108538968,185.81 kWh/m2/yr,52.683259,-6.207261,Buy,WEXFORD,http://www.daft.ie/for-sale/detached-house-75-sandycove-phase-2-ballymoney-co-wexford/3790256
3789896,18568040,"Nautilus, Ballinadrisogue, Blackwater, Co. Wexford",395000.0,128,128 m²,4,2,Detached,2022-08-10,C2,108522665,187.87 kWh/m2/yr,52.476848,-6.297486,Buy,WEXFORD,http://www.daft.ie/for-sale/detached-house-nautilus-ballinadrisogue-blackwater-co-wexford/3789896
3789701,18565635,"Síocháin, Kilmurray, Gorey, Co. Wexford",950000.0,360,360 m²,6,5,Detached,2022-08-05,C2,114894587,179.11 kWh/m2/yr,52.696049,-6.248359,Buy,WEXFORD,http://www.daft.ie/for-sale/detached-house-s-och-in-kilmurray-gorey-co-wexford/3789701
3788417,18553900,"5 Ballagh Court, Ballagh, Adamstown, Co. Wexford",635000.0,450,450 m²,12,6,Detached,2022-06-20,C1,111205548,,52.408278,-6.779877,Buy,WEXFORD,http://www.daft.ie/for-sale/detached-house-5-ballagh-court-ballagh-adamstown-co-wexford/3788417
3788409,18553896,"40 Shingé¡n, Milehouse Road, Enniscorthy, Co. Wexford",180000.0,96,96 m²,2,3,Detached,2022-07-27,D1,114817208,258.7 kWh/m2/yr,52.512127,-6.593637,Buy,WEXFORD,http://www.daft.ie/for-sale/detached-house-40-shing-n-milehouse-road-enniscorthy-co-wexford/3788409
3780105,18476972,"Parkcrest, Curraghduff, New Ross, Co. Wexford",475000.0,259,259 m²,4,,Detached,2022-08-10,B3,102601515,145.86 kWh/m2/yr,52.32339,-6.924338,Buy,WEXFORD,http://www.daft.ie/for-sale/detached-house-parkcrest-curraghduff-new-ross-co-wexford/3780105
3778798,18464637,"Garryvarren, Ballymurn, Co. Wexford",495000.0,400,400 m²,5,6,Detached,2022-08-09,C1,114753643,155.86 kWh/m2/yr,52.419313,-6.469967,Buy,WEXFORD,http://www.daft.ie/for-sale/detached-house-garryvarren-ballymurn-co-wexford/3778798
3778453,18460170,"Bulgan, Glynn, Co. Wexford",1250000.0,302,302 m²,4,3,Detached,2022-07-01,B1,108162165,95.01 kWh/m2/yr,52.367413,-6.596412,Buy,WEXFORD,http://www.daft.ie/for-sale/detached-house-bulgan-glynn-co-wexford/3778453
3777864,18454382,"Danescastle, Carrick, Co. Wexford",275000.0,186,186 m²,5,2,Detached,2022-08-10,F,113083828,449.64 kWh/m2/yr,52.239113,-6.732565,Buy,WEXFORD,http://www.daft.ie/for-sale/detached-house-danescastle-carrick-co-wexford/3777864
3776787,18442960,"36 Coill Aoibhinn, Newtown Road, Wexford Town, Co. Wexford",465000.0,185,185 m²,4,5,Detached,2022-06-27,C1,104270160,173.06 kWh/m2/yr,52.342358,-6.506388,Buy,WEXFORD,http://www.daft.ie/for-sale/detached-house-36-coill-aoibhinn-newtown-road-wexford-town-co-wexford/3776787
3774891,18427239,"Heavenstown, Cleariestown, Co. Wexford",310000.0,130,130 m²,3,1,Detached,2022-07-01,D2,114694003,281.98 kWh/m2/yr,52.259399,-6.565854,Buy,WEXFORD,http://www.daft.ie/for-sale/detached-house-heavenstown-cleariestown-co-wexford/3774891
3773213,18409591,"Ryland Lower, Bunclody, Co. Wexford",Price on Application,N/A,,4,4,Detached,2022-08-09,B3,114743222,144.07 kWh/m2/yr,52.631348,-6.6254,Buy,WEXFORD,http://www.daft.ie/for-sale/detached-house-ryland-lower-bunclody-co-wexford/3773213
2572003,12705823,"Graigue Little, Fethard-On-Sea, Co. Wexford",190000.0,165,165 m²,4,1,Detached,2022-03-31,G,113223243,,52.17712030310989,-6.87699058468462,Buy,WEXFORD,http://www.daft.ie/for-sale/detached-house-graigue-little-fethard-on-sea-co-wexford/2572003
3771921,18396705,"21 Woodside, Courtown, Co. Wexford",249000.0,110,110 m²,3,3,Detached,2022-08-05,E1,107771438,326.79 kWh/m2/yr,52.64582,-6.239153,Buy,WEXFORD,http://www.daft.ie/for-sale/detached-house-21-woodside-courtown-co-wexford/3771921
3771056,18387391,"The Elms, Drinagh, Co. Wexford",450000.0,410,410 m²,8,11,Detached,2022-08-09,D1,107350373,250.02 kWh/m2/yr,52.288753,-6.464445,Buy,WEXFORD,http://www.daft.ie/for-sale/detached-house-the-elms-drinagh-co-wexford/3771056
3769638,18373145,"Lake House, Ballaghablake, Curracloe, Co. Wexford",760000.0,386,386 m²,5,4,Detached,2022-08-10,D2,111522751,297.44 kWh/m2/yr,52.398409,-6.399236,Buy,WEXFORD,http://www.daft.ie/for-sale/detached-house-lake-house-ballaghablake-curracloe-co-wexford/3769638
3758527,18298383,"SAINT MARTINS, Saint Martin's, Rosslare Harbour, Co. Wexford",Price on Application,435,435 m²,9,10,Detached,2022-04-27,C1,112675293,156.78 kWh/m2/yr,52.249654,-6.34138,Buy,WEXFORD,http://www.daft.ie/for-sale/detached-house-saint-martins-saint-martins-rosslare-harbour-co-wexford/3758527
3757742,18292511,"Coolacarney (Site B), Ballindaggin, Enniscorthy, Co. Wexford",60000.0,3800,3800 m²,,,Detached,2022-08-10,,,,52.555052,-6.684808,Buy,WEXFORD,http://www.daft.ie/for-sale/detached-house-coolacarney-site-b-ballindaggin-enniscorthy-co-wexford/3757742
3757743,18292510,"Coolacarney (Site A), Ballindaggin, Enniscorthy, Co. Wexford",55000.0,3050,3050 m²,,,Detached,2022-08-10,,,,52.555398,-6.684459,Buy,WEXFORD,http://www.daft.ie/for-sale/detached-house-coolacarney-site-a-ballindaggin-enniscorthy-co-wexford/3757743
3450882,15574179,"The Old Station House, Wellingtonbridge, Co. Wexford",249950.0,74,74 m²,3,1,Detached,2022-08-10,B2,113682959,124.37 kWh/m2/yr,52.267191,-6.757337,Buy,WEXFORD,http://www.daft.ie/for-sale/detached-house-the-old-station-house-wellingtonbridge-co-wexford/3450882
3753451,18269971,"Mount George House, Mount George, Wexford Town, Co. Wexford",385000.0,N/A,,5,4,Detached,2022-08-03,E2,114495070,263.17 kWh/m2/yr,52.339866,-6.464929,Buy,WEXFORD,http://www.daft.ie/for-sale/detached-house-mount-george-house-mount-george-wexford-town-co-wexford/3753451
3753388,18268672,"Ballycrane, Castlebridge, Co. Wexford",Price on Application,135,135 m²,4,1,Detached,2022-07-01,E2,114495070,352.59 kWh/m2/yr,52.368703,-6.447652,Buy,WEXFORD,http://www.daft.ie/for-sale/detached-house-ballycrane-castlebridge-co-wexford/3753388
3753169,18267310,"6 Farrin Carraig, Duncannon, Co. Wexford",375000.0,145,145 m²,4,2,Detached,2022-07-07,C3,114711641,,52.233698,-6.932059,Buy,WEXFORD,http://www.daft.ie/for-sale/detached-house-6-farrin-carraig-duncannon-co-wexford/3753169
3746004,18194983,"4 Barronsfield, Ramsgrange, Co. Wexford",275000.0,145,145 m²,4,,Detached,2022-08-10,C3,114704158,213.91 kWh/m2/yr,52.243877,-6.913389,Buy,WEXFORD,http://www.daft.ie/for-sale/detached-house-4-barronsfield-ramsgrange-co-wexford/3746004
3743315,18169485,"Bayview, Clonard Road, Wexford Town, Co. Wexford",295000.0,251,251 m²,5,2,Detached,2022-08-09,D2,113461875,284.21 kWh/m2/yr,52.328998,-6.49379,Buy,WEXFORD,http://www.daft.ie/for-sale/detached-house-bayview-clonard-road-wexford-town-co-wexford/3743315
3739676,18139529,"2 The Break, Aylesbridge, Riverchapel, Gorey, Gorey, Co. Wexford",310000.0,142,142 m²,4,1,Detached,2022-07-06,C2,,,52.63283654822314,-6.24029942699687,Buy,WEXFORD,http://www.daft.ie/for-sale/detached-house-2-the-break-aylesbridge-riverchapel-gorey-gorey-co-wexford/3739676
3738649,18131675,"Spawell Road, Wexford Town, Co. Wexford",599000.0,N/A,,5,3,Detached,2022-08-10,C2,114702616,180.54 kWh/m2/yr,52.34488,-6.477497,Buy,WEXFORD,http://www.daft.ie/for-sale/detached-house-spawell-road-wexford-town-co-wexford/3738649
3738285,18126348,"39 Oakpark, Ballymurn, Co. Wexford",269000.0,121,121 m²,4,3,Detached,2022-08-10,C2,100936962,171.11 kWh/m2/yr,52.443448,-6.479556,Buy,WEXFORD,http://www.daft.ie/for-sale/detached-house-39-oakpark-ballymurn-co-wexford/3738285
3737727,18121163,"5 Middletown, Ardamine, Co. Wexford",240000.0,93,93 m²,3,1,Detached,2022-08-05,D2,107951212,272.81 kWh/m2/yr,52.634586,-6.240597,Buy,WEXFORD,http://www.daft.ie/for-sale/detached-house-5-middletown-ardamine-co-wexford/3737727
2761257,93230306,"Greenhill, Greenhill, Clonhaston, Enniscorthy, Co. Wexford","From €240,000",N/A,,2 & 4 bed,,Houses,2022-08-10,A2,,,52.504709,-6.536992,New Homes,WEXFORD,http://www.daft.ie/new-home-for-sale/greenhill-greenhill-clonhaston-enniscorthy-co-wexford/2761257
3731620,18056649,"Killincooley More , Kilmuckridge, Co. Wexford",440000.0,N/A,,4,4,Detached,2022-08-02,,,,52.48814714971672,-6.288844298941887,Buy,WEXFORD,http://www.daft.ie/for-sale/detached-house-killincooley-more-kilmuckridge-co-wexford/3731620
3730429,18044202,"Rochestown, New Ross, Co. Wexford",445000.0,204,204 m²,5,4,Detached,2022-08-10,C1,107865461,,52.373127,-6.870061,Buy,WEXFORD,http://www.daft.ie/for-sale/detached-house-rochestown-new-ross-co-wexford/3730429
3198415,14599034,"Highevelt, Castletown, Gorey, Co. Wexford",645000.0,279,279 m²,5,2,Detached,2022-07-27,B3,105281422,134.55 kWh/m2/yr,52.720943,-6.217807,Buy,WEXFORD,http://www.daft.ie/for-sale/detached-house-highevelt-castletown-gorey-co-wexford/3198415
3691449,17719277,"15 St Helens Cove, St Helens Bay, Kilrane, Co. Wexford",265000.0,125,125 m²,4,2,Detached,2022-08-10,D1,,,52.237064,-6.329018,Buy,WEXFORD,http://www.daft.ie/for-sale/detached-house-15-st-helens-cove-st-helens-bay-kilrane-co-wexford/3691449
3659654,17409985,"3 Tur Dubhain, Churchtown, Fethard On Sea, Fethard-On-Sea, Co. Wexford",379000.0,104,104 m²,4,2,Detached,2022-08-10,C3,108781162,224.42 kWh/m2/yr,52.13442,-6.925249,Buy,WEXFORD,http://www.daft.ie/for-sale/detached-house-3-tur-dubhain-churchtown-fethard-on-sea-fethard-on-sea-co-wexford/3659654
3680288,17632337,"Ballyteigue House, Kilmore Quay, Co. Wexford",425000.0,N/A,2.5 ac,5,4,Detached,2022-08-10,B2,108386517,121.84 kWh/m2/yr,52.191278,-6.586745,Buy,WEXFORD,http://www.daft.ie/for-sale/detached-house-ballyteigue-house-kilmore-quay-co-wexford/3680288
3556030,16279735,"The Pines, Nook, Arthurstown, Co. Wexford",395000.0,210,210 m²,4,4,Detached,2022-01-07,D1,107925406,,52.263107,-6.969209,Buy,WEXFORD,http://www.daft.ie/for-sale/detached-house-the-pines-nook-arthurstown-co-wexford/3556030
3486728,15875752,"Hillview House, Spring Valley, Enniscorthy, Co. Wexford",275000.0,125,125 m²,4,1,Detached,2022-08-10,D2,114119670,266.78 kWh/m2/yr,52.500275,-6.560915,Buy,WEXFORD,http://www.daft.ie/for-sale/detached-house-hillview-house-spring-valley-enniscorthy-co-wexford/3486728
3620187,16976377,"Curlew Cottage, Nemestown, Kilmore Quay, Co. Wexford",350000.0,102,102 m²,3,2,Detached,2022-08-10,D2,111393294,266.91 kWh/m2/yr,52.177454,-6.584602,Buy,WEXFORD,http://www.daft.ie/for-sale/detached-house-curlew-cottage-nemestown-kilmore-quay-co-wexford/3620187
3628574,17058076,"Clough, Gorey, Co. Wexford",449000.0,388,388 m²,5,3,Detached,2022-08-10,D1,110916087,,52.642476,-6.342203,Buy,WEXFORD,http://www.daft.ie/for-sale/detached-house-clough-gorey-co-wexford/3628574
3628250,17054156,"Cedar House, Grange Road, Rosslare Strand, Co. Wexford",525000.0,206,206 m²,5,5,Detached,2022-08-10,C2,114476773,178.97 kWh/m2/yr,52.280139,-6.393519,Buy,WEXFORD,http://www.daft.ie/for-sale/detached-house-cedar-house-grange-road-rosslare-strand-co-wexford/3628250
3585340,16610869,"Ballydaniel, Camolin, Gorey, Co. Wexford",825000.0,217,217 m²,5,3,Detached,2022-08-10,C1,108819665,155.94 kWh/m2/yr,52.619878,-6.395881,Buy,WEXFORD,http://www.daft.ie/for-sale/detached-house-ballydaniel-camolin-gorey-co-wexford/3585340
3203359,14646564,"Ballyowen House On 5 Acres, Ballyowen, Wellingtonbridge, Wellingtonbridge, Co. Wexford",495000.0,268,268 m²,5,5,Detached,2022-08-10,C1,113750178,174.01 kWh/m2/yr,52.272198,-6.754774,Buy,WEXFORD,http://www.daft.ie/for-sale/detached-house-ballyowen-house-on-5-acres-ballyowen-wellingtonbridge-wellingtonbridge-co-wexford/3203359
3579704,16559198,"Fern Hill, Ballinteskin, New Ross, Co. Wexford",365000.0,127,127 m²,3,2,Detached,2022-08-10,D1,114348329,239.53 kWh/m2/yr,52.342224,-6.943523,Buy,WEXFORD,http://www.daft.ie/for-sale/detached-house-fern-hill-ballinteskin-new-ross-co-wexford/3579704
3568588,16426633,"Kilmisten, Ardcavan, Castlebridge, Co. Wexford",349000.0,N/A,,4,2,Detached,2022-08-10,D1,113296552,259.58 kWh/m2/yr,52.371243,-6.435362,Buy,WEXFORD,http://www.daft.ie/for-sale/detached-house-kilmisten-ardcavan-castlebridge-co-wexford/3568588
3487016,15876015,"Mylerspark On 2.02 Acres, New Ross, Co. Wexford",650000.0,344,344 m²,4,4,Detached,2022-08-10,B3,113896880,149.07 kWh/m2/yr,52.35862,-6.886695,Buy,WEXFORD,http://www.daft.ie/for-sale/detached-house-mylerspark-on-2-02-acres-new-ross-co-wexford/3487016
3501485,16015164,"Wish Willow, Whitepark, Arklow, Co. Wicklow",1950000.0,548,548 m²,4,,Detached,2022-08-09,C3,,,52.761239,-6.180575,Buy,WEXFORD,http://www.daft.ie/for-sale/detached-house-wish-willow-whitepark-arklow-co-wicklow/3501485
3497927,15981848,"Clone, Ferns, Co. Wexford",385000.0,150,150 m²,4,3,Detached,2022-08-08,C2,,,52.570175,-6.506881,Buy,WEXFORD,http://www.daft.ie/for-sale/detached-house-clone-ferns-co-wexford/3497927
3235058,14914540,"Ballyregan House, Killinick, Co. Wexford",575000.0,312,312 m²,6,4,Detached,2022-08-10,,,,52.231367,-6.422824,Buy,WEXFORD,http://www.daft.ie/for-sale/detached-house-ballyregan-house-killinick-co-wexford/3235058
3486803,15875857,"Glenbower House, The Avenue, Gorey, Co. Wexford",995000.0,N/A,,6,6,Detached,2022-08-10,,,,52.672137,-6.293524,Buy,WEXFORD,http://www.daft.ie/for-sale/detached-house-glenbower-house-the-avenue-gorey-co-wexford/3486803
3486708,15875739,"30 Cluain Aoibhinn, Rosslare Strand, Co. Wexford",340000.0,N/A,,4,4,Detached,2022-08-10,B2,103124863,123.39 kWh/m2/yr,52.269464,-6.394429,Buy,WEXFORD,http://www.daft.ie/for-sale/detached-house-30-cluain-aoibhinn-rosslare-strand-co-wexford/3486708
3161994,14237063,"The Glebe House, Kilscoran, Tagoat, Co. Wexford",625000.0,340,340 m²,4,3,Detached,2022-08-09,SI_666,,,52.243445,-6.378732,Buy,WEXFORD,http://www.daft.ie/for-sale/detached-house-the-glebe-house-kilscoran-tagoat-co-wexford/3161994
2548453,12668481,"Furziestown, Tacumshane, Co. Wexford",450000.0,210,210 m²,5,3,Detached,2022-04-27,F,113208805,399.87 kWh/m2/yr,52.198701,-6.415309,Buy,WEXFORD,http://www.daft.ie/for-sale/detached-house-furziestown-tacumshane-co-wexford/2548453
1412654,12278741,"Bolinready, Ballycanew, Co. Wexford",379000.0,150,150 m²,4,2,Detached,2022-07-27,C2,102999505,198.41 kWh/m2/yr,52.602899,-6.347178,Buy,WEXFORD,http://www.daft.ie/for-sale/detached-house-bolinready-ballycanew-co-wexford/1412654
3949316,19413379,"Barmoney, Ballyhogue, Enniscorthy, Co. Wexford",149000.0,48,48 m²,3,,Detached,2022-08-10,G,112686274,747.76 kWh/m2/yr,52.382268,-6.649044,Buy,WEXFORD,http://www.daft.ie/for-sale/detached-house-barmoney-ballyhogue-enniscorthy-co-wexford/3949316
3949070,19411323,"47 Branogue Park, Riverchapel, Co. Wexford",210000.0,93,93 m²,3,2,Semi-D,2022-07-25,D1,104892187,,52.633308,-6.23484,Buy,WEXFORD,http://www.daft.ie/for-sale/semi-detached-house-47-branogue-park-riverchapel-co-wexford/3949070
3801095,18653582,"Galbally, Curracloe, Co. Wexford",335000.0,163,163 m²,4,2,Detached,2022-08-09,C2,114761521,188.48 kWh/m2/yr,52.386375,-6.420551,Buy,WEXFORD,http://www.daft.ie/for-sale/detached-house-galbally-curracloe-co-wexford/3801095
3948740,19407580,"2 Woodvillage, Fethard-On-Sea, Co. Wexford",375000.0,149,149 m²,4,3,Detached,2022-08-10,C2,107480162,197.78 kWh/m2/yr,52.202623,-6.830396,Buy,WEXFORD,http://www.daft.ie/for-sale/detached-house-2-woodvillage-fethard-on-sea-co-wexford/3948740
3947839,19402928,"Ballinteskin, New Ross, Co. Wexford",320000.0,185,185 m²,5,3,Detached,2022-06-24,C3,112882600,,52.35429,-6.942811,Buy,WEXFORD,http://www.daft.ie/for-sale/detached-house-ballinteskin-new-ross-co-wexford/3947839
3947589,19399545,"Hawthorn Lane, Clonmines, Wellingtonbridge, Co. Wexford",450000.0,224,224 m²,4,2,Detached,2022-08-09,D2,115048191,264.78 kWh/m2/yr,52.253969,-6.772107,Buy,WEXFORD,http://www.daft.ie/for-sale/detached-house-hawthorn-lane-clonmines-wellingtonbridge-co-wexford/3947589
3947201,19395691,"2 Daellen Glen, Ballywilliam, Co. Wexford",600000.0,260,260 m²,4,4,Detached,2022-06-25,B3,105622013,144.63 kWh/m2/yr,52.710143,-6.239029,Buy,WEXFORD,http://www.daft.ie/for-sale/detached-house-2-daellen-glen-ballywilliam-co-wexford/3947201
3946673,19389706,"9 Lower Ross Road, Enniscorthy, Co. Wexford",140000.0,75,75 m²,3,1,Semi-D,2022-08-10,F,115169351,442.85 kWh/m2/yr,52.502339,-6.573223,Buy,WEXFORD,http://www.daft.ie/for-sale/semi-detached-house-9-lower-ross-road-enniscorthy-co-wexford/3946673
3946182,19382850,"Willowbrook, Cullenogue, Gorey, Co. Wexford",625000.0,214,214 m²,4,5,Detached,2022-08-10,A2,114623150,33.56 kWh/m2/yr,52.721494,-6.219519,Buy,WEXFORD,http://www.daft.ie/for-sale/detached-house-willowbrook-cullenogue-gorey-co-wexford/3946182
3945742,19379054,"51 Old Forest, Bunclody, Co. Wexford",220000.0,110,110 m²,3,2,Semi-D,2022-06-26,C2,105919476,186.69 kWh/m2/yr,52.644583,-6.649045,Buy,WEXFORD,http://www.daft.ie/for-sale/semi-detached-house-51-old-forest-bunclody-co-wexford/3945742
3942702,19350483,"Milltown, Ballycullane, Co. Wexford",575000.0,288,288 m²,4,3,Detached,2022-08-10,B3,115343873,136.23 kWh/m2/yr,52.257447,-6.857382,Buy,WEXFORD,http://www.daft.ie/for-sale/detached-house-milltown-ballycullane-co-wexford/3942702
3942227,19343510,"Boleany, Gorey, Co. Wexford",420000.0,191,191 m²,4,3,Detached,2022-08-08,C3,,,52.63681,-6.273259,Buy,WEXFORD,http://www.daft.ie/for-sale/detached-house-boleany-gorey-co-wexford/3942227
3944381,19368603,"Beechlawn, Cools, Barntown, Co. Wexford",575000.0,315,315 m²,4,4,Detached,2022-08-10,B3,115166209,133.6 kWh/m2/yr,52.321299,-6.588691,Buy,WEXFORD,http://www.daft.ie/for-sale/detached-house-beechlawn-cools-barntown-co-wexford/3944381
3944239,19366674,"Mangan, Killanne, Co. Wexford",395000.0,227,227 m²,5,5,Detached,2022-07-27,B2,,,52.527743,-6.70251,Buy,WEXFORD,http://www.daft.ie/for-sale/detached-house-mangan-killanne-co-wexford/3944239
3944109,19365024,"Littletown, Tomhaggard, Co. Wexford",685000.0,276,276 m²,4,5,Detached,2022-07-01,B2,115166332,118.31 kWh/m2/yr,52.218038,-6.507447,Buy,WEXFORD,http://www.daft.ie/for-sale/detached-house-littletown-tomhaggard-co-wexford/3944109
3943665,19359210,"Laraheen Cottage, Laraheen, Gorey, Co. Wexford",175000.0,N/A,,2,1,Detached,2022-08-07,SI_666,,,52.72042234473093,-6.3294027373194695,Buy,WEXFORD,http://www.daft.ie/for-sale/detached-house-laraheen-cottage-laraheen-gorey-co-wexford/3943665
3943625,19359188,"Whiterock Cottage, Pembrokestown, Whiterock, Co. Wexford",525000.0,227,227 m²,4,6,Detached,2022-07-01,B3,111256541,140.68 kWh/m2/yr,52.320713,-6.476169,Buy,WEXFORD,http://www.daft.ie/for-sale/detached-house-whiterock-cottage-pembrokestown-whiterock-co-wexford/3943625
3943373,19355544,"Kilgibbon, Edermine, Enniscorthy, Co. Wexford",470000.0,180,180 m²,4,2,Detached,2022-08-10,C1,115020588,168.34 kWh/m2/yr,52.453974,-6.576537,Buy,WEXFORD,http://www.daft.ie/for-sale/detached-house-kilgibbon-edermine-enniscorthy-co-wexford/3943373
3943166,19354649,"Ardrahan, Knocktown, Duncormick, Co. Wexford",350000.0,186,186 m²,4,3,Detached,2022-08-10,C1,103669107,174.23 kWh/m2/yr,52.250312,-6.616597,Buy,WEXFORD,http://www.daft.ie/for-sale/detached-house-ardrahan-knocktown-duncormick-co-wexford/3943166
3942472,19346708,"Ballynabarney, Hollyfort, Co. Wexford",320000.0,136,136 m²,3,2,Detached,2022-08-05,C3,101284636,212.41 kWh/m2/yr,52.764559,-6.360763,Buy,WEXFORD,http://www.daft.ie/for-sale/detached-house-ballynabarney-hollyfort-co-wexford/3942472
3942379,19344934,"Clonard Road, Clonard, Co. Wexford",315000.0,114,114 m²,4,1,Detached,2022-07-01,F,114667272,392.72 kWh/m2/yr,52.330332,-6.4928,Buy,WEXFORD,http://www.daft.ie/for-sale/detached-house-clonard-road-clonard-co-wexford/3942379
3940977,19333274,"Fahy's Cross, Castlebridge, Co. Wexford",Price on Application,129,129 m²,2,1,Detached,2022-07-14,F,114860737,418.37 kWh/m2/yr,52.369814,-6.447718,Buy,WEXFORD,http://www.daft.ie/for-sale/detached-house-fahys-cross-castlebridge-co-wexford/3940977
3940352,19325847,"29 Riverview, New Ross, Co. Wexford",270000.0,84,84 m²,3,1,Detached,2022-08-10,D2,115028052,267.65 kWh/m2/yr,52.385457,-6.944772,Buy,WEXFORD,http://www.daft.ie/for-sale/detached-house-29-riverview-new-ross-co-wexford/3940352
3940249,19324344,"Glenbeg, Ardamine, Ardamine, Co. Wexford",280000.0,N/A,,3,1,Detached,2022-08-05,D1,,,52.628201,-6.231213,Buy,WEXFORD,http://www.daft.ie/for-sale/detached-house-glenbeg-ardamine-ardamine-co-wexford/3940249
3939077,19315503,"3 Church Street, Gorey, Co. Wexford",Price on Application,N/A,,2,,End of Terrace,2022-08-05,SI_666,,,52.675704,-6.292098,Buy,WEXFORD,http://www.daft.ie/for-sale/end-of-terrace-house-3-church-street-gorey-co-wexford/3939077
3938682,19312115,"3 Le Havre, Roney Point, Gorey, Co. Wexford",325000.0,94,94 m²,4,1,Detached,2022-08-09,D1,114282585,,52.603361,-6.218161,Buy,WEXFORD,http://www.daft.ie/for-sale/detached-house-3-le-havre-roney-point-gorey-co-wexford/3938682
3938441,19309888,"2 Le Havre, Roney Point, Gorey, Co. Wexford",325000.0,94,94 m²,4,1,Detached,2022-08-09,D2,114282676,,52.603371,-6.218525,Buy,WEXFORD,http://www.daft.ie/for-sale/detached-house-2-le-havre-roney-point-gorey-co-wexford/3938441
3938435,19309886,"Sanitta, 1 Clonattin, Gorey, Co. Wexford",Price on Application,135,135 m²,4,3,Detached,2022-08-10,C3,100970532,,52.678456,-6.279435,Buy,WEXFORD,http://www.daft.ie/for-sale/detached-house-sanitta-1-clonattin-gorey-co-wexford/3938435
3938233,19308253,"45 Laurel Grove, Tagoat, Co. Wexford",245000.0,126,126 m²,3,2,Semi-D,2022-06-17,C1,101278703,163.85 kWh/m2/yr,52.244679,-6.385198,Buy,WEXFORD,http://www.daft.ie/for-sale/semi-detached-house-45-laurel-grove-tagoat-co-wexford/3938233
3938097,19306435,"23 Strawberry Hill, Bunclody, Co. Wexford",165000.0,101,101 m²,3,2,Semi-D,2022-06-23,C3,115051468,212.09 kWh/m2/yr,52.647712,-6.65328,Buy,WEXFORD,http://www.daft.ie/for-sale/semi-detached-house-23-strawberry-hill-bunclody-co-wexford/3938097
3937914,19304318,"Knock View, Knocknasilloge, Blackwater, Co. Wexford",320000.0,140,140 m²,4,3,Detached,2022-08-10,C3,101689456,220.22 kWh/m2/yr,52.457577,-6.328414,Buy,WEXFORD,http://www.daft.ie/for-sale/detached-house-knock-view-knocknasilloge-blackwater-co-wexford/3937914
3938003,19305553,"4 Coastguard Court, Cullenstown, Duncormick, Co. Wexford",235000.0,102,102 m²,2,2,Terrace,2022-08-10,C2,115026494,195.36 kWh/m2/yr,52.221406,-6.707964,Buy,WEXFORD,http://www.daft.ie/for-sale/terraced-house-4-coastguard-court-cullenstown-duncormick-co-wexford/3938003
3937908,19304301,"7 Glor Na Mara Grange Road, Rosslare Strand, Co. Wexford",445000.0,194,194 m²,4,3,Detached,2022-06-27,C1,105146724,154.04 kWh/m2/yr,52.276847,-6.395137,Buy,WEXFORD,http://www.daft.ie/for-sale/detached-house-7-glor-na-mara-grange-road-rosslare-strand-co-wexford/3937908
3937755,19302957,"12 Cois Cuan, Arthurstown, Co. Wexford",180000.0,N/A,,3,2,Semi-D,2022-08-10,C3,106256100,224.53 kWh/m2/yr,52.244248,-6.955378,Buy,WEXFORD,http://www.daft.ie/for-sale/semi-detached-house-12-cois-cuan-arthurstown-co-wexford/3937755
3937604,19302451,"No. 15 Rosetown Village, Rosslare Strand, Co. Wexford",270000.0,107,107 m²,3,3,Semi-D,2022-08-09,C3,115161234,105193.0 kWh/m2/yr,52.26397,-6.38612,Buy,WEXFORD,http://www.daft.ie/for-sale/semi-detached-house-no-15-rosetown-village-rosslare-strand-co-wexford/3937604
3937491,19301804,"Ennistone, 5 Slaney View Court, Wexford Town, Co. Wexford",395000.0,124,124 m²,3,1,Detached,2022-07-01,D1,102319985,243.17 kWh/m2/yr,52.340535,-6.478465,Buy,WEXFORD,http://www.daft.ie/for-sale/detached-house-ennistone-5-slaney-view-court-wexford-town-co-wexford/3937491
3936647,19294019,"Hillcrest, Clonhaston, Enniscorthy, Co. Wexford",280000.0,116,116 m²,3,1,Detached,2022-07-27,F,,,52.502567,-6.544147,Buy,WEXFORD,http://www.daft.ie/for-sale/detached-house-hillcrest-clonhaston-enniscorthy-co-wexford/3936647
3931863,19245319,"Cousinstown, Bridgetown, Co. Wexford",297500.0,136,136 m²,3,2,Detached,2022-07-01,C2,115002495,182.48 kWh/m2/yr,52.226101,-6.534134,Buy,WEXFORD,http://www.daft.ie/for-sale/detached-house-cousinstown-bridgetown-co-wexford/3931863
3936468,19290114,"Ballyclemock, Newbawn, Co. Wexford",750000.0,395,395 m²,7,5,Detached,2022-08-09,B3,115039406,134.15 kWh/m2/yr,52.353158,-6.746302,Buy,WEXFORD,http://www.daft.ie/for-sale/detached-house-ballyclemock-newbawn-co-wexford/3936468
3935867,19282671,"No. 18 The Green, Clonard Village, Clonard, Wexford Town, Co. Wexford",175000.0,80,80 m²,2,3,Terrace,2022-08-09,C3,115159121,208.9 kWh/m2/yr,52.326108,-6.49767,Buy,WEXFORD,http://www.daft.ie/for-sale/terraced-house-no-18-the-green-clonard-village-clonard-wexford-town-co-wexford/3935867
3933257,19257010,"8 Riverchapel Street, Riverchapel, Co. Wexford",225000.0,98,98 m²,3,3,Semi-D,2022-08-05,C1,115226433,154.94 kWh/m2/yr,52.639275,-6.239493,Buy,WEXFORD,http://www.daft.ie/for-sale/semi-detached-house-8-riverchapel-street-riverchapel-co-wexford/3933257
3935185,19276701,"Asbury, Ballyart, Ballygarrett, Co. Wexford",525000.0,247,247 m²,4,4,Detached,2022-08-10,B2,115050510,122.72 kWh/m2/yr,52.563022,-6.280413,Buy,WEXFORD,http://www.daft.ie/for-sale/detached-house-asbury-ballyart-ballygarrett-co-wexford/3935185
3934520,19272393,"96 Belvedere Grove, Coolcotts, Wexford Town, Co. Wexford",185000.0,95,95 m²,3,1,Terrace,2022-08-10,D2,113438188,285.3 kWh/m2/yr,52.335617,-6.478534,Buy,WEXFORD,http://www.daft.ie/for-sale/terraced-house-96-belvedere-grove-coolcotts-wexford-town-co-wexford/3934520
3934051,19265100,"29 Laurel Grove, Tagoat, Co. Wexford",235000.0,120,120 m²,4,,Semi-D,2022-08-10,C2,114873912,193.67 kWh/m2/yr,52.243716,-6.385838,Buy,WEXFORD,http://www.daft.ie/for-sale/semi-detached-house-29-laurel-grove-tagoat-co-wexford/3934051
3934053,19265158,"Ballycogley House, Crosstown, Ballycogley, Killinick, Co. Wexford",525000.0,291,291 m²,5,2,Detached,2022-08-10,B3,115039711,136.1 kWh/m2/yr,52.244536,-6.489633,Buy,WEXFORD,http://www.daft.ie/for-sale/detached-house-ballycogley-house-crosstown-ballycogley-killinick-co-wexford/3934053
3933304,19257032,"Glena Ville, Glena Terrace, Spawell Road, Wexford Town, Co. Wexford",385000.0,N/A,,6,2,End of Terrace,2022-08-09,SI_666,,,52.342686,-6.469645,Buy,WEXFORD,http://www.daft.ie/for-sale/end-of-terrace-house-glena-ville-glena-terrace-spawell-road-wexford-town-co-wexford/3933304
3933229,19256995,"5 New Range, The Shannon, Enniscorthy, Co. Wexford",175000.0,75,75 m²,3,1,Terrace,2022-07-27,D2,,,52.501924,-6.562242,Buy,WEXFORD,http://www.daft.ie/for-sale/terraced-house-5-new-range-the-shannon-enniscorthy-co-wexford/3933229
3933045,19255032,"Tullycanna, Ballymitty, Co. Wexford",350000.0,138,138 m²,3,2,Detached,2022-08-10,C3,113733273,214.65 kWh/m2/yr,52.266342,-6.673661,Buy,WEXFORD,http://www.daft.ie/for-sale/detached-house-tullycanna-ballymitty-co-wexford/3933045
3932486,19249068,"2 Ceol Na Mara, Templetown, Fethard-On-Sea, Co. Wexford",355000.0,160,160 m²,5,4,Semi-D,2022-06-13,C2,107394900,,52.157791,-6.893299,Buy,WEXFORD,http://www.daft.ie/for-sale/semi-detached-house-2-ceol-na-mara-templetown-fethard-on-sea-co-wexford/3932486
3932416,19249024,"4 The Stable Yard, Horetown South, Foulksmills, Co. Wexford",195000.0,94,94 m²,2,2,Terrace,2022-06-13,C1,109099283,,52.318483,-6.7201,Buy,WEXFORD,http://www.daft.ie/for-sale/terraced-house-4-the-stable-yard-horetown-south-foulksmills-co-wexford/3932416
4008922,113008218,"Rowestown, Barntown, Co. Wexford",425000.0,277,277 m²,3,2,Detached,2022-08-05,B3,101946325,144.42 kWh/m2/yr,52.332063,-6.569913,Buy,WEXFORD,http://www.daft.ie/for-sale/detached-house-rowestown-barntown-co-wexford/4008922
4008786,113006593,"Tincurry, Ferns, Co. Wexford",320000.0,119,119 m²,4,2,Detached,2022-08-09,C3,103457537,207.45 kWh/m2/yr,52.573213,-6.570303,Buy,WEXFORD,http://www.daft.ie/for-sale/detached-house-tincurry-ferns-co-wexford/4008786
4008661,113004497,"9 Beechwood Avenue, Mauritiustown, Rosslare Strand, Co. Wexford",255000.0,101,101 m²,3,3,Semi-D,2022-08-05,D1,112458435,264.63 kWh/m2/yr,52.265005,-6.390147,Buy,WEXFORD,http://www.daft.ie/for-sale/semi-detached-house-9-beechwood-avenue-mauritiustown-rosslare-strand-co-wexford/4008661
4007674,112996998,"Laurel View, Garrywilliam, Crossabeg, Co. Wexford",415000.0,162,162 m²,4,3,Detached,2022-08-10,C1,101691616,164.77 kWh/m2/yr,52.383449,-6.51458,Buy,WEXFORD,http://www.daft.ie/for-sale/detached-house-laurel-view-garrywilliam-crossabeg-co-wexford/4007674
4007660,112995183,"37 Glen Aoibhinn, Middletown, Gorey, Co. Wexford",325000.0,124,124 m²,4,2,Semi-D,2022-08-10,C1,115384992,164.92 kWh/m2/yr,52.632569,-6.238018,Buy,WEXFORD,http://www.daft.ie/for-sale/semi-detached-house-37-glen-aoibhinn-middletown-gorey-co-wexford/4007660
4007511,112994314,"14 Duffry Gate, Enniscorthy, Co. Wexford",195000.0,N/A,,3,1,End of Terrace,2022-08-10,D2,112833918,276.99 kWh/m2/yr,52.503039,-6.573652,Buy,WEXFORD,http://www.daft.ie/for-sale/end-of-terrace-house-14-duffry-gate-enniscorthy-co-wexford/4007511
4007318,112993818,"41 Cromwellsfort Court, Mulgannon, Wexford Town, Co. Wexford",175000.0,96,96 m²,3,2,End of Terrace,2022-08-05,D1,105168975,243.69 kWh/m2/yr,52.330459,-6.460692,Buy,WEXFORD,http://www.daft.ie/for-sale/end-of-terrace-house-41-cromwellsfort-court-mulgannon-wexford-town-co-wexford/4007318
4007041,112990051,"Ballygullen, Craanford, Co. Wexford",599000.0,365,365 m²,4,4,Detached,2022-08-09,B2,115368250,107.64 kWh/m2/yr,52.695556,-6.363861,Buy,WEXFORD,http://www.daft.ie/for-sale/detached-house-ballygullen-craanford-co-wexford/4007041
3498703,15989155,"Barrystown, Wellingtonbridge, Co. Wexford",230000.0,139,139 m²,5,2,Detached,2022-08-10,G,114303381,521.17 kWh/m2/yr,52.25456,-6.741785,Buy,WEXFORD,http://www.daft.ie/for-sale/detached-house-barrystown-wellingtonbridge-co-wexford/3498703
4006970,112990016,"20 Glenbrook, Wexford Town, Co. Wexford",310000.0,111,111 m²,4,2,Detached,2022-08-04,D2,106005267,288.39 kWh/m2/yr,52.342793,-6.479539,Buy,WEXFORD,http://www.daft.ie/for-sale/detached-house-20-glenbrook-wexford-town-co-wexford/4006970
4006816,112989115,"Ballingowan, The Ballagh, Co. Wexford",350000.0,197,197 m²,4,2,Detached,2022-08-10,C3,115359309,,52.483693,-6.36034,Buy,WEXFORD,http://www.daft.ie/for-sale/detached-house-ballingowan-the-ballagh-co-wexford/4006816
4006144,112982979,"Mount View House, Tomsallagh, Ferns, Co. Wexford",1350000.0,555,555 m²,9,4,Detached,2022-08-03,B3,113161566,149.06 kWh/m2/yr,52.562915,-6.492261,Buy,WEXFORD,http://www.daft.ie/for-sale/detached-house-mount-view-house-tomsallagh-ferns-co-wexford/4006144
4005923,112980915,"7 Bullawn, New Ross, Co. Wexford",99000.0,N/A,,2,1,Terrace,2022-08-10,G,104050158,571.97 kWh/m2/yr,52.397094,-6.941251,Buy,WEXFORD,http://www.daft.ie/for-sale/terraced-house-7-bullawn-new-ross-co-wexford/4005923
4005925,112980916,"Olgie, Main Street, Taghmon, Co. Wexford",145000.0,85,85 m²,2,1,Semi-D,2022-08-10,G,102069069,492.03 kWh/m2/yr,52.322617,-6.653383,Buy,WEXFORD,http://www.daft.ie/for-sale/semi-detached-house-olgie-main-street-taghmon-co-wexford/4005925
4005967,112980891,"The Brambles, Bryanstown, Foulksmills, Co. Wexford",349000.0,154,154 m²,4,2,Detached,2022-08-10,C2,115374795,195.6 kWh/m2/yr,52.304409,-6.786417,Buy,WEXFORD,http://www.daft.ie/for-sale/detached-house-the-brambles-bryanstown-foulksmills-co-wexford/4005967
4005890,112980501,"1 Millpark Road, Enniscorthy, Co. Wexford",180000.0,N/A,,4,2,Semi-D,2022-08-10,F,100963040,415.81 kWh/m2/yr,52.499359,-6.567139,Buy,WEXFORD,http://www.daft.ie/for-sale/semi-detached-house-1-millpark-road-enniscorthy-co-wexford/4005890
4005902,112980513,"80 Clonattin Village, Gorey, Co. Wexford",275000.0,108,108 m²,3,3,Semi-D,2022-08-10,D1,115381659,254.7 kWh/m2/yr,52.678315,-6.274254,Buy,WEXFORD,http://www.daft.ie/for-sale/semi-detached-house-80-clonattin-village-gorey-co-wexford/4005902
4005900,112980512,"88 Clonattin Village, Gorey, Co. Wexford",250000.0,N/A,,3,3,Semi-D,2022-08-10,C2,100557628,192.28 kWh/m2/yr,52.678172,-6.273539,Buy,WEXFORD,http://www.daft.ie/for-sale/semi-detached-house-88-clonattin-village-gorey-co-wexford/4005900
4005891,112980502,"23 Gimont Avenue, Enniscorthy, Co. Wexford",150000.0,86,86 m²,3,1,Semi-D,2022-08-10,E1,112371489,316.52 kWh/m2/yr,52.49564,-6.555375,Buy,WEXFORD,http://www.daft.ie/for-sale/semi-detached-house-23-gimont-avenue-enniscorthy-co-wexford/4005891
4005854,112980446,"27 Village Gate, Ballycanew, Co. Wexford",299000.0,120,120 m²,4,3,Semi-D,2022-08-03,D1,108416330,64.81 kWh/m2/yr,52.612115,-6.307409,Buy,WEXFORD,http://www.daft.ie/for-sale/semi-detached-house-27-village-gate-ballycanew-co-wexford/4005854
4005486,112977971,"2 Grattan Terrace, Gorey, Co. Wexford",270000.0,96,96 m²,4,1,Terrace,2022-08-09,B3,105511471,,52.674564,-6.291368,Buy,WEXFORD,http://www.daft.ie/for-sale/terraced-house-2-grattan-terrace-gorey-co-wexford/4005486
3492566,15930635,"Killeagh, Blackwater, Co. Wexford",310000.0,169,169 m²,4,3,Detached,2022-08-09,D1,114287022,243.08 kWh/m2/yr,52.456776,-6.334546,Buy,WEXFORD,http://www.daft.ie/for-sale/detached-house-killeagh-blackwater-co-wexford/3492566
3997287,112907803,"Monagreana, Monamolin, Co. Wexford",399000.0,271,271 m²,5,3,Detached,2022-08-08,C1,,,52.572247,-6.371591,Buy,WEXFORD,http://www.daft.ie/for-sale/detached-house-monagreana-monamolin-co-wexford/3997287
4005250,112976191,"Bishopswater House, Distillery Road, Wexford Town, Co. Wexford",287500.0,144,144 m²,4,2,Detached,2022-08-03,E1,113862585,319.76 kWh/m2/yr,52.329377,-6.471078,Buy,WEXFORD,http://www.daft.ie/for-sale/detached-house-bishopswater-house-distillery-road-wexford-town-co-wexford/4005250
4004007,112963437,"5 Corach Avenue, Wellingtonbridge, Co. Wexford",190000.0,85,85 m²,3,2,Semi-D,2022-08-10,D2,110767704,277.62 kWh/m2/yr,52.265176,-6.750382,Buy,WEXFORD,http://www.daft.ie/for-sale/semi-detached-house-5-corach-avenue-wellingtonbridge-co-wexford/4004007
4003613,112958165,"15 Creagh Demesne, Gorey, Co. Wexford",220000.0,71,71 m²,2,2,Terrace,2022-08-08,C1,115398521,156.37 kWh/m2/yr,52.680249,-6.300646,Buy,WEXFORD,http://www.daft.ie/for-sale/terraced-house-15-creagh-demesne-gorey-co-wexford/4003613
4003911,112962039,"18 Tuskamore Avenue, Rosslare Harbour, Co. Wexford",115000.0,64,64 m²,3,1,End of Terrace,2022-08-02,C3,112789110,218.79 kWh/m2/yr,52.249295,-6.33784,Buy,WEXFORD,http://www.daft.ie/for-sale/end-of-terrace-house-18-tuskamore-avenue-rosslare-harbour-co-wexford/4003911
4003860,112962012,"Libgate, Kilmore Quay, Co. Wexford",AMV: Price on Application,108,108 m²,4,1,Detached,2022-08-04,G,115216681,524.91 kWh/m2/yr,52.182257,-6.570899,Buy,WEXFORD,http://www.daft.ie/for-sale/detached-house-libgate-kilmore-quay-co-wexford/4003860
4003552,112958130,"1 Greenfields, Kilthomas, Gorey, Co. Wexford",460000.0,286,286 m²,4,4,Detached,2022-08-02,C1,,,52.619948,-6.491284,Buy,WEXFORD,http://www.daft.ie/for-sale/detached-house-1-greenfields-kilthomas-gorey-co-wexford/4003552
4003532,112958119,"87 Creagh Woods, Gorey, Co. Wexford",225000.0,89,89 m²,2,2,Semi-D,2022-08-09,B3,115356487,146.35 kWh/m2/yr,52.677343,-6.3116,Buy,WEXFORD,http://www.daft.ie/for-sale/semi-detached-house-87-creagh-woods-gorey-co-wexford/4003532
4002510,112953159,"14 Oak Ridge, Clonattin, Gorey, Co. Wexford",350000.0,126,126 m²,4,3,Detached,2022-08-10,C3,,,52.679968,-6.274614,Buy,WEXFORD,http://www.daft.ie/for-sale/detached-house-14-oak-ridge-clonattin-gorey-co-wexford/4002510
3997037,112904997,"99 Grange Road, Southknock, New Ross, Co. Wexford",210000.0,109,109 m²,3,2,Semi-D,2022-07-30,C1,115373235,,52.386913,-6.940501,Buy,WEXFORD,http://www.daft.ie/for-sale/semi-detached-house-99-grange-road-southknock-new-ross-co-wexford/3997037
3997051,112905004,"15 Grange Court, Fethard-On-Sea, Co. Wexford",250000.0,90,90 m²,3,2,Terrace,2022-07-30,D1,109033175,,52.198401,-6.832705,Buy,WEXFORD,http://www.daft.ie/for-sale/terraced-house-15-grange-court-fethard-on-sea-co-wexford/3997051
4001633,112946186,"30 Irishtown, New Ross, Co. Wexford","AMV: €90,000",48,48 m²,2,1,Terrace,2022-08-10,F,,,52.398762,-6.935135,Buy,WEXFORD,http://www.daft.ie/for-sale/terraced-house-30-irishtown-new-ross-co-wexford/4001633
4001586,112945127,"Ballyumpton House, Castlepaliser, Carne, Co. Wexford",650000.0,465,465 m²,7,7,Detached,2022-08-10,C3,100900224,208.47 kWh/m2/yr,52.197037,-6.365974,Buy,WEXFORD,http://www.daft.ie/for-sale/detached-house-ballyumpton-house-castlepaliser-carne-co-wexford/4001586
4001548,112944182,"The BIrches, Ballygarron, Kilmuckridge, Co. Wexford",345000.0,155,155 m²,3,3,Detached,2022-08-09,D1,115377210,229.8 kWh/m2/yr,52.509579,-6.288689,Buy,WEXFORD,http://www.daft.ie/for-sale/detached-house-the-birches-ballygarron-kilmuckridge-co-wexford/4001548
4001379,112943963,"91 Pineridge, Wexford Town, Co. Wexford",349000.0,119,119 m²,4,2,Detached,2022-08-10,D1,102271046,237.94 kWh/m2/yr,52.332806,-6.468452,Buy,WEXFORD,http://www.daft.ie/for-sale/detached-house-91-pineridge-wexford-town-co-wexford/4001379
4001352,112943314,"15 Shelbourne Place, Campile, Co. Wexford",174000.0,105,105 m²,3,3,Semi-D,2022-08-10,C2,115381402,191.58 kWh/m2/yr,52.292693,-6.940849,Buy,WEXFORD,http://www.daft.ie/for-sale/semi-detached-house-15-shelbourne-place-campile-co-wexford/4001352
4001331,112942715,"31 Fr Cullen Terrace, Enniscorthy, Co. Wexford",225000.0,N/A,,4,,Semi-D,2022-08-10,D1,115370074,246.14 kWh/m2/yr,52.501275,-6.559126,Buy,WEXFORD,http://www.daft.ie/for-sale/semi-detached-house-31-fr-cullen-terrace-enniscorthy-co-wexford/4001331
